# 
# Header Description:
# 
# Version: v3.1.1.2 Platform: 16 Manufacturer: samsung Model: SM-A176B GNSS Hardware Model Name: S.LSI,K056,SPOTNAV_4.11.1_25_E87
# 
# Raw,utcTimeMillis,TimeNanos,LeapSecond,TimeUncertaintyNanos,FullBiasNanos,BiasNanos,BiasUncertaintyNanos,DriftNanosPerSecond,DriftUncertaintyNanosPerSecond,HardwareClockDiscontinuityCount,Svid,TimeOffsetNanos,State,ReceivedSvTimeNanos,ReceivedSvTimeUncertaintyNanos,Cn0DbHz,PseudorangeRateMetersPerSecond,PseudorangeRateUncertaintyMetersPerSecond,AccumulatedDeltaRangeState,AccumulatedDeltaRangeMeters,AccumulatedDeltaRangeUncertaintyMeters,CarrierFrequencyHz,CarrierCycles,CarrierPhase,CarrierPhaseUncertainty,MultipathIndicator,SnrInDb,ConstellationType,AgcDb,BasebandCn0DbHz,FullInterSignalBiasNanos,FullInterSignalBiasUncertaintyNanos,SatelliteInterSignalBiasNanos,SatelliteInterSignalBiasUncertaintyNanos,CodeType,ChipsetElapsedRealtimeNanos,IsFullTracking,SvPositionEcefXMeters,SvPositionEcefYMeters,SvPositionEcefZMeters,SvVelocityEcefXMetersPerSecond,SvVelocityEcefYMetersPerSecond,SvVelocityEcefZMetersPerSecond,SvClockBiasMeters,SvClockDriftMetersPerSecond,KlobucharAlpha0,KlobucharAlpha1,KlobucharAlpha2,KlobucharAlpha3,KlobucharBeta0,KlobucharBeta1,KlobucharBeta2,KlobucharBeta3
# 
# UncalAccel,utcTimeMillis,elapsedRealtimeNanos,UncalAccelXMps2,UncalAccelYMps2,UncalAccelZMps2,BiasXMps2,BiasYMps2,BiasZMps2,CalibrationAccuracy
# 
# Accel,utcTimeMillis,elapsedRealtimeNanos,AccelXMps2,AccelYMps2,AccelZMps2,CalibrationAccuracy
# 
# UncalGyro,utcTimeMillis,elapsedRealtimeNanos,UncalGyroXRadPerSec,UncalGyroYRadPerSec,UncalGyroZRadPerSec,DriftXRadPerSec,DriftYRadPerSec,DriftZRadPerSec,CalibrationAccuracy
# 
# Gyro,utcTimeMillis,elapsedRealtimeNanos,GyroXRadPerSec,GyroYRadPerSec,GyroZRadPerSec,CalibrationAccuracy
# 
# UncalMag,utcTimeMillis,elapsedRealtimeNanos,UncalMagXMicroT,UncalMagYMicroT,UncalMagZMicroT,BiasXMicroT,BiasYMicroT,BiasZMicroT,CalibrationAccuracy
# 
# Mag,utcTimeMillis,elapsedRealtimeNanos,MagXMicroT,MagYMicroT,MagZMicroT,CalibrationAccuracy
# 
# Pressure,utcTimeMillis,elapsedRealtimeNanos,PressureHpa,CalibrationAccuracy
# 
# OrientationDeg,utcTimeMillis,elapsedRealtimeNanos,yawDeg,rollDeg,pitchDeg,CalibrationAccuracy
# 
# Fix,Provider,LatitudeDegrees,LongitudeDegrees,AltitudeMeters,SpeedMps,AccuracyMeters,BearingDegrees,UnixTimeMillis,SpeedAccuracyMps,BearingAccuracyDegrees,elapsedRealtimeNanos,VerticalAccuracyMeters,MockLocation,NumberOfUsedSignals,VerticalSpeedAccuracyMps,SolutionType
# 
# Nav,Svid,Type,Status,MessageId,Sub-messageId,Data(Bytes)
# 
# Status,UnixTimeMillis,SignalCount,SignalIndex,ConstellationType,Svid,CarrierFrequencyHz,Cn0DbHz,AzimuthDegrees,ElevationDegrees,UsedInFix,HasAlmanacData,HasEphemerisData,BasebandCn0DbHz
# 
# Agc,utcTimeMillis,TimeNanos,LeapSecond,TimeUncertaintyNanos,FullBiasNanos,BiasNanos,BiasUncertaintyNanos,DriftNanosPerSecond,DriftUncertaintyNanosPerSecond,HardwareClockDiscontinuityCount,AgcDb,CarrierFrequencyHz,ConstellationType
# 
# GameRotationVector,utcTimeMillis,elapsedRealtimeNanos,x,y,z,w
# 
Status,,33,0,1,12,1575420000,42.10,72.1,64.0,1,0,1,37.1
Status,,33,1,1,25,1575420000,40.70,318.8,63.3,1,0,1,35.7
Status,,33,2,1,11,1575420000,39.60,77.3,48.3,1,0,1,34.6
Status,,33,3,1,29,1575420000,44.00,247.2,45.6,1,0,1,39.0
Status,,33,4,1,28,1575420000,39.10,316.8,20.2,1,0,1,34.1
Status,,33,5,1,6,1575420000,44.80,40.0,18.0,1,0,1,39.8
Status,,33,6,1,32,1575420000,39.50,273.0,14.4,1,0,1,34.5
Status,,33,7,1,24,1575420000,39.20,170.9,25.2,0,0,1,34.2
Status,,33,8,3,23,1603687600,41.10,144.9,77.5,1,0,1,36.1
Status,,33,9,3,13,1600875000,39.50,353.8,67.2,1,0,1,34.5
Status,,33,10,3,12,1601437400,43.20,107.0,49.4,1,0,1,38.2
Status,,33,11,3,22,1600312400,41.70,41.1,48.9,1,0,1,36.7
Status,,33,12,3,24,1603125000,37.70,202.9,16.9,1,0,1,32.7
Status,,33,13,3,4,1605375000,43.00,306.9,8.0,1,0,1,38.0
Status,,33,14,6,2,1575420000,39.10,33.2,72.1,1,0,1,34.1
Status,,33,15,6,36,1575420000,40.90,108.0,50.1,1,0,1,35.9
Status,,33,16,6,30,1575420000,40.60,296.6,37.9,1,0,1,35.6
Status,,33,17,6,25,1575420000,36.90,91.7,26.2,1,0,1,31.9
Status,,33,18,6,34,1575420000,34.70,170.0,25.6,1,0,1,29.7
Status,,33,19,6,7,1575420000,41.30,288.2,22.2,1,0,1,36.3
Status,,33,20,6,8,1575420000,37.20,234.1,20.3,1,0,1,32.2
Status,,33,21,6,10,1575420000,27.80,30.1,6.6,1,0,1,22.8
Status,,33,22,5,11,1561098000,37.40,175.6,73.7,1,0,1,32.4
Status,,33,23,5,34,1575420000,47.10,68.1,69.5,1,0,1,42.1
Status,,33,24,5,43,1575420000,45.50,212.0,46.6,1,0,1,40.5
Status,,33,25,5,12,1561098000,36.30,50.0,43.8,1,0,1,31.3
Status,,33,26,5,23,1575420000,42.90,309.2,42.7,1,0,1,37.9
Status,,33,27,5,10,1561098000,29.80,64.3,27.0,1,0,1,24.8
Status,,33,28,5,24,1575420000,38.20,130.8,23.5,1,0,1,33.2
Status,,33,29,5,44,1575420000,41.60,46.5,16.7,1,0,1,36.6
Status,,33,30,5,7,1561098000,38.20,64.6,14.8,1,0,1,33.2
Status,,33,31,5,38,1575420000,37.40,83.4,8.9,1,0,1,32.4
Status,,33,32,5,25,1561098000,22.30,0.0,0.0,0,0,0,17.3
Fix,GPS,40.8909440925,29.3773466069,181.0,0.22999999,3.0,1.8,1774252328000,0.29,18.6,80731921113585,3.0,0,,,
Status,1774252328000,33,0,1,12,1575420000,42.10,72.1,64.0,1,0,1,37.1
Status,1774252328000,33,1,1,25,1575420000,40.70,318.8,63.3,1,0,1,35.7
Status,1774252328000,33,2,1,11,1575420000,39.60,77.3,48.3,1,0,1,34.6
Status,1774252328000,33,3,1,29,1575420000,43.90,247.2,45.6,1,0,1,38.9
Status,1774252328000,33,4,1,28,1575420000,38.60,316.8,20.2,1,0,1,33.6
Status,1774252328000,33,5,1,6,1575420000,44.60,40.0,18.0,1,0,1,39.6
Status,1774252328000,33,6,1,32,1575420000,39.10,273.0,14.4,1,0,1,34.1
Status,1774252328000,33,7,1,24,1575420000,38.80,170.9,25.2,0,0,1,33.8
Status,1774252328000,33,8,3,23,1603687600,40.90,144.9,77.5,1,0,1,35.9
Status,1774252328000,33,9,3,13,1600875000,39.30,353.8,67.2,1,0,1,34.3
Status,1774252328000,33,10,3,12,1601437400,42.80,107.0,49.4,1,0,1,37.8
Status,1774252328000,33,11,3,22,1600312400,45.30,41.1,48.9,1,0,1,40.3
Status,1774252328000,33,12,3,24,1603125000,37.70,202.9,16.9,1,0,1,32.7
Status,1774252328000,33,13,3,4,1605375000,41.50,306.9,8.0,1,0,1,36.5
Status,1774252328000,33,14,6,2,1575420000,39.10,33.2,72.1,1,0,1,34.1
Status,1774252328000,33,15,6,36,1575420000,40.60,108.0,50.1,1,0,1,35.6
Status,1774252328000,33,16,6,30,1575420000,40.20,296.6,37.9,1,0,1,35.2
Status,1774252328000,33,17,6,25,1575420000,36.70,91.7,26.2,1,0,1,31.7
Status,1774252328000,33,18,6,34,1575420000,34.60,170.0,25.6,1,0,1,29.6
Status,1774252328000,33,19,6,7,1575420000,40.50,288.2,22.2,1,0,1,35.5
Status,1774252328000,33,20,6,8,1575420000,41.90,234.1,20.3,1,0,1,36.9
Status,1774252328000,33,21,6,10,1575420000,27.70,30.1,6.6,1,0,1,22.7
Status,1774252328000,33,22,5,11,1561098000,37.40,175.6,73.7,1,0,1,32.4
Status,1774252328000,33,23,5,34,1575420000,47.00,68.1,69.5,1,0,1,42.0
Status,1774252328000,33,24,5,43,1575420000,45.20,212.0,46.6,1,0,1,40.2
Status,1774252328000,33,25,5,12,1561098000,36.20,50.0,43.8,1,0,1,31.2
Status,1774252328000,33,26,5,23,1575420000,42.70,309.2,42.7,1,0,1,37.7
Status,1774252328000,33,27,5,10,1561098000,29.80,64.3,27.0,1,0,1,24.8
Status,1774252328000,33,28,5,44,1575420000,41.40,46.5,16.7,1,0,1,36.4
Status,1774252328000,33,29,5,7,1561098000,38.10,64.6,14.8,1,0,1,33.1
Status,1774252328000,33,30,5,38,1575420000,45.00,83.4,8.9,1,0,1,40.0
Status,1774252328000,33,31,5,24,1561098000,36.70,130.8,23.5,0,0,1,31.7
Status,1774252328000,33,32,5,25,1561098000,20.80,0.0,0.0,0,0,0,15.8
Fix,GPS,40.8909450565,29.3773435056,180.0,0.16,3.0,35.9,1774252329000,0.17,25.6,80732915092931,3.0,0,,,
Status,1774252329000,33,0,1,12,1575420000,42.00,72.1,64.0,1,0,1,37.0
Status,1774252329000,33,1,1,25,1575420000,40.70,318.8,63.3,1,0,1,35.7
Status,1774252329000,33,2,1,11,1575420000,39.50,77.3,48.3,1,0,1,34.5
Status,1774252329000,33,3,1,29,1575420000,43.70,247.2,45.6,1,0,1,38.7
Status,1774252329000,33,4,1,28,1575420000,38.20,316.8,20.2,1,0,1,33.2
Status,1774252329000,33,5,1,6,1575420000,44.30,40.0,18.0,1,0,1,39.3
Status,1774252329000,33,6,1,32,1575420000,38.80,273.0,14.4,1,0,1,33.8
Status,1774252329000,33,7,1,24,1575420000,38.50,170.9,25.2,0,0,1,33.5
Status,1774252329000,33,8,3,23,1603687600,40.60,144.9,77.5,1,0,1,35.6
Status,1774252329000,33,9,3,13,1600875000,39.10,353.8,67.2,1,0,1,34.1
Status,1774252329000,33,10,3,12,1601437400,42.50,107.0,49.4,1,0,1,37.5
Status,1774252329000,33,11,3,22,1600312400,45.20,41.1,48.9,1,0,1,40.2
Status,1774252329000,33,12,3,24,1603125000,37.60,202.9,16.9,1,0,1,32.6
Status,1774252329000,33,13,3,4,1605375000,40.90,306.9,8.0,1,0,1,35.9
Status,1774252329000,33,14,6,2,1575420000,39.10,33.2,72.1,1,0,1,34.1
Status,1774252329000,33,15,6,36,1575420000,40.30,108.0,50.1,1,0,1,35.3
Status,1774252329000,33,16,6,30,1575420000,39.80,296.6,37.9,1,0,1,34.8
Status,1774252329000,33,17,6,25,1575420000,36.50,91.7,26.2,1,0,1,31.5
Status,1774252329000,33,18,6,34,1575420000,34.60,170.0,25.6,1,0,1,29.6
Status,1774252329000,33,19,6,7,1575420000,39.80,288.2,22.2,1,0,1,34.8
Status,1774252329000,33,20,6,8,1575420000,41.80,234.1,20.3,1,0,1,36.8
Status,1774252329000,33,21,6,10,1575420000,27.50,30.1,6.6,1,0,1,22.5
Status,1774252329000,33,22,5,11,1561098000,36.90,175.6,73.7,1,0,1,31.9
Status,1774252329000,33,23,5,34,1575420000,46.80,68.1,69.5,1,0,1,41.8
Status,1774252329000,33,24,5,43,1575420000,44.40,212.0,46.6,1,0,1,39.4
Status,1774252329000,33,25,5,12,1561098000,36.10,50.0,43.8,1,0,1,31.1
Status,1774252329000,33,26,5,23,1575420000,42.50,309.2,42.7,1,0,1,37.5
Status,1774252329000,33,27,5,10,1561098000,30.00,64.3,27.0,1,0,1,25.0
Status,1774252329000,33,28,5,24,1575420000,36.30,130.8,23.5,1,0,1,31.3
Status,1774252329000,33,29,5,44,1575420000,41.40,46.5,16.7,1,0,1,36.4
Status,1774252329000,33,30,5,7,1561098000,38.00,64.6,14.8,1,0,1,33.0
Status,1774252329000,33,31,5,38,1575420000,44.80,83.4,8.9,1,0,1,39.8
Status,1774252329000,33,32,5,25,1561098000,19.30,0.0,0.0,0,0,0,14.3
Fix,GPS,40.8909415361,29.3773482833,180.0,0.049999997,3.0,35.9,1774252330000,0.24,33.1,80733913190314,3.0,0,,,
Status,1774252330000,33,0,1,12,1575420000,42.00,72.1,64.0,1,0,1,37.0
Status,1774252330000,33,1,1,25,1575420000,40.60,318.8,63.3,1,0,1,35.6
Status,1774252330000,33,2,1,11,1575420000,39.50,77.3,48.3,1,0,1,34.5
Status,1774252330000,33,3,1,29,1575420000,43.60,247.2,45.6,1,0,1,38.6
Status,1774252330000,33,4,1,28,1575420000,37.80,316.8,20.2,1,0,1,32.8
Status,1774252330000,33,5,1,6,1575420000,44.00,40.0,18.0,1,0,1,39.0
Status,1774252330000,33,6,1,32,1575420000,38.60,273.0,14.4,1,0,1,33.6
Status,1774252330000,33,7,1,24,1575420000,38.10,170.9,25.2,0,0,1,33.1
Status,1774252330000,33,8,3,23,1603687600,40.30,144.6,77.5,1,0,1,35.3
Status,1774252330000,33,9,3,13,1600875000,38.80,353.9,67.3,1,0,1,33.8
Status,1774252330000,33,10,3,12,1601437400,42.30,107.1,49.3,1,0,1,37.3
Status,1774252330000,33,11,3,22,1600312400,45.10,41.1,48.8,1,0,1,40.1
Status,1774252330000,33,12,3,24,1603125000,37.50,202.9,17.0,1,0,1,32.5
Status,1774252330000,33,13,3,4,1605375000,40.40,306.8,8.0,1,0,1,35.4
Status,1774252330000,33,14,6,2,1575420000,39.10,33.2,72.1,1,0,1,34.1
Status,1774252330000,33,15,6,36,1575420000,40.10,108.0,50.1,1,0,1,35.1
Status,1774252330000,33,16,6,30,1575420000,38.90,296.6,37.9,0,0,1,33.9
Status,1774252330000,33,17,6,25,1575420000,36.70,91.7,26.2,1,0,1,31.7
Status,1774252330000,33,18,6,34,1575420000,34.50,170.0,25.6,1,0,1,29.5
Status,1774252330000,33,19,6,7,1575420000,39.30,288.2,22.2,1,0,1,34.3
Status,1774252330000,33,20,6,8,1575420000,41.60,234.1,20.3,1,0,1,36.6
Status,1774252330000,33,21,6,10,1575420000,27.30,30.1,6.6,1,0,1,22.3
Status,1774252330000,33,22,5,11,1561098000,36.60,175.6,73.7,1,0,1,31.6
Status,1774252330000,33,23,5,34,1575420000,46.70,68.1,69.5,1,0,1,41.7
Status,1774252330000,33,24,5,43,1575420000,42.80,212.0,46.6,1,0,1,37.8
Status,1774252330000,33,25,5,12,1561098000,36.10,50.0,43.8,1,0,1,31.1
Status,1774252330000,33,26,5,23,1575420000,42.30,309.2,42.7,1,0,1,37.3
Status,1774252330000,33,27,5,10,1561098000,30.00,64.3,27.0,0,0,1,25.0
Status,1774252330000,33,28,5,24,1575420000,35.80,130.8,23.5,1,0,1,30.8
Status,1774252330000,33,29,5,44,1575420000,41.40,46.5,16.7,1,0,1,36.4
Status,1774252330000,33,30,5,7,1561098000,37.80,64.6,14.8,1,0,1,32.8
Status,1774252330000,33,31,5,38,1575420000,44.50,83.4,8.9,1,0,1,39.5
Status,1774252330000,33,32,5,25,1561098000,17.80,0.0,0.0,0,0,0,12.8
Fix,GPS,40.8909415780,29.3773480318,180.0,0.0,3.0,,1774252331000,0.09,,80734912281583,3.0,0,,,
Status,1774252331000,33,0,1,12,1575420000,42.00,72.1,64.0,1,0,1,37.0
Status,1774252331000,33,1,1,25,1575420000,40.60,318.8,63.3,1,0,1,35.6
Status,1774252331000,33,2,1,11,1575420000,39.50,77.3,48.3,1,0,1,34.5
Status,1774252331000,33,3,1,29,1575420000,43.40,247.2,45.6,1,0,1,38.4
Status,1774252331000,33,4,1,28,1575420000,37.40,316.8,20.2,1,0,1,32.4
Status,1774252331000,33,5,1,6,1575420000,43.80,40.0,18.0,1,0,1,38.8
Status,1774252331000,33,6,1,32,1575420000,38.50,273.0,14.4,1,0,1,33.5
Status,1774252331000,33,7,1,24,1575420000,37.70,170.9,25.2,0,0,1,32.7
Status,1774252331000,33,8,3,23,1603687600,40.10,144.6,77.5,1,0,1,35.1
Status,1774252331000,33,9,3,13,1600875000,38.70,353.9,67.3,1,0,1,33.7
Status,1774252331000,33,10,3,12,1601437400,42.10,107.1,49.3,1,0,1,37.1
Status,1774252331000,33,11,3,22,1600312400,44.90,41.1,48.8,1,0,1,39.9
Status,1774252331000,33,12,3,24,1603125000,37.30,202.9,17.0,1,0,1,32.3
Status,1774252331000,33,13,3,4,1605375000,40.00,306.8,8.0,1,0,1,35.0
Status,1774252331000,33,14,6,2,1575420000,39.40,33.2,72.1,1,0,1,34.4
Status,1774252331000,33,15,6,36,1575420000,40.00,108.0,50.1,1,0,1,35.0
Status,1774252331000,33,16,6,30,1575420000,38.00,296.6,37.9,1,0,1,33.0
Status,1774252331000,33,17,6,25,1575420000,39.20,91.7,26.2,1,0,1,34.2
Status,1774252331000,33,18,6,34,1575420000,34.50,170.0,25.6,1,0,1,29.5
Status,1774252331000,33,19,6,7,1575420000,38.80,288.2,22.2,1,0,1,33.8
Status,1774252331000,33,20,6,8,1575420000,41.50,234.1,20.3,1,0,1,36.5
Status,1774252331000,33,21,6,10,1575420000,27.10,30.1,6.6,1,0,1,22.1
Status,1774252331000,33,22,5,11,1561098000,36.40,175.6,73.7,1,0,1,31.4
Status,1774252331000,33,23,5,34,1575420000,46.50,68.1,69.5,1,0,1,41.5
Status,1774252331000,33,24,5,12,1561098000,36.00,50.0,43.8,1,0,1,31.0
Status,1774252331000,33,25,5,23,1575420000,42.20,309.2,42.7,1,0,1,37.2
Status,1774252331000,33,26,5,10,1561098000,29.90,64.3,27.0,1,0,1,24.9
Status,1774252331000,33,27,5,24,1575420000,35.20,130.8,23.5,1,0,1,30.2
Status,1774252331000,33,28,5,44,1575420000,41.40,46.5,16.7,1,0,1,36.4
Status,1774252331000,33,29,5,7,1561098000,37.60,64.6,14.8,1,0,1,32.6
Status,1774252331000,33,30,5,38,1575420000,43.90,83.4,8.9,1,0,1,38.9
Status,1774252331000,33,31,5,43,1561098000,41.30,212.0,46.6,0,1,1,36.3
Status,1774252331000,33,32,5,25,1561098000,16.30,0.0,0.0,0,0,0,11.3
Fix,GPS,40.8909415780,29.3773480318,180.0,0.0,3.0,,1774252332000,0.03,,80735915232621,3.0,0,,,
Status,1774252332000,33,0,1,12,1575420000,42.00,72.1,64.0,1,0,1,37.0
Status,1774252332000,33,1,1,25,1575420000,40.60,318.8,63.3,1,0,1,35.6
Status,1774252332000,33,2,1,11,1575420000,39.50,77.3,48.3,1,0,1,34.5
Status,1774252332000,33,3,1,29,1575420000,43.30,247.2,45.6,1,0,1,38.3
Status,1774252332000,33,4,1,28,1575420000,37.10,316.8,20.2,1,0,1,32.1
Status,1774252332000,33,5,1,6,1575420000,43.60,40.0,18.0,1,0,1,38.6
Status,1774252332000,33,6,1,32,1575420000,38.50,273.0,14.4,1,0,1,33.5
Status,1774252332000,33,7,1,24,1575420000,37.40,170.9,25.2,0,0,1,32.4
Status,1774252332000,33,8,3,23,1603687600,39.80,144.6,77.5,1,0,1,34.8
Status,1774252332000,33,9,3,13,1600875000,38.50,353.9,67.3,1,0,1,33.5
Status,1774252332000,33,10,3,12,1601437400,42.00,107.1,49.3,1,0,1,37.0
Status,1774252332000,33,11,3,22,1600312400,44.70,41.1,48.8,1,0,1,39.7
Status,1774252332000,33,12,3,24,1603125000,37.30,202.9,17.0,1,0,1,32.3
Status,1774252332000,33,13,3,4,1605375000,39.60,306.8,8.0,1,0,1,34.6
Status,1774252332000,33,14,6,2,1575420000,39.80,33.2,72.1,1,0,1,34.8
Status,1774252332000,33,15,6,36,1575420000,39.90,108.0,50.1,1,0,1,34.9
Status,1774252332000,33,16,6,30,1575420000,37.40,296.6,37.9,1,0,1,32.4
Status,1774252332000,33,17,6,25,1575420000,39.20,91.7,26.2,1,0,1,34.2
Status,1774252332000,33,18,6,34,1575420000,34.50,170.0,25.6,1,0,1,29.5
Status,1774252332000,33,19,6,7,1575420000,38.30,288.2,22.2,1,0,1,33.3
Status,1774252332000,33,20,6,8,1575420000,41.30,234.1,20.3,1,0,1,36.3
Status,1774252332000,33,21,6,10,1575420000,27.00,30.1,6.6,1,0,1,22.0
Status,1774252332000,33,22,5,11,1561098000,36.30,175.6,73.7,1,0,1,31.3
Status,1774252332000,33,23,5,34,1575420000,46.40,68.1,69.5,1,0,1,41.4
Status,1774252332000,33,24,5,12,1561098000,35.50,50.0,43.8,1,0,1,30.5
Status,1774252332000,33,25,5,23,1575420000,42.10,309.2,42.7,1,0,1,37.1
Status,1774252332000,33,26,5,10,1561098000,29.80,64.3,27.0,1,0,1,24.8
Status,1774252332000,33,27,5,44,1575420000,41.50,46.5,16.7,1,0,1,36.5
Status,1774252332000,33,28,5,7,1561098000,37.40,64.6,14.8,1,0,1,32.4
Status,1774252332000,33,29,5,38,1575420000,42.80,83.4,8.9,1,0,1,37.8
Status,1774252332000,33,30,5,24,1561098000,33.70,130.8,23.5,0,1,1,28.7
Status,1774252332000,33,31,5,43,1561098000,39.80,212.0,46.6,0,1,1,34.8
Status,1774252332000,33,32,5,25,1561098000,14.80,0.0,0.0,0,0,0,9.8
Fix,GPS,40.8909415780,29.3773480318,180.0,0.0,3.0,,1774252333000,0.02,,80736919682197,3.0,0,,,
Status,1774252333000,33,0,1,12,1575420000,41.90,72.1,64.0,1,0,1,36.9
Status,1774252333000,33,1,1,25,1575420000,41.00,318.8,63.3,1,0,1,36.0
Status,1774252333000,33,2,1,11,1575420000,39.50,77.3,48.3,1,0,1,34.5
Status,1774252333000,33,3,1,29,1575420000,43.20,247.2,45.6,1,0,1,38.2
Status,1774252333000,33,4,1,28,1575420000,36.70,316.8,20.2,1,0,1,31.7
Status,1774252333000,33,5,1,6,1575420000,43.40,40.0,18.0,1,0,1,38.4
Status,1774252333000,33,6,1,32,1575420000,38.40,273.0,14.4,1,0,1,33.4
Status,1774252333000,33,7,1,24,1575420000,37.10,170.9,25.2,0,0,1,32.1
Status,1774252333000,33,8,3,23,1603687600,39.70,144.6,77.5,1,0,1,34.7
Status,1774252333000,33,9,3,13,1600875000,38.40,353.9,67.3,1,0,1,33.4
Status,1774252333000,33,10,3,12,1601437400,42.00,107.1,49.3,1,0,1,37.0
Status,1774252333000,33,11,3,22,1600312400,44.50,41.1,48.8,1,0,1,39.5
Status,1774252333000,33,12,3,24,1603125000,37.20,202.9,17.0,1,0,1,32.2
Status,1774252333000,33,13,3,4,1605375000,39.30,306.8,8.0,1,0,1,34.3
Status,1774252333000,33,14,6,2,1575420000,40.20,33.2,72.1,1,0,1,35.2
Status,1774252333000,33,15,6,36,1575420000,39.80,108.0,50.1,1,0,1,34.8
Status,1774252333000,33,16,6,30,1575420000,37.00,296.6,37.9,1,0,1,32.0
Status,1774252333000,33,17,6,25,1575420000,39.10,91.7,26.2,1,0,1,34.1
Status,1774252333000,33,18,6,34,1575420000,34.40,170.0,25.6,1,0,1,29.4
Status,1774252333000,33,19,6,7,1575420000,37.90,288.2,22.2,1,0,1,32.9
Status,1774252333000,33,20,6,8,1575420000,41.10,234.1,20.3,1,0,1,36.1
Status,1774252333000,33,21,6,10,1575420000,26.80,30.1,6.6,1,0,1,21.8
Status,1774252333000,33,22,5,11,1561098000,36.30,175.6,73.7,1,0,1,31.3
Status,1774252333000,33,23,5,34,1575420000,46.30,68.1,69.5,1,0,1,41.3
Status,1774252333000,33,24,5,12,1561098000,34.90,50.0,43.8,1,0,1,29.9
Status,1774252333000,33,25,5,23,1575420000,42.00,309.2,42.7,1,0,1,37.0
Status,1774252333000,33,26,5,10,1561098000,29.80,64.3,27.0,1,0,1,24.8
Status,1774252333000,33,27,5,44,1575420000,41.60,46.5,16.7,1,0,1,36.6
Status,1774252333000,33,28,5,7,1561098000,37.20,64.6,14.8,1,0,1,32.2
Status,1774252333000,33,29,5,38,1575420000,41.80,83.4,8.9,1,0,1,36.8
Status,1774252333000,33,30,5,24,1561098000,32.20,130.8,23.5,0,1,1,27.2
Status,1774252333000,33,31,5,43,1561098000,38.30,212.0,46.6,0,1,1,33.3
Status,1774252333000,33,32,5,25,1561098000,14.00,0.0,0.0,0,0,0,9.0
Fix,GPS,40.8909415780,29.3773480318,180.0,0.0,3.0,,1774252334000,0.02,,80737899409773,3.0,0,,,
Status,1774252334000,33,0,1,12,1575420000,41.90,72.1,64.0,1,0,1,36.9
Status,1774252334000,33,1,1,25,1575420000,41.30,318.8,63.3,1,0,1,36.3
Status,1774252334000,33,2,1,11,1575420000,39.60,77.3,48.3,1,0,1,34.6
Status,1774252334000,33,3,1,29,1575420000,43.00,247.2,45.6,1,0,1,38.0
Status,1774252334000,33,4,1,28,1575420000,36.40,316.8,20.2,1,0,1,31.4
Status,1774252334000,33,5,1,6,1575420000,43.20,40.0,18.0,1,0,1,38.2
Status,1774252334000,33,6,1,32,1575420000,38.40,273.0,14.4,1,0,1,33.4
Status,1774252334000,33,7,1,24,1575420000,36.80,170.9,25.2,0,0,1,31.8
Status,1774252334000,33,8,3,23,1603687600,39.50,144.6,77.5,1,0,1,34.5
Status,1774252334000,33,9,3,13,1600875000,38.30,353.9,67.3,1,0,1,33.3
Status,1774252334000,33,10,3,12,1601437400,42.00,107.1,49.3,1,0,1,37.0
Status,1774252334000,33,11,3,22,1600312400,44.30,41.1,48.8,1,0,1,39.3
Status,1774252334000,33,12,3,24,1603125000,37.20,202.9,17.0,1,0,1,32.2
Status,1774252334000,33,13,3,4,1605375000,39.00,306.8,8.0,1,0,1,34.0
Status,1774252334000,33,14,6,2,1575420000,40.50,33.2,72.1,1,0,1,35.5
Status,1774252334000,33,15,6,36,1575420000,39.70,108.0,50.1,1,0,1,34.7
Status,1774252334000,33,16,6,30,1575420000,36.60,296.6,37.9,1,0,1,31.6
Status,1774252334000,33,17,6,25,1575420000,39.00,91.7,26.2,1,0,1,34.0
Status,1774252334000,33,18,6,34,1575420000,34.40,170.0,25.6,1,0,1,29.4
Status,1774252334000,33,19,6,7,1575420000,37.50,288.2,22.2,1,0,1,32.5
Status,1774252334000,33,20,6,8,1575420000,41.00,234.1,20.3,1,0,1,36.0
Status,1774252334000,33,21,6,10,1575420000,26.60,30.1,6.6,1,0,1,21.6
Status,1774252334000,33,22,5,11,1561098000,36.30,175.6,73.7,1,0,1,31.3
Status,1774252334000,33,23,5,34,1575420000,46.20,68.1,69.5,1,0,1,41.2
Status,1774252334000,33,24,5,43,1575420000,37.50,212.0,46.6,1,0,1,32.5
Status,1774252334000,33,25,5,12,1561098000,34.40,50.0,43.8,1,0,1,29.4
Status,1774252334000,33,26,5,23,1575420000,41.90,309.2,42.7,1,0,1,36.9
Status,1774252334000,33,27,5,10,1561098000,28.90,64.3,27.0,0,0,1,23.9
Status,1774252334000,33,28,5,44,1575420000,41.60,46.5,16.7,1,0,1,36.6
Status,1774252334000,33,29,5,7,1561098000,37.00,64.6,14.8,1,0,1,32.0
Status,1774252334000,33,30,5,38,1575420000,40.80,83.4,8.9,1,0,1,35.8
Status,1774252334000,33,31,5,24,1561098000,30.70,130.8,23.5,0,0,1,25.7
Status,1774252334000,33,32,5,25,1561098000,13.30,0.0,0.0,0,0,0,8.3
Fix,GPS,40.8909415780,29.3773480318,180.0,0.0,3.0,,1774252335000,0.04,,80738903187465,3.0,0,,,
Status,1774252335000,33,0,1,12,1575420000,41.90,72.1,64.0,1,0,1,36.9
Status,1774252335000,33,1,1,25,1575420000,41.60,318.8,63.3,1,0,1,36.6
Status,1774252335000,33,2,1,11,1575420000,39.80,77.3,48.3,1,0,1,34.8
Status,1774252335000,33,3,1,29,1575420000,42.90,247.2,45.6,1,0,1,37.9
Status,1774252335000,33,4,1,28,1575420000,36.10,316.8,20.2,1,0,1,31.1
Status,1774252335000,33,5,1,6,1575420000,43.00,40.0,18.0,1,0,1,38.0
Status,1774252335000,33,6,1,32,1575420000,38.40,273.0,14.4,1,0,1,33.4
Status,1774252335000,33,7,1,24,1575420000,36.40,170.9,25.2,0,0,1,31.4
Status,1774252335000,33,8,3,23,1603687600,39.30,144.6,77.5,1,0,1,34.3
Status,1774252335000,33,9,3,13,1600875000,38.20,353.9,67.3,1,0,1,33.2
Status,1774252335000,33,10,3,12,1601437400,41.90,107.1,49.3,1,0,1,36.9
Status,1774252335000,33,11,3,22,1600312400,44.00,41.1,48.8,1,0,1,39.0
Status,1774252335000,33,12,3,24,1603125000,37.10,202.9,17.0,1,0,1,32.1
Status,1774252335000,33,13,3,4,1605375000,38.70,306.8,8.0,1,0,1,33.7
Status,1774252335000,33,14,6,2,1575420000,40.60,33.2,72.1,1,0,1,35.6
Status,1774252335000,33,15,6,36,1575420000,39.60,108.0,50.1,1,0,1,34.6
Status,1774252335000,33,16,6,30,1575420000,36.30,296.6,37.9,1,0,1,31.3
Status,1774252335000,33,17,6,25,1575420000,38.90,91.7,26.2,1,0,1,33.9
Status,1774252335000,33,18,6,34,1575420000,34.30,170.0,25.6,1,0,1,29.3
Status,1774252335000,33,19,6,7,1575420000,37.20,288.2,22.2,1,0,1,32.2
Status,1774252335000,33,20,6,8,1575420000,40.80,234.1,20.3,1,0,1,35.8
Status,1774252335000,33,21,6,10,1575420000,26.40,30.1,6.6,0,0,1,21.4
Status,1774252335000,33,22,5,11,1561098000,36.30,175.6,73.7,1,0,1,31.3
Status,1774252335000,33,23,5,34,1575420000,46.10,68.1,69.5,1,0,1,41.1
Status,1774252335000,33,24,5,43,1575420000,36.80,212.0,46.6,1,0,1,31.8
Status,1774252335000,33,25,5,12,1561098000,33.80,50.0,43.8,1,0,1,28.8
Status,1774252335000,33,26,5,23,1575420000,41.80,309.2,42.7,1,0,1,36.8
Status,1774252335000,33,27,5,10,1561098000,28.10,64.3,27.0,1,0,1,23.1
Status,1774252335000,33,28,5,44,1575420000,41.60,46.5,16.7,1,0,1,36.6
Status,1774252335000,33,29,5,7,1561098000,36.80,64.6,14.8,1,0,1,31.8
Status,1774252335000,33,30,5,38,1575420000,40.00,83.4,8.9,1,0,1,35.0
Status,1774252335000,33,31,5,24,1561098000,29.20,130.8,23.5,0,0,1,24.2
Status,1774252335000,33,32,5,25,1561098000,12.60,0.0,0.0,0,0,0,7.6
Fix,GPS,40.8909418713,29.3773461878,179.0,0.14999999,3.0,35.9,1774252336000,0.19,41.2,80739938561426,3.0,0,,,
Status,1774252336000,33,0,1,12,1575420000,41.80,72.1,64.0,1,0,1,36.8
Status,1774252336000,33,1,1,25,1575420000,41.60,318.8,63.3,1,0,1,36.6
Status,1774252336000,33,2,1,11,1575420000,39.80,77.3,48.3,1,0,1,34.8
Status,1774252336000,33,3,1,29,1575420000,42.60,247.2,45.6,1,0,1,37.6
Status,1774252336000,33,4,1,28,1575420000,35.80,316.8,20.2,1,0,1,30.8
Status,1774252336000,33,5,1,6,1575420000,42.90,40.0,18.0,1,0,1,37.9
Status,1774252336000,33,6,1,32,1575420000,38.40,273.0,14.4,1,0,1,33.4
Status,1774252336000,33,7,1,24,1575420000,35.90,170.9,25.2,0,0,1,30.9
Status,1774252336000,33,8,3,23,1603687600,39.10,144.6,77.5,1,0,1,34.1
Status,1774252336000,33,9,3,13,1600875000,38.20,353.9,67.3,1,0,1,33.2
Status,1774252336000,33,10,3,12,1601437400,41.90,107.1,49.3,1,0,1,36.9
Status,1774252336000,33,11,3,22,1600312400,43.40,41.1,48.8,1,0,1,38.4
Status,1774252336000,33,12,3,24,1603125000,37.00,202.9,17.0,1,0,1,32.0
Status,1774252336000,33,13,3,4,1605375000,38.40,306.8,8.0,1,0,1,33.4
Status,1774252336000,33,14,6,2,1575420000,40.60,33.2,72.1,1,0,1,35.6
Status,1774252336000,33,15,6,36,1575420000,39.60,108.0,50.1,1,0,1,34.6
Status,1774252336000,33,16,6,30,1575420000,36.20,296.6,37.9,1,0,1,31.2
Status,1774252336000,33,17,6,25,1575420000,38.80,91.7,26.2,1,0,1,33.8
Status,1774252336000,33,18,6,34,1575420000,34.30,170.0,25.6,1,0,1,29.3
Status,1774252336000,33,19,6,7,1575420000,36.90,288.2,22.2,1,0,1,31.9
Status,1774252336000,33,20,6,8,1575420000,40.70,234.1,20.3,1,0,1,35.7
Status,1774252336000,33,21,6,10,1575420000,26.20,30.1,6.6,0,0,1,21.2
Status,1774252336000,33,22,5,11,1561098000,36.30,175.6,73.7,1,0,1,31.3
Status,1774252336000,33,23,5,34,1575420000,45.40,68.1,69.5,1,0,1,40.4
Status,1774252336000,33,24,5,43,1575420000,36.40,212.0,46.6,1,0,1,31.4
Status,1774252336000,33,25,5,12,1561098000,33.40,50.0,43.8,1,0,1,28.4
Status,1774252336000,33,26,5,23,1575420000,41.80,309.2,42.7,1,0,1,36.8
Status,1774252336000,33,27,5,10,1561098000,27.70,64.3,27.0,1,0,1,22.7
Status,1774252336000,33,28,5,44,1575420000,41.60,46.5,16.7,1,0,1,36.6
Status,1774252336000,33,29,5,38,1575420000,39.30,83.4,8.9,1,0,1,34.3
Status,1774252336000,33,30,5,24,1561098000,27.70,130.8,23.5,0,1,1,22.7
Status,1774252336000,33,31,5,7,1561098000,35.30,64.6,14.8,0,1,1,30.3
Status,1774252336000,33,32,5,25,1561098000,12.00,0.0,0.0,0,0,0,7.0
Fix,GPS,40.8909456432,29.3773454335,179.0,0.24,3.0,35.9,1774252337000,0.21,41.2,80740933799848,3.0,0,,,
Status,1774252337000,32,0,1,12,1575420000,41.10,72.1,64.0,1,0,1,36.1
Status,1774252337000,32,1,1,25,1575420000,40.60,318.8,63.3,1,0,1,35.6
Status,1774252337000,32,2,1,11,1575420000,39.70,77.3,48.3,1,0,1,34.7
Status,1774252337000,32,3,1,29,1575420000,41.40,247.2,45.6,1,0,1,36.4
Status,1774252337000,32,4,1,28,1575420000,35.50,316.8,20.2,1,0,1,30.5
Status,1774252337000,32,5,1,6,1575420000,42.70,40.0,18.0,1,0,1,37.7
Status,1774252337000,32,6,1,32,1575420000,38.40,273.0,14.4,1,0,1,33.4
Status,1774252337000,32,7,1,24,1575420000,35.60,170.9,25.2,0,0,1,30.6
Status,1774252337000,32,8,3,23,1603687600,38.50,144.6,77.5,1,0,1,33.5
Status,1774252337000,32,9,3,13,1600875000,37.90,353.9,67.3,1,0,1,32.9
Status,1774252337000,32,10,3,12,1601437400,41.90,107.1,49.3,1,0,1,36.9
Status,1774252337000,32,11,3,22,1600312400,42.50,41.1,48.8,1,0,1,37.5
Status,1774252337000,32,12,3,24,1603125000,36.20,202.9,17.0,1,0,1,31.2
Status,1774252337000,32,13,3,4,1605375000,38.20,306.8,8.0,1,0,1,33.2
Status,1774252337000,32,14,6,2,1575420000,39.60,33.2,72.1,1,0,1,34.6
Status,1774252337000,32,15,6,36,1575420000,39.50,108.0,50.1,1,0,1,34.5
Status,1774252337000,32,16,6,30,1575420000,36.00,296.6,37.9,1,0,1,31.0
Status,1774252337000,32,17,6,25,1575420000,38.70,91.7,26.2,1,0,1,33.7
Status,1774252337000,32,18,6,34,1575420000,34.20,170.0,25.6,1,0,1,29.2
Status,1774252337000,32,19,6,7,1575420000,36.60,288.2,22.2,1,0,1,31.6
Status,1774252337000,32,20,6,8,1575420000,39.90,234.1,20.3,1,0,1,34.9
Status,1774252337000,32,21,6,10,1575420000,26.00,30.1,6.6,0,0,1,21.0
Status,1774252337000,32,22,5,11,1561098000,35.90,175.6,73.7,1,0,1,30.9
Status,1774252337000,32,23,5,34,1575420000,44.40,68.1,69.5,1,0,1,39.4
Status,1774252337000,32,24,5,43,1575420000,36.00,212.0,46.6,1,0,1,31.0
Status,1774252337000,32,25,5,12,1561098000,33.00,50.0,43.8,1,0,1,28.0
Status,1774252337000,32,26,5,23,1575420000,41.20,309.2,42.7,1,0,1,36.2
Status,1774252337000,32,27,5,10,1561098000,27.50,64.3,27.0,1,0,1,22.5
Status,1774252337000,32,28,5,24,1575420000,30.30,130.8,23.5,1,0,1,25.3
Status,1774252337000,32,29,5,44,1575420000,41.50,46.5,16.7,1,0,1,36.5
Status,1774252337000,32,30,5,7,1561098000,34.30,64.6,14.8,1,0,1,29.3
Status,1774252337000,32,31,5,38,1575420000,38.60,83.4,8.9,1,0,1,33.6
Fix,GPS,40.8909487445,29.3773440924,180.0,0.12,3.5,35.9,1774252338000,0.27,49.8,80741907937424,3.0,0,,,
Status,1774252338000,32,0,1,12,1575420000,40.50,72.1,64.0,1,0,1,35.5
Status,1774252338000,32,1,1,25,1575420000,39.40,318.8,63.3,1,0,1,34.4
Status,1774252338000,32,2,1,11,1575420000,39.10,77.3,48.3,1,0,1,34.1
Status,1774252338000,32,3,1,29,1575420000,40.40,247.2,45.6,1,0,1,35.4
Status,1774252338000,32,4,1,28,1575420000,35.30,316.8,20.2,1,0,1,30.3
Status,1774252338000,32,5,1,6,1575420000,42.50,40.0,18.0,1,0,1,37.5
Status,1774252338000,32,6,1,32,1575420000,38.40,273.0,14.4,1,0,1,33.4
Status,1774252338000,32,7,1,24,1575420000,35.30,170.9,25.2,0,0,1,30.3
Status,1774252338000,32,8,3,23,1603687600,37.90,144.6,77.5,1,0,1,32.9
Status,1774252338000,32,9,3,13,1600875000,37.10,353.9,67.3,1,0,1,32.1
Status,1774252338000,32,10,3,12,1601437400,41.60,107.1,49.3,1,0,1,36.6
Status,1774252338000,32,11,3,22,1600312400,41.60,41.1,48.8,1,0,1,36.6
Status,1774252338000,32,12,3,24,1603125000,35.50,202.9,17.0,1,0,1,30.5
Status,1774252338000,32,13,3,4,1605375000,38.00,306.8,8.0,1,0,1,33.0
Status,1774252338000,32,14,6,2,1575420000,38.40,33.2,72.1,1,0,1,33.4
Status,1774252338000,32,15,6,36,1575420000,39.40,108.0,50.1,1,0,1,34.4
Status,1774252338000,32,16,6,30,1575420000,35.70,296.6,37.9,1,0,1,30.7
Status,1774252338000,32,17,6,25,1575420000,38.10,91.7,26.2,1,0,1,33.1
Status,1774252338000,32,18,6,34,1575420000,34.20,170.0,25.6,1,0,1,29.2
Status,1774252338000,32,19,6,7,1575420000,36.30,288.2,22.2,1,0,1,31.3
Status,1774252338000,32,20,6,8,1575420000,39.00,234.1,20.3,1,0,1,34.0
Status,1774252338000,32,21,6,10,1575420000,25.70,30.1,6.6,0,0,1,20.7
Status,1774252338000,32,22,5,11,1561098000,35.30,175.6,73.7,1,0,1,30.3
Status,1774252338000,32,23,5,34,1575420000,43.50,68.1,69.5,1,0,1,38.5
Status,1774252338000,32,24,5,43,1575420000,35.60,212.0,46.6,1,0,1,30.6
Status,1774252338000,32,25,5,12,1561098000,32.60,50.0,43.8,1,0,1,27.6
Status,1774252338000,32,26,5,23,1575420000,39.70,309.2,42.7,1,0,1,34.7
Status,1774252338000,32,27,5,10,1561098000,27.40,64.3,27.0,1,0,1,22.4
Status,1774252338000,32,28,5,24,1575420000,30.60,130.8,23.5,1,0,1,25.6
Status,1774252338000,32,29,5,44,1575420000,41.50,46.5,16.7,1,0,1,36.5
Status,1774252338000,32,30,5,7,1561098000,33.30,64.6,14.8,0,0,1,28.3
Status,1774252338000,32,31,5,38,1575420000,38.10,83.4,8.9,1,0,1,33.1
Fix,GPS,40.8909487445,29.3773444276,180.0,0.0,3.5,,1774252339000,0.01,,80742917576193,3.0,0,,,
Status,1774252339000,32,0,1,12,1575420000,39.80,72.1,64.0,1,0,1,34.8
Status,1774252339000,32,1,1,25,1575420000,38.50,318.8,63.3,1,0,1,33.5
Status,1774252339000,32,2,1,11,1575420000,38.40,77.3,48.3,1,0,1,33.4
Status,1774252339000,32,3,1,29,1575420000,39.60,247.2,45.6,1,0,1,34.6
Status,1774252339000,32,4,1,28,1575420000,35.00,316.8,20.2,1,0,1,30.0
Status,1774252339000,32,5,1,6,1575420000,42.10,40.0,18.0,1,0,1,37.1
Status,1774252339000,32,6,1,32,1575420000,38.40,273.0,14.4,1,0,1,33.4
Status,1774252339000,32,7,1,24,1575420000,35.00,170.9,25.2,0,0,1,30.0
Status,1774252339000,32,8,3,23,1603687600,37.30,144.6,77.5,1,0,1,32.3
Status,1774252339000,32,9,3,13,1600875000,36.20,353.9,67.3,1,0,1,31.2
Status,1774252339000,32,10,3,12,1601437400,40.90,107.1,49.3,1,0,1,35.9
Status,1774252339000,32,11,3,22,1600312400,40.80,41.1,48.8,1,0,1,35.8
Status,1774252339000,32,12,3,24,1603125000,34.70,202.9,17.0,1,0,1,29.7
Status,1774252339000,32,13,3,4,1605375000,37.90,306.8,8.0,1,0,1,32.9
Status,1774252339000,32,14,6,2,1575420000,37.30,33.2,72.1,1,0,1,32.3
Status,1774252339000,32,15,6,36,1575420000,38.60,108.0,50.1,1,0,1,33.6
Status,1774252339000,32,16,6,30,1575420000,35.00,296.6,37.9,1,0,1,30.0
Status,1774252339000,32,17,6,25,1575420000,37.40,91.7,26.2,1,0,1,32.4
Status,1774252339000,32,18,6,34,1575420000,34.10,170.0,25.6,1,0,1,29.1
Status,1774252339000,32,19,6,7,1575420000,36.10,288.2,22.2,1,0,1,31.1
Status,1774252339000,32,20,6,8,1575420000,38.10,234.1,20.3,1,0,1,33.1
Status,1774252339000,32,21,6,10,1575420000,25.50,30.1,6.6,0,0,1,20.5
Status,1774252339000,32,22,5,11,1561098000,34.80,175.6,73.7,1,0,1,29.8
Status,1774252339000,32,23,5,34,1575420000,42.60,68.1,69.5,1,0,1,37.6
Status,1774252339000,32,24,5,43,1575420000,35.20,212.0,46.6,1,0,1,30.2
Status,1774252339000,32,25,5,12,1561098000,32.30,50.0,43.8,1,0,1,27.3
Status,1774252339000,32,26,5,23,1575420000,38.40,309.2,42.7,1,0,1,33.4
Status,1774252339000,32,27,5,10,1561098000,29.40,64.3,27.0,1,0,1,24.4
Status,1774252339000,32,28,5,24,1575420000,30.60,130.8,23.5,1,0,1,25.6
Status,1774252339000,32,29,5,44,1575420000,41.40,46.5,16.7,1,0,1,36.4
Status,1774252339000,32,30,5,7,1561098000,32.40,64.6,14.8,1,0,1,27.4
Status,1774252339000,32,31,5,38,1575420000,37.50,83.4,8.9,1,0,1,32.5
Fix,GPS,40.8909498341,29.3773472775,180.0,0.22,4.0,35.9,1774252340000,0.78,58.8,80743916714769,4.0,0,,,
Status,1774252340000,32,0,1,12,1575420000,39.20,72.1,64.0,1,0,1,34.2
Status,1774252340000,32,1,1,25,1575420000,38.10,318.8,63.3,1,0,1,33.1
Status,1774252340000,32,2,1,11,1575420000,37.70,77.3,48.3,1,0,1,32.7
Status,1774252340000,32,3,1,29,1575420000,38.80,247.2,45.6,1,0,1,33.8
Status,1774252340000,32,4,1,28,1575420000,34.80,316.8,20.2,1,0,1,29.8
Status,1774252340000,32,5,1,6,1575420000,41.50,40.0,18.0,1,0,1,36.5
Status,1774252340000,32,6,1,32,1575420000,38.40,273.0,14.4,1,0,1,33.4
Status,1774252340000,32,7,1,24,1575420000,34.90,170.9,25.2,0,0,1,29.9
Status,1774252340000,32,8,3,23,1603687600,36.70,144.6,77.5,1,0,1,31.7
Status,1774252340000,32,9,3,13,1600875000,35.50,353.9,67.3,1,0,1,30.5
Status,1774252340000,32,10,3,12,1601437400,40.30,107.1,49.3,1,0,1,35.3
Status,1774252340000,32,11,3,22,1600312400,40.00,41.1,48.8,1,0,1,35.0
Status,1774252340000,32,12,3,24,1603125000,34.10,202.9,17.0,1,0,1,29.1
Status,1774252340000,32,13,3,4,1605375000,37.90,306.8,8.0,1,0,1,32.9
Status,1774252340000,32,14,6,2,1575420000,36.50,33.2,72.1,1,0,1,31.5
Status,1774252340000,32,15,6,36,1575420000,38.10,108.0,50.1,1,0,1,33.1
Status,1774252340000,32,16,6,30,1575420000,35.00,296.6,37.9,1,0,1,30.0
Status,1774252340000,32,17,6,25,1575420000,36.80,91.7,26.2,1,0,1,31.8
Status,1774252340000,32,18,6,34,1575420000,34.10,170.0,25.6,1,0,1,29.1
Status,1774252340000,32,19,6,7,1575420000,36.00,288.2,22.2,1,0,1,31.0
Status,1774252340000,32,20,6,8,1575420000,37.40,234.1,20.3,1,0,1,32.4
Status,1774252340000,32,21,6,10,1575420000,25.30,30.1,6.6,1,0,1,20.3
Status,1774252340000,32,22,5,11,1561098000,34.40,175.6,73.7,1,0,1,29.4
Status,1774252340000,32,23,5,34,1575420000,41.70,68.1,69.5,1,0,1,36.7
Status,1774252340000,32,24,5,43,1575420000,34.90,212.0,46.6,1,0,1,29.9
Status,1774252340000,32,25,5,12,1561098000,32.10,50.0,43.8,1,0,1,27.1
Status,1774252340000,32,26,5,23,1575420000,38.20,309.2,42.7,1,0,1,33.2
Status,1774252340000,32,27,5,10,1561098000,33.10,64.3,27.0,1,0,1,28.1
Status,1774252340000,32,28,5,44,1575420000,40.20,46.5,16.7,1,0,1,35.2
Status,1774252340000,32,29,5,7,1561098000,31.70,64.6,14.8,1,0,1,26.7
Status,1774252340000,32,30,5,38,1575420000,37.00,83.4,8.9,1,0,1,32.0
Status,1774252340000,32,31,5,24,1561098000,29.10,130.8,23.5,0,0,1,24.1
Fix,GPS,40.8909540251,29.3773447629,180.0,0.95,4.0,35.9,1774252341000,0.5,58.8,80744939899460,3.0,0,,,
Status,1774252341000,32,0,1,12,1575420000,38.70,72.1,64.0,1,0,1,33.7
Status,1774252341000,32,1,1,25,1575420000,37.80,318.8,63.3,1,0,1,32.8
Status,1774252341000,32,2,1,11,1575420000,37.20,77.3,48.3,1,0,1,32.2
Status,1774252341000,32,3,1,29,1575420000,38.10,247.2,45.6,1,0,1,33.1
Status,1774252341000,32,4,1,28,1575420000,37.00,316.8,20.2,1,0,1,32.0
Status,1774252341000,32,5,1,6,1575420000,40.90,40.0,18.0,1,0,1,35.9
Status,1774252341000,32,6,1,32,1575420000,38.30,273.0,14.4,1,0,1,33.3
Status,1774252341000,32,7,1,24,1575420000,34.70,170.9,25.2,0,0,1,29.7
Status,1774252341000,32,8,3,23,1603687600,36.20,144.6,77.5,1,0,1,31.2
Status,1774252341000,32,9,3,13,1600875000,34.90,353.9,67.3,1,0,1,29.9
Status,1774252341000,32,10,3,12,1601437400,40.00,107.1,49.3,1,0,1,35.0
Status,1774252341000,32,11,3,22,1600312400,39.30,41.1,48.8,1,0,1,34.3
Status,1774252341000,32,12,3,24,1603125000,36.50,202.9,17.0,1,0,1,31.5
Status,1774252341000,32,13,3,4,1605375000,37.80,306.8,8.0,1,0,1,32.8
Status,1774252341000,32,14,6,2,1575420000,35.70,33.2,72.1,1,0,1,30.7
Status,1774252341000,32,15,6,36,1575420000,37.90,108.0,50.1,1,0,1,32.9
Status,1774252341000,32,16,6,30,1575420000,36.40,296.6,37.9,1,0,1,31.4
Status,1774252341000,32,17,6,25,1575420000,36.10,91.7,26.2,1,0,1,31.1
Status,1774252341000,32,18,6,34,1575420000,34.10,170.0,25.6,1,0,1,29.1
Status,1774252341000,32,19,6,7,1575420000,35.80,288.0,22.1,1,0,1,30.8
Status,1774252341000,32,20,6,8,1575420000,36.80,234.0,20.2,1,0,1,31.8
Status,1774252341000,32,21,6,10,1575420000,25.00,30.1,6.6,1,0,1,20.0
Status,1774252341000,32,22,5,11,1561098000,34.10,175.6,73.7,1,0,1,29.1
Status,1774252341000,32,23,5,34,1575420000,41.00,68.1,69.5,1,0,1,36.0
Status,1774252341000,32,24,5,43,1575420000,34.70,212.0,46.6,1,0,1,29.7
Status,1774252341000,32,25,5,12,1561098000,31.90,50.0,43.8,1,0,1,26.9
Status,1774252341000,32,26,5,23,1575420000,38.10,309.2,42.7,1,0,1,33.1
Status,1774252341000,32,27,5,10,1561098000,33.30,64.3,27.0,1,0,1,28.3
Status,1774252341000,32,28,5,44,1575420000,39.50,46.5,16.7,1,0,1,34.5
Status,1774252341000,32,29,5,7,1561098000,31.10,64.6,14.8,1,0,1,26.1
Status,1774252341000,32,30,5,38,1575420000,36.50,83.4,8.9,1,0,1,31.5
Status,1774252341000,32,31,5,24,1561098000,27.60,130.8,23.5,0,0,1,22.6
Fix,GPS,40.8909583837,29.3773452658,180.0,0.75,4.0,35.9,1774252342000,0.22,68.4,80745937407767,3.0,0,,,
Status,1774252342000,32,0,1,12,1575420000,38.20,72.1,64.0,1,0,1,33.2
Status,1774252342000,32,1,1,25,1575420000,37.50,318.8,63.3,1,0,1,32.5
Status,1774252342000,32,2,1,11,1575420000,36.60,77.3,48.3,1,0,1,31.6
Status,1774252342000,32,3,1,29,1575420000,37.60,247.2,45.6,1,0,1,32.6
Status,1774252342000,32,4,1,28,1575420000,39.40,316.8,20.2,1,0,1,34.4
Status,1774252342000,32,5,1,6,1575420000,40.40,40.0,18.0,1,0,1,35.4
Status,1774252342000,32,6,1,32,1575420000,38.40,273.0,14.4,1,0,1,33.4
Status,1774252342000,32,7,1,24,1575420000,34.60,170.9,25.2,0,0,1,29.6
Status,1774252342000,32,8,3,23,1603687600,35.70,144.6,77.5,1,0,1,30.7
Status,1774252342000,32,9,3,13,1600875000,34.40,353.9,67.3,1,0,1,29.4
Status,1774252342000,32,10,3,12,1601437400,39.70,107.1,49.3,1,0,1,34.7
Status,1774252342000,32,11,3,22,1600312400,38.60,41.1,48.8,1,0,1,33.6
Status,1774252342000,32,12,3,24,1603125000,46.00,202.9,17.0,1,0,1,41.0
Status,1774252342000,32,13,3,4,1605375000,37.80,306.8,8.0,1,0,1,32.8
Status,1774252342000,32,14,6,2,1575420000,34.90,33.2,72.1,1,0,1,29.9
Status,1774252342000,32,15,6,36,1575420000,37.70,108.0,50.1,1,0,1,32.7
Status,1774252342000,32,16,6,30,1575420000,36.80,296.6,37.9,1,0,1,31.8
Status,1774252342000,32,17,6,25,1575420000,35.60,91.7,26.2,1,0,1,30.6
Status,1774252342000,32,18,6,34,1575420000,34.20,170.0,25.6,1,0,1,29.2
Status,1774252342000,32,19,6,7,1575420000,35.70,288.0,22.1,1,0,1,30.7
Status,1774252342000,32,20,6,8,1575420000,40.30,234.0,20.2,1,0,1,35.3
Status,1774252342000,32,21,6,10,1575420000,24.80,30.0,6.5,1,0,1,19.8
Status,1774252342000,32,22,5,11,1561098000,34.00,175.4,73.9,1,0,1,29.0
Status,1774252342000,32,23,5,34,1575420000,40.40,68.1,69.5,1,0,1,35.4
Status,1774252342000,32,24,5,43,1575420000,38.70,212.0,46.6,1,0,1,33.7
Status,1774252342000,32,25,5,12,1561098000,31.70,49.9,43.6,1,0,1,26.7
Status,1774252342000,32,26,5,23,1575420000,38.10,309.2,42.7,1,0,1,33.1
Status,1774252342000,32,27,5,10,1561098000,33.30,64.3,27.0,1,0,1,28.3
Status,1774252342000,32,28,5,44,1575420000,38.90,46.5,16.7,1,0,1,33.9
Status,1774252342000,32,29,5,7,1561098000,30.60,64.6,14.8,1,0,1,25.6
Status,1774252342000,32,30,5,38,1575420000,36.10,83.4,8.9,1,0,1,31.1
Status,1774252342000,32,31,5,24,1561098000,26.10,130.8,23.5,0,0,1,21.1
Fix,GPS,40.8909635385,29.3773464393,180.0,0.32999998,4.0,35.9,1774252343000,0.41,78.3,80746956098959,3.0,0,,,
Status,1774252343000,32,0,1,12,1575420000,37.70,72.1,64.0,1,0,1,32.7
Status,1774252343000,32,1,1,25,1575420000,37.20,318.8,63.3,1,0,1,32.2
Status,1774252343000,32,2,1,11,1575420000,36.10,77.3,48.3,1,0,1,31.1
Status,1774252343000,32,3,1,29,1575420000,37.10,247.2,45.6,1,0,1,32.1
Status,1774252343000,32,4,1,28,1575420000,39.30,316.8,20.2,1,0,1,34.3
Status,1774252343000,32,5,1,6,1575420000,39.90,40.0,18.0,1,0,1,34.9
Status,1774252343000,32,6,1,32,1575420000,38.40,273.0,14.4,1,0,1,33.4
Status,1774252343000,32,7,1,24,1575420000,34.50,170.9,25.2,0,0,1,29.5
Status,1774252343000,32,8,3,13,1600875000,33.90,353.9,67.3,1,0,1,28.9
Status,1774252343000,32,9,3,12,1601437400,39.40,107.1,49.3,1,0,1,34.4
Status,1774252343000,32,10,3,22,1600312400,38.00,41.1,48.8,1,0,1,33.0
Status,1774252343000,32,11,3,24,1603125000,46.10,202.9,17.0,1,0,1,41.1
Status,1774252343000,32,12,3,4,1605375000,37.90,306.8,8.0,1,0,1,32.9
Status,1774252343000,32,13,6,2,1575420000,34.20,33.2,72.1,1,0,1,29.2
Status,1774252343000,32,14,6,36,1575420000,37.50,108.0,50.1,1,0,1,32.5
Status,1774252343000,32,15,6,30,1575420000,36.90,296.6,37.9,1,0,1,31.9
Status,1774252343000,32,16,6,25,1575420000,35.00,91.7,26.2,1,0,1,30.0
Status,1774252343000,32,17,6,34,1575420000,34.20,170.0,25.6,1,0,1,29.2
Status,1774252343000,32,18,6,7,1575420000,35.50,288.0,22.1,1,0,1,30.5
Status,1774252343000,32,19,6,8,1575420000,46.60,234.0,20.2,1,0,1,41.6
Status,1774252343000,32,20,6,10,1575420000,24.70,30.0,6.5,0,0,1,19.7
Status,1774252343000,32,21,5,11,1561098000,33.90,175.4,73.9,1,0,1,28.9
Status,1774252343000,32,22,5,34,1575420000,39.80,68.1,69.5,1,0,1,34.8
Status,1774252343000,32,23,5,43,1575420000,44.20,212.0,46.6,1,0,1,39.2
Status,1774252343000,32,24,5,12,1561098000,31.50,49.9,43.6,1,0,1,26.5
Status,1774252343000,32,25,5,23,1575420000,38.10,309.2,42.7,1,0,1,33.1
Status,1774252343000,32,26,5,10,1561098000,33.20,64.3,27.0,1,0,1,28.2
Status,1774252343000,32,27,5,44,1575420000,38.40,46.5,16.7,1,0,1,33.4
Status,1774252343000,32,28,5,7,1561098000,30.20,64.6,14.8,1,0,1,25.2
Status,1774252343000,32,29,5,38,1575420000,35.60,83.4,8.9,1,0,1,30.6
Status,1774252343000,32,30,5,24,1561098000,24.60,130.8,23.5,0,1,1,19.6
Status,1774252343000,32,31,3,23,1602000000,34.20,144.6,77.5,0,0,1,29.2
Fix,GPS,40.8909652149,29.3773475289,180.0,0.48,3.5,35.9,1774252344000,0.97,88.7,80747923706458,3.0,0,,,
Status,1774252344000,32,0,1,12,1575420000,37.30,72.1,64.0,1,0,1,32.3
Status,1774252344000,32,1,1,25,1575420000,36.90,318.8,63.3,1,0,1,31.9
Status,1774252344000,32,2,1,11,1575420000,35.70,77.3,48.3,1,0,1,30.7
Status,1774252344000,32,3,1,29,1575420000,36.70,247.2,45.6,1,0,1,31.7
Status,1774252344000,32,4,1,28,1575420000,39.20,316.8,20.2,1,0,1,34.2
Status,1774252344000,32,5,1,6,1575420000,39.50,40.0,18.0,1,0,1,34.5
Status,1774252344000,32,6,1,32,1575420000,38.70,273.0,14.4,1,0,1,33.7
Status,1774252344000,32,7,1,24,1575420000,34.40,170.9,25.2,0,0,1,29.4
Status,1774252344000,32,8,3,23,1603687600,33.20,144.6,77.5,1,0,1,28.2
Status,1774252344000,32,9,3,13,1600875000,33.50,353.9,67.3,1,0,1,28.5
Status,1774252344000,32,10,3,12,1601437400,39.20,107.1,49.3,1,0,1,34.2
Status,1774252344000,32,11,3,22,1600312400,37.40,41.1,48.8,1,0,1,32.4
Status,1774252344000,32,12,3,24,1603125000,46.10,202.9,17.0,1,0,1,41.1
Status,1774252344000,32,13,3,4,1605375000,37.90,306.8,8.0,1,0,1,32.9
Status,1774252344000,32,14,6,2,1575420000,33.50,33.2,72.1,1,0,1,28.5
Status,1774252344000,32,15,6,36,1575420000,37.30,108.0,50.1,1,0,1,32.3
Status,1774252344000,32,16,6,30,1575420000,36.90,296.6,37.9,1,0,1,31.9
Status,1774252344000,32,17,6,25,1575420000,34.50,91.7,26.2,1,0,1,29.5
Status,1774252344000,32,18,6,34,1575420000,34.20,170.0,25.6,1,0,1,29.2
Status,1774252344000,32,19,6,7,1575420000,35.40,288.0,22.1,1,0,1,30.4
Status,1774252344000,32,20,6,8,1575420000,46.60,234.0,20.2,1,0,1,41.6
Status,1774252344000,32,21,6,10,1575420000,24.50,30.0,6.5,0,0,1,19.5
Status,1774252344000,32,22,5,11,1561098000,33.90,175.4,73.9,1,0,1,28.9
Status,1774252344000,32,23,5,34,1575420000,39.30,68.1,69.5,1,0,1,34.3
Status,1774252344000,32,24,5,43,1575420000,44.20,212.0,46.6,1,0,1,39.2
Status,1774252344000,32,25,5,12,1561098000,31.40,49.9,43.6,1,0,1,26.4
Status,1774252344000,32,26,5,23,1575420000,38.00,309.2,42.7,1,0,1,33.0
Status,1774252344000,32,27,5,10,1561098000,33.20,64.3,27.0,1,0,1,28.2
Status,1774252344000,32,28,5,44,1575420000,37.90,46.5,16.7,1,0,1,32.9
Status,1774252344000,32,29,5,7,1561098000,29.80,64.6,14.8,1,0,1,24.8
Status,1774252344000,32,30,5,38,1575420000,35.20,83.4,8.9,1,0,1,30.2
Status,1774252344000,32,31,5,24,1561098000,23.10,130.8,23.5,0,0,1,18.1
Fix,GPS,40.8909643767,29.3773488700,180.0,0.12,4.0,35.9,1774252345000,0.37,99.4,80748924568342,3.0,0,,,
Status,1774252345000,32,0,1,12,1575420000,37.00,72.1,64.0,1,0,1,32.0
Status,1774252345000,32,1,1,25,1575420000,36.60,318.8,63.3,1,0,1,31.6
Status,1774252345000,32,2,1,11,1575420000,35.20,77.3,48.3,1,0,1,30.2
Status,1774252345000,32,3,1,29,1575420000,36.30,247.2,45.6,1,0,1,31.3
Status,1774252345000,32,4,1,28,1575420000,39.10,316.8,20.2,1,0,1,34.1
Status,1774252345000,32,5,1,6,1575420000,39.00,40.0,18.0,1,0,1,34.0
Status,1774252345000,32,6,1,32,1575420000,38.90,273.0,14.4,1,0,1,33.9
Status,1774252345000,32,7,1,24,1575420000,34.30,170.9,25.2,0,0,1,29.3
Status,1774252345000,32,8,3,23,1603687600,32.30,144.0,77.7,1,0,1,27.3
Status,1774252345000,32,9,3,13,1600875000,33.10,354.2,67.4,1,0,1,28.1
Status,1774252345000,32,10,3,12,1601437400,39.00,107.4,49.2,1,0,1,34.0
Status,1774252345000,32,11,3,22,1600312400,36.90,41.0,48.7,1,0,1,31.9
Status,1774252345000,32,12,3,24,1603125000,46.20,203.0,17.1,1,0,1,41.2
Status,1774252345000,32,13,3,4,1605375000,38.20,306.6,7.9,1,0,1,33.2
Status,1774252345000,32,14,6,2,1575420000,32.90,33.2,72.1,1,0,1,27.9
Status,1774252345000,32,15,6,36,1575420000,37.20,108.0,50.1,1,0,1,32.2
Status,1774252345000,32,16,6,30,1575420000,36.80,296.6,37.9,1,0,1,31.8
Status,1774252345000,32,17,6,25,1575420000,34.10,91.7,26.2,1,0,1,29.1
Status,1774252345000,32,18,6,34,1575420000,34.20,170.0,25.6,1,0,1,29.2
Status,1774252345000,32,19,6,7,1575420000,35.30,288.0,22.1,1,0,1,30.3
Status,1774252345000,32,20,6,8,1575420000,46.60,234.0,20.2,1,0,1,41.6
Status,1774252345000,32,21,6,10,1575420000,24.40,30.0,6.5,0,0,1,19.4
Status,1774252345000,32,22,5,11,1561098000,34.10,175.4,73.9,1,0,1,29.1
Status,1774252345000,32,23,5,34,1575420000,38.80,68.1,69.5,1,0,1,33.8
Status,1774252345000,32,24,5,43,1575420000,44.10,212.0,46.6,1,0,1,39.1
Status,1774252345000,32,25,5,12,1561098000,31.20,49.9,43.6,1,0,1,26.2
Status,1774252345000,32,26,5,23,1575420000,38.00,309.2,42.7,1,0,1,33.0
Status,1774252345000,32,27,5,10,1561098000,33.20,64.3,27.0,1,0,1,28.2
Status,1774252345000,32,28,5,44,1575420000,37.50,46.5,16.7,1,0,1,32.5
Status,1774252345000,32,29,5,7,1561098000,29.50,64.6,14.8,1,0,1,24.5
Status,1774252345000,32,30,5,38,1575420000,34.80,83.4,8.9,1,0,1,29.8
Status,1774252345000,32,31,5,24,1561098000,21.60,130.8,23.5,0,0,1,16.6
Fix,GPS,40.8909646701,29.3773491215,180.0,0.0,3.5,,1774252346000,0.01,,80749923003226,3.0,0,,,
Status,1774252346000,32,0,1,12,1575420000,36.70,72.1,64.0,1,0,1,31.7
Status,1774252346000,32,1,1,25,1575420000,36.30,318.8,63.3,1,0,1,31.3
Status,1774252346000,32,2,1,11,1575420000,34.90,77.3,48.3,1,0,1,29.9
Status,1774252346000,32,3,1,29,1575420000,36.00,247.2,45.6,1,0,1,31.0
Status,1774252346000,32,4,1,28,1575420000,38.90,316.8,20.2,1,0,1,33.9
Status,1774252346000,32,5,1,6,1575420000,38.60,40.0,18.0,1,0,1,33.6
Status,1774252346000,32,6,1,32,1575420000,39.00,273.0,14.4,1,0,1,34.0
Status,1774252346000,32,7,1,24,1575420000,34.20,170.9,25.2,0,0,1,29.2
Status,1774252346000,32,8,3,23,1603687600,31.50,144.0,77.7,1,0,1,26.5
Status,1774252346000,32,9,3,13,1600875000,32.70,354.2,67.4,1,0,1,27.7
Status,1774252346000,32,10,3,12,1601437400,38.80,107.4,49.2,1,0,1,33.8
Status,1774252346000,32,11,3,22,1600312400,36.40,41.0,48.7,1,0,1,31.4
Status,1774252346000,32,12,3,24,1603125000,46.20,203.0,17.1,1,0,1,41.2
Status,1774252346000,32,13,3,4,1605375000,38.50,306.6,7.9,1,0,1,33.5
Status,1774252346000,32,14,6,2,1575420000,32.30,33.2,72.1,1,0,1,27.3
Status,1774252346000,32,15,6,36,1575420000,37.10,108.0,50.1,1,0,1,32.1
Status,1774252346000,32,16,6,30,1575420000,36.80,296.6,37.9,1,0,1,31.8
Status,1774252346000,32,17,6,25,1575420000,33.60,91.7,26.2,1,0,1,28.6
Status,1774252346000,32,18,6,34,1575420000,34.20,170.0,25.6,1,0,1,29.2
Status,1774252346000,32,19,6,7,1575420000,35.20,288.0,22.1,1,0,1,30.2
Status,1774252346000,32,20,6,8,1575420000,46.50,234.0,20.2,1,0,1,41.5
Status,1774252346000,32,21,6,10,1575420000,24.30,30.0,6.5,1,0,1,19.3
Status,1774252346000,32,22,5,11,1561098000,34.50,175.4,73.9,1,0,1,29.5
Status,1774252346000,32,23,5,34,1575420000,38.40,68.1,69.5,1,0,1,33.4
Status,1774252346000,32,24,5,43,1575420000,44.10,212.0,46.6,1,0,1,39.1
Status,1774252346000,32,25,5,12,1561098000,31.10,49.9,43.6,1,0,1,26.1
Status,1774252346000,32,26,5,23,1575420000,38.00,309.2,42.9,1,0,1,33.0
Status,1774252346000,32,27,5,10,1561098000,33.10,64.3,27.0,1,0,1,28.1
Status,1774252346000,32,28,5,44,1575420000,37.00,46.5,16.7,1,0,1,32.0
Status,1774252346000,32,29,5,7,1561098000,29.20,64.6,14.8,1,0,1,24.2
Status,1774252346000,32,30,5,38,1575420000,34.40,83.4,8.9,1,0,1,29.4
Status,1774252346000,32,31,5,24,1561098000,20.10,130.8,23.5,0,0,1,15.1
Fix,GPS,40.8909646701,29.3773491215,180.0,0.0,4.0,,1774252347000,0.02,,80750928046495,3.0,0,,,
Status,1774252347000,32,0,1,12,1575420000,36.40,72.1,64.0,1,0,1,31.4
Status,1774252347000,32,1,1,25,1575420000,36.10,318.8,63.3,1,0,1,31.1
Status,1774252347000,32,2,1,11,1575420000,34.50,77.3,48.3,1,0,1,29.5
Status,1774252347000,32,3,1,29,1575420000,35.70,247.2,45.6,1,0,1,30.7
Status,1774252347000,32,4,1,28,1575420000,38.80,316.8,20.2,1,0,1,33.8
Status,1774252347000,32,5,1,6,1575420000,38.30,40.0,18.0,1,0,1,33.3
Status,1774252347000,32,6,1,32,1575420000,39.10,273.0,14.4,1,0,1,34.1
Status,1774252347000,32,7,1,24,1575420000,34.10,170.9,25.2,0,0,1,29.1
Status,1774252347000,32,8,3,23,1603687600,30.80,144.0,77.7,1,0,1,25.8
Status,1774252347000,32,9,3,13,1600875000,32.40,354.2,67.4,1,0,1,27.4
Status,1774252347000,32,10,3,12,1601437400,38.60,107.4,49.2,1,0,1,33.6
Status,1774252347000,32,11,3,22,1600312400,35.90,41.0,48.7,1,0,1,30.9
Status,1774252347000,32,12,3,24,1603125000,46.20,203.0,17.1,1,0,1,41.2
Status,1774252347000,32,13,3,4,1605375000,38.90,306.6,7.9,1,0,1,33.9
Status,1774252347000,32,14,6,2,1575420000,31.70,33.2,72.1,1,0,1,26.7
Status,1774252347000,32,15,6,36,1575420000,37.00,108.0,50.1,1,0,1,32.0
Status,1774252347000,32,16,6,30,1575420000,36.80,296.6,37.9,1,0,1,31.8
Status,1774252347000,32,17,6,25,1575420000,33.20,91.9,26.1,1,0,1,28.2
Status,1774252347000,32,18,6,34,1575420000,34.20,170.0,25.6,1,0,1,29.2
Status,1774252347000,32,19,6,7,1575420000,35.10,288.0,22.1,1,0,1,30.1
Status,1774252347000,32,20,6,8,1575420000,46.50,234.0,20.2,1,0,1,41.5
Status,1774252347000,32,21,6,10,1575420000,24.20,30.0,6.5,1,0,1,19.2
Status,1774252347000,32,22,5,11,1561098000,34.70,175.4,73.9,1,0,1,29.7
Status,1774252347000,32,23,5,34,1575420000,38.00,68.1,69.5,1,0,1,33.0
Status,1774252347000,32,24,5,43,1575420000,44.10,212.0,46.6,1,0,1,39.1
Status,1774252347000,32,25,5,12,1561098000,31.00,49.9,43.6,1,0,1,26.0
Status,1774252347000,32,26,5,23,1575420000,37.90,309.2,42.9,1,0,1,32.9
Status,1774252347000,32,27,5,10,1561098000,33.10,64.3,27.0,1,0,1,28.1
Status,1774252347000,32,28,5,44,1575420000,36.60,46.5,16.7,1,0,1,31.6
Status,1774252347000,32,29,5,7,1561098000,28.90,64.6,14.8,1,0,1,23.9
Status,1774252347000,32,30,5,24,1561098000,18.60,131.0,23.3,0,1,1,13.6
Status,1774252347000,32,31,5,38,1561098000,32.90,83.4,8.9,0,1,1,27.9
Fix,GPS,40.8909646701,29.3773491215,180.0,0.0,4.0,,1774252348000,0.01,,80751936634609,3.0,0,,,
Status,1774252348000,32,0,1,12,1575420000,36.10,72.1,64.0,1,0,1,31.1
Status,1774252348000,32,1,1,25,1575420000,35.80,318.8,63.3,1,0,1,30.8
Status,1774252348000,32,2,1,11,1575420000,34.20,77.3,48.3,1,0,1,29.2
Status,1774252348000,32,3,1,29,1575420000,35.50,247.2,45.6,1,0,1,30.5
Status,1774252348000,32,4,1,28,1575420000,38.60,316.8,20.2,1,0,1,33.6
Status,1774252348000,32,5,1,6,1575420000,37.90,40.0,18.0,1,0,1,32.9
Status,1774252348000,32,6,1,32,1575420000,39.20,273.0,14.4,1,0,1,34.2
Status,1774252348000,32,7,1,24,1575420000,34.00,170.9,25.2,0,0,1,29.0
Status,1774252348000,32,8,3,23,1603687600,30.20,144.0,77.7,1,0,1,25.2
Status,1774252348000,32,9,3,13,1600875000,32.10,354.2,67.4,1,0,1,27.1
Status,1774252348000,32,10,3,12,1601437400,38.50,107.4,49.2,1,0,1,33.5
Status,1774252348000,32,11,3,22,1600312400,35.50,41.0,48.7,1,0,1,30.5
Status,1774252348000,32,12,3,24,1603125000,46.20,203.0,17.1,1,0,1,41.2
Status,1774252348000,32,13,3,4,1605375000,39.20,306.6,7.9,1,0,1,34.2
Status,1774252348000,32,14,6,2,1575420000,31.20,33.2,72.1,1,0,1,26.2
Status,1774252348000,32,15,6,36,1575420000,36.90,108.0,50.1,1,0,1,31.9
Status,1774252348000,32,16,6,30,1575420000,36.80,296.8,38.0,1,0,1,31.8
Status,1774252348000,32,17,6,25,1575420000,32.90,91.9,26.1,1,0,1,27.9
Status,1774252348000,32,18,6,34,1575420000,34.20,170.0,25.6,1,0,1,29.2
Status,1774252348000,32,19,6,7,1575420000,35.10,288.0,22.1,1,0,1,30.1
Status,1774252348000,32,20,6,8,1575420000,46.50,234.0,20.2,1,0,1,41.5
Status,1774252348000,32,21,6,10,1575420000,24.10,30.0,6.5,0,0,1,19.1
Status,1774252348000,32,22,5,11,1561098000,35.10,175.4,73.9,1,0,1,30.1
Status,1774252348000,32,23,5,34,1575420000,37.60,68.1,69.5,1,0,1,32.6
Status,1774252348000,32,24,5,43,1575420000,44.20,212.0,46.6,1,0,1,39.2
Status,1774252348000,32,25,5,12,1561098000,30.90,49.9,43.6,1,0,1,25.9
Status,1774252348000,32,26,5,23,1575420000,37.90,309.2,42.9,1,0,1,32.9
Status,1774252348000,32,27,5,10,1561098000,33.00,64.3,27.0,1,0,1,28.0
Status,1774252348000,32,28,5,44,1575420000,36.30,46.5,16.7,1,0,1,31.3
Status,1774252348000,32,29,5,7,1561098000,28.70,64.6,14.8,1,0,1,23.7
Status,1774252348000,32,30,5,24,1561098000,17.10,131.0,23.3,0,1,1,12.1
Status,1774252348000,32,31,5,38,1561098000,31.40,83.4,8.9,0,1,1,26.4
Fix,GPS,40.8909646701,29.3773491215,180.0,0.0,3.5,,1774252349000,0.1,,80752918198493,3.0,0,,,
Status,1774252349000,32,0,1,12,1575420000,35.90,72.1,64.0,1,0,1,30.9
Status,1774252349000,32,1,1,25,1575420000,35.60,318.8,63.3,1,0,1,30.6
Status,1774252349000,32,2,1,11,1575420000,33.80,77.3,48.3,1,0,1,28.8
Status,1774252349000,32,3,1,29,1575420000,35.30,247.2,45.6,1,0,1,30.3
Status,1774252349000,32,4,1,28,1575420000,38.50,316.8,20.2,1,0,1,33.5
Status,1774252349000,32,5,1,6,1575420000,37.60,40.0,18.0,1,0,1,32.6
Status,1774252349000,32,6,1,32,1575420000,39.30,273.0,14.4,1,0,1,34.3
Status,1774252349000,32,7,1,24,1575420000,34.00,170.9,25.2,0,0,1,29.0
Status,1774252349000,32,8,3,23,1603687600,29.70,144.0,77.7,1,0,1,24.7
Status,1774252349000,32,9,3,13,1600875000,31.80,354.2,67.4,1,0,1,26.8
Status,1774252349000,32,10,3,12,1601437400,38.40,107.4,49.2,1,0,1,33.4
Status,1774252349000,32,11,3,22,1600312400,35.10,41.0,48.7,1,0,1,30.1
Status,1774252349000,32,12,3,24,1603125000,46.20,203.0,17.1,1,0,1,41.2
Status,1774252349000,32,13,3,4,1605375000,39.50,306.6,7.9,1,0,1,34.5
Status,1774252349000,32,14,6,2,1575420000,30.80,33.2,72.1,1,0,1,25.8
Status,1774252349000,32,15,6,36,1575420000,36.80,108.0,50.1,1,0,1,31.8
Status,1774252349000,32,16,6,30,1575420000,36.80,296.8,38.0,1,0,1,31.8
Status,1774252349000,32,17,6,25,1575420000,32.50,91.9,26.1,1,0,1,27.5
Status,1774252349000,32,18,6,34,1575420000,34.20,170.0,25.8,1,0,1,29.2
Status,1774252349000,32,19,6,7,1575420000,35.00,288.0,22.1,1,0,1,30.0
Status,1774252349000,32,20,6,8,1575420000,46.60,234.0,20.2,1,0,1,41.6
Status,1774252349000,32,21,6,10,1575420000,24.00,30.0,6.5,0,0,1,19.0
Status,1774252349000,32,22,5,11,1561098000,35.30,175.4,73.9,1,0,1,30.3
Status,1774252349000,32,23,5,34,1575420000,37.30,68.1,69.5,1,0,1,32.3
Status,1774252349000,32,24,5,43,1575420000,44.20,212.0,46.6,1,0,1,39.2
Status,1774252349000,32,25,5,12,1561098000,30.80,49.9,43.6,1,0,1,25.8
Status,1774252349000,32,26,5,23,1575420000,38.00,309.2,42.9,1,0,1,33.0
Status,1774252349000,32,27,5,10,1561098000,33.00,64.3,27.0,1,0,1,28.0
Status,1774252349000,32,28,5,44,1575420000,35.90,46.5,16.7,1,0,1,30.9
Status,1774252349000,32,29,5,7,1561098000,28.50,64.6,14.8,1,0,1,23.5
Status,1774252349000,32,30,5,24,1561098000,15.60,131.0,23.3,0,1,1,10.6
Status,1774252349000,32,31,5,38,1561098000,29.90,83.4,8.9,0,1,1,24.9
Fix,GPS,40.8909646701,29.3773491215,180.0,0.0,3.5,,1774252350000,0.01,,80753928369300,3.0,0,,,
Status,1774252350000,32,0,1,12,1575420000,35.70,72.6,63.8,1,0,1,30.7
Status,1774252350000,32,1,1,25,1575420000,35.30,318.8,63.3,1,0,1,30.3
Status,1774252350000,32,2,1,11,1575420000,33.60,77.3,48.3,1,0,1,28.6
Status,1774252350000,32,3,1,29,1575420000,35.20,247.2,45.6,1,0,1,30.2
Status,1774252350000,32,4,1,28,1575420000,38.40,316.8,20.2,1,0,1,33.4
Status,1774252350000,32,5,1,6,1575420000,37.30,40.0,18.0,1,0,1,32.3
Status,1774252350000,32,6,1,32,1575420000,39.40,273.0,14.4,1,0,1,34.4
Status,1774252350000,32,7,3,23,1603687600,29.40,144.0,77.7,1,0,1,24.4
Status,1774252350000,32,8,3,13,1600875000,31.60,354.2,67.4,1,0,1,26.6
Status,1774252350000,32,9,3,12,1601437400,38.20,107.4,49.2,1,0,1,33.2
Status,1774252350000,32,10,3,22,1600312400,34.70,41.0,48.7,1,0,1,29.7
Status,1774252350000,32,11,3,24,1603125000,46.20,203.0,17.1,1,0,1,41.2
Status,1774252350000,32,12,3,4,1605375000,39.70,306.6,7.9,1,0,1,34.7
Status,1774252350000,32,13,6,2,1575420000,30.30,33.2,72.1,1,0,1,25.3
Status,1774252350000,32,14,6,36,1575420000,36.80,108.0,50.1,1,0,1,31.8
Status,1774252350000,32,15,6,30,1575420000,36.70,296.8,38.0,1,0,1,31.7
Status,1774252350000,32,16,6,25,1575420000,32.20,91.9,26.1,1,0,1,27.2
Status,1774252350000,32,17,6,34,1575420000,34.30,170.0,25.8,1,0,1,29.3
Status,1774252350000,32,18,6,7,1575420000,35.00,288.0,22.1,1,0,1,30.0
Status,1774252350000,32,19,6,8,1575420000,46.70,234.0,20.2,1,0,1,41.7
Status,1774252350000,32,20,6,10,1575420000,24.00,30.0,6.5,0,0,1,19.0
Status,1774252350000,32,21,5,11,1561098000,35.40,175.4,73.9,1,0,1,30.4
Status,1774252350000,32,22,5,34,1575420000,36.90,67.5,69.3,1,0,1,31.9
Status,1774252350000,32,23,5,43,1575420000,44.20,212.0,46.6,1,0,1,39.2
Status,1774252350000,32,24,5,12,1561098000,30.70,49.9,43.6,1,0,1,25.7
Status,1774252350000,32,25,5,23,1575420000,38.00,309.2,42.9,1,0,1,33.0
Status,1774252350000,32,26,5,10,1561098000,32.90,64.3,27.0,1,0,1,27.9
Status,1774252350000,32,27,5,44,1575420000,35.50,46.5,16.7,1,0,1,30.5
Status,1774252350000,32,28,5,7,1561098000,28.40,64.6,14.8,1,0,1,23.4
Status,1774252350000,32,29,5,24,1561098000,14.10,131.0,23.3,0,1,1,9.1
Status,1774252350000,32,30,1,24,1575420000,32.50,170.9,25.2,0,0,1,27.5
Status,1774252350000,32,31,5,38,1561098000,28.40,83.4,8.9,0,0,1,23.4
Fix,GPS,40.8909646701,29.3773491215,180.0,0.0,3.5,,1774252351000,0.02,,80754933365453,3.0,0,,,
Status,1774252351000,32,0,1,12,1575420000,35.60,72.6,63.8,1,0,1,30.6
Status,1774252351000,32,1,1,25,1575420000,35.10,318.8,63.3,1,0,1,30.1
Status,1774252351000,32,2,1,11,1575420000,33.30,77.3,48.3,1,0,1,28.3
Status,1774252351000,32,3,1,29,1575420000,35.10,247.2,45.6,1,0,1,30.1
Status,1774252351000,32,4,1,28,1575420000,38.30,316.8,20.2,1,0,1,33.3
Status,1774252351000,32,5,1,6,1575420000,37.00,40.0,18.0,1,0,1,32.0
Status,1774252351000,32,6,1,32,1575420000,39.40,273.0,14.4,1,0,1,34.4
