Fix,GPS,40.8909440925,29.3773466069,181.0,0.22999999,3.0,1.8,1774252328000,0.29,18.6,80731921113585,3.0,0,,,
Fix,GPS,40.8909450565,29.3773435056,180.0,0.16,3.0,35.9,1774252329000,0.17,25.6,80732915092931,3.0,0,,,
Fix,GPS,40.8909415361,29.3773482833,180.0,0.049999997,3.0,35.9,1774252330000,0.24,33.1,80733913190314,3.0,0,,,
Fix,GPS,40.8909415780,29.3773480318,180.0,0.0,3.0,,1774252331000,0.09,,80734912281583,3.0,0,,,
Fix,GPS,40.8909415780,29.3773480318,180.0,0.0,3.0,,1774252332000,0.03,,80735915232621,3.0,0,,,
Fix,GPS,40.8909415780,29.3773480318,180.0,0.0,3.0,,1774252333000,0.02,,80736919682197,3.0,0,,,
Fix,GPS,40.8909415780,29.3773480318,180.0,0.0,3.0,,1774252334000,0.02,,80737899409773,3.0,0,,,
Fix,GPS,40.8909415780,29.3773480318,180.0,0.0,3.0,,1774252335000,0.04,,80738903187465,3.0,0,,,
Fix,GPS,40.8909418713,29.3773461878,179.0,0.14999999,3.0,35.9,1774252336000,0.19,41.2,80739938561426,3.0,0,,,
Fix,GPS,40.8909456432,29.3773454335,179.0,0.24,3.0,35.9,1774252337000,0.21,41.2,80740933799848,3.0,0,,,
Fix,GPS,40.8909487445,29.3773440924,180.0,0.12,3.5,35.9,1774252338000,0.27,49.8,80741907937424,3.0,0,,,
Fix,GPS,40.8909487445,29.3773444276,180.0,0.0,3.5,,1774252339000,0.01,,80742917576193,3.0,0,,,
Fix,GPS,40.8909498341,29.3773472775,180.0,0.22,4.0,35.9,1774252340000,0.78,58.8,80743916714769,4.0,0,,,
Fix,GPS,40.8909540251,29.3773447629,180.0,0.95,4.0,35.9,1774252341000,0.5,58.8,80744939899460,3.0,0,,,
Fix,GPS,40.8909583837,29.3773452658,180.0,0.75,4.0,35.9,1774252342000,0.22,68.4,80745937407767,3.0,0,,,
Fix,GPS,40.8909635385,29.3773464393,180.0,0.32999998,4.0,35.9,1774252343000,0.41,78.3,80746956098959,3.0,0,,,
Fix,GPS,40.8909652149,29.3773475289,180.0,0.48,3.5,35.9,1774252344000,0.97,88.7,80747923706458,3.0,0,,,
Fix,GPS,40.8909643767,29.3773488700,180.0,0.12,4.0,35.9,1774252345000,0.37,99.4,80748924568342,3.0,0,,,
Fix,GPS,40.8909646701,29.3773491215,180.0,0.0,3.5,,1774252346000,0.01,,80749923003226,3.0,0,,,
Fix,GPS,40.8909646701,29.3773491215,180.0,0.0,4.0,,1774252347000,0.02,,80750928046495,3.0,0,,,
Fix,GPS,40.8909646701,29.3773491215,180.0,0.0,4.0,,1774252348000,0.01,,80751936634609,3.0,0,,,
Fix,GPS,40.8909646701,29.3773491215,180.0,0.0,3.5,,1774252349000,0.1,,80752918198493,3.0,0,,,
Fix,GPS,40.8909646701,29.3773491215,180.0,0.0,3.5,,1774252350000,0.01,,80753928369300,3.0,0,,,
Fix,GPS,40.8909646701,29.3773491215,180.0,0.0,3.5,,1774252351000,0.02,,80754933365453,3.0,0,,,
Fix,GPS,40.8909646701,29.3773491215,180.0,0.0,3.5,,1774252352000,0.01,,80755920997914,3.0,0,,,
Fix,GPS,40.8909646701,29.3773491215,180.0,0.0,4.0,,1774252353000,0.01,,80756917152913,3.0,0,,,
Fix,GPS,40.8909646701,29.3773491215,180.0,0.0,3.5,,1774252354000,0.01,,80757923610028,3.0,0,,,
Fix,GPS,40.8909646701,29.3773491215,180.0,0.0,3.5,,1774252355000,0.11,,80758925869489,3.0,0,,,
Fix,GPS,40.8909646701,29.3773491215,180.0,0.0,3.5,,1774252356000,0.02,,80759916219450,3.0,0,,,
Fix,GPS,40.8909646701,29.3773491215,180.0,0.0,3.5,,1774252357000,0.01,,80760927142795,3.0,0,,,
Fix,GPS,40.8909646701,29.3773491215,180.0,0.0,3.5,,1774252358000,0.01,,80761929716333,3.0,0,,,
Fix,GPS,40.8909646701,29.3773491215,180.0,0.0,3.5,,1774252359000,0.01,,80762915777563,3.0,0,,,
Fix,GPS,40.8909646701,29.3773491215,180.0,0.0,3.5,,1774252360000,0.02,,80763925563562,3.0,0,,,
Fix,GPS,40.8909646701,29.3773491215,180.0,0.0,3.5,,1774252361000,0.02,,80764938338254,3.0,0,,,
Fix,GPS,40.8909646701,29.3773491215,180.0,0.0,3.5,,1774252362000,0.02,,80765925227522,3.0,0,,,
Fix,GPS,40.8909646701,29.3773491215,180.0,0.0,3.5,,1774252363000,0.02,,80766928499560,3.0,0,,,
Fix,GPS,40.8909646701,29.3773491215,180.0,0.0,3.0,,1774252364000,0.02,,80767912170636,3.0,0,,,
Fix,GPS,40.8909646701,29.3773491215,180.0,0.0,3.5,,1774252365000,0.02,,80768941549674,3.0,0,,,
Fix,GPS,40.8909646701,29.3773491215,180.0,0.0,3.0,,1774252366000,0.01,,80769933992366,3.0,0,,,
Fix,GPS,40.8909646701,29.3773491215,180.0,0.0,3.5,,1774252367000,0.01,,80770914277250,3.0,0,,,
Fix,GPS,40.8909646701,29.3773491215,180.0,0.0,3.5,,1774252368000,0.01,,80771930920441,3.0,0,,,
Fix,GPS,40.8909646701,29.3773491215,180.0,0.0,3.5,,1774252369000,0.01,,80772937193440,3.0,0,,,
Fix,GPS,40.8909646701,29.3773491215,180.0,0.0,3.5,,1774252370000,0.01,,80773928454670,3.0,0,,,
Fix,GPS,40.8909646701,29.3773491215,180.0,0.0,3.0,,1774252371000,0.02,,80774935633708,3.0,0,,,
Fix,GPS,40.8909646701,29.3773491215,180.0,0.0,3.0,,1774252372000,0.01,,80775920776592,3.0,0,,,
Fix,GPS,40.8909646701,29.3773491215,180.0,0.0,3.5,,1774252373000,0.01,,80776925360053,3.0,0,,,
Fix,GPS,40.8909646701,29.3773491215,180.0,0.0,3.5,,1774252374000,0.01,,80777927114398,3.0,0,,,
Fix,GPS,40.8909646701,29.3773491215,180.0,0.0,3.0,,1774252375000,0.01,,80778923170782,3.0,0,,,
Fix,GPS,40.8909646701,29.3773491215,180.0,0.0,3.5,,1774252376000,0.02,,80779929359858,3.0,0,,,
Fix,GPS,40.8909646701,29.3773491215,180.0,0.0,3.5,,1774252377000,0.02,,80780925014704,3.0,0,,,
Fix,GPS,40.8909646701,29.3773491215,180.0,0.0,3.5,,1774252378000,0.01,,80781939406934,3.0,0,,,
Fix,GPS,40.8909646701,29.3773491215,180.0,0.0,3.0,,1774252379000,0.02,,80782920329510,3.0,0,,,
Fix,GPS,40.8909646701,29.3773491215,180.0,0.0,3.5,,1774252380000,0.02,,80783938541433,3.0,0,,,
Fix,GPS,40.8909646701,29.3773491215,180.0,0.0,3.0,,1774252381000,0.02,,80784939649047,3.0,0,,,
Fix,GPS,40.8909646701,29.3773491215,180.0,0.0,3.5,,1774252382000,0.02,,80785927127047,3.0,0,,,
Fix,GPS,40.8909646701,29.3773491215,180.0,0.0,3.5,,1774252383000,0.02,,80786927874661,3.0,0,,,
Fix,GPS,40.8909646701,29.3773491215,180.0,0.0,3.5,,1774252384000,0.01,,80787933426660,3.0,0,,,
Fix,GPS,40.8909646701,29.3773491215,180.0,0.0,3.5,,1774252385000,0.01,,80788922634083,3.0,0,,,
Fix,GPS,40.8909646701,29.3773491215,180.0,0.0,3.5,,1774252386000,0.01,,80789924982851,3.0,0,,,
Fix,GPS,40.8909646701,29.3773491215,180.0,0.0,3.5,,1774252387000,0.01,,80790924921120,3.0,0,,,
Fix,GPS,40.8909646701,29.3773491215,180.0,0.0,3.5,,1774252388000,0.02,,80791928496619,3.0,0,,,
Fix,GPS,40.8909646701,29.3773491215,180.0,0.0,3.5,,1774252389000,0.02,,80792927179272,3.0,0,,,
Fix,GPS,40.8909646701,29.3773491215,180.0,0.0,3.5,,1774252390000,0.01,,80793941916695,3.0,0,,,
Fix,GPS,40.8909646701,29.3773491215,180.0,0.0,3.0,,1774252391000,0.02,,80794932523502,3.0,0,,,
Fix,GPS,40.8909646701,29.3773491215,180.0,0.0,3.5,,1774252392000,0.01,,80795933967809,3.0,0,,,
Fix,GPS,40.8909646701,29.3773491215,180.0,0.0,3.5,,1774252393000,0.01,,80796923629616,3.0,0,,,
Fix,GPS,40.8909646701,29.3773491215,180.0,0.0,3.5,,1774252394000,0.01,,80797929227769,3.0,0,,,
Fix,GPS,40.8909646701,29.3773491215,180.0,0.0,3.0,,1774252395000,0.01,,80798918155076,3.0,0,,,
Fix,GPS,40.8909646701,29.3773491215,180.0,0.0,3.5,,1774252396000,0.02,,80799928652690,3.0,0,,,
Fix,GPS,40.8909646701,29.3773491215,180.0,0.0,3.5,,1774252397000,0.03,,80800925665459,3.0,0,,,
Fix,GPS,40.8909646701,29.3773491215,180.0,0.0,3.0,,1774252398000,0.02,,80801941658343,3.0,0,,,
Fix,GPS,40.8909646701,29.3773491215,180.0,0.0,3.5,,1774252399000,0.01,,80802925103573,3.0,0,,,
Fix,GPS,40.8909646701,29.3773491215,180.0,0.0,3.0,,1774252400000,0.02,,80803918170341,3.0,0,,,
Fix,GPS,40.8909646701,29.3773491215,180.0,0.0,3.0,,1774252401000,0.02,,80804929219571,3.0,0,,,
Fix,GPS,40.8909646701,29.3773491215,180.0,0.0,3.5,,1774252402000,0.02,,80805929672109,3.0,0,,,
Fix,GPS,40.8909646701,29.3773491215,180.0,0.0,3.5,,1774252403000,0.02,,80806935009570,3.0,0,,,
Fix,GPS,40.8909646701,29.3773491215,180.0,0.0,3.0,,1774252404000,0.02,,80807929306300,3.0,0,,,
Fix,GPS,40.8909646701,29.3773491215,180.0,0.0,3.5,,1774252405000,0.02,,80808936461876,3.0,0,,,
Fix,GPS,40.8909646701,29.3773491215,180.0,0.0,3.5,,1774252406000,0.01,,80809936424760,3.0,0,,,
Fix,GPS,40.8909646701,29.3773491215,180.0,0.0,3.5,,1774252407000,0.02,,80810931114413,3.0,0,,,
Fix,GPS,40.8909646701,29.3773491215,180.0,0.0,3.5,,1774252408000,0.02,,80811929469297,3.0,0,,,
Fix,GPS,40.8909624908,29.3773481157,179.0,0.0,3.0,,1774252410000,0.09,,80813929692526,3.0,0,,,
Fix,GPS,40.8909624908,29.3773481157,179.0,0.0,2.5,,1774252411000,0.03,,80814936162680,2.0,0,,,
Fix,GPS,40.8909624908,29.3773481157,179.0,0.0,3.0,,1774252412000,0.02,,80815935589487,3.0,0,,,
Fix,GPS,40.8909624908,29.3773481157,179.0,0.0,2.5,,1774252413000,0.03,,80816935145755,2.0,0,,,
Fix,GPS,40.8909624908,29.3773481157,179.0,0.0,2.5,,1774252414000,0.02,,80817925642562,2.0,0,,,
Fix,GPS,40.8909624908,29.3773481157,179.0,0.0,2.5,,1774252415000,0.02,,80818928565523,2.0,0,,,
Fix,GPS,40.8909624908,29.3773481157,179.0,0.0,2.5,,1774252416000,0.02,,80819918775330,2.0,0,,,
Fix,GPS,40.8909624908,29.3773481157,179.0,0.0,3.0,,1774252417000,0.02,,80820938153560,3.0,0,,,
Fix,GPS,40.8909624908,29.3773481157,179.0,0.0,2.5,,1774252418000,0.01,,80821935239444,2.0,0,,,
Fix,GPS,40.8909624908,29.3773481157,179.0,0.0,3.0,,1774252419000,0.02,,80822952648020,3.0,0,,,
Fix,GPS,40.8909624908,29.3773481157,179.0,0.0,2.5,,1774252420000,0.04,,80823927703019,2.0,0,,,
Fix,GPS,40.8909624908,29.3773481157,179.0,0.0,2.5,,1774252421000,0.01,,80824930177865,2.0,0,,,
Fix,GPS,40.8909624908,29.3773481157,179.0,0.0,2.5,,1774252422000,0.02,,80825935282364,2.0,0,,,
Fix,GPS,40.8909624908,29.3773481157,179.0,0.0,3.0,,1774252423000,0.01,,80826928172825,3.0,0,,,
Fix,GPS,40.8909624908,29.3773481157,179.0,0.0,3.0,,1774252424000,0.01,,80827928142747,3.0,0,,,
Fix,GPS,40.8909624908,29.3773481157,179.0,0.0,3.0,,1774252425000,0.02,,80828924198554,3.0,0,,,
Fix,GPS,40.8909624908,29.3773481157,179.0,0.0,3.0,,1774252426000,0.01,,80829928516707,3.0,0,,,
Fix,GPS,40.8909624908,29.3773481157,179.0,0.0,2.5,,1774252427000,0.01,,80830917872976,2.0,0,,,
Fix,GPS,40.8909624908,29.3773481157,179.0,0.0,3.0,,1774252428000,0.02,,80831930633860,3.0,0,,,
Fix,GPS,40.8909624908,29.3773481157,179.0,0.0,2.5,,1774252429000,0.02,,80832928780051,2.0,0,,,
Fix,GPS,40.8909624908,29.3773481157,179.0,0.0,2.5,,1774252430000,0.02,,80833925071012,3.0,0,,,
Fix,GPS,40.8909624908,29.3773481157,179.0,0.0,3.0,,1774252431000,0.01,,80834923513127,3.0,0,,,
Fix,GPS,40.8909624908,29.3773481157,179.0,0.0,3.0,,1774252432000,0.02,,80835944561972,3.0,0,,,
Fix,GPS,40.8909624908,29.3773481157,179.0,0.0,2.5,,1774252433000,0.02,,80836928402395,2.0,0,,,
Fix,GPS,40.8909624908,29.3773481157,179.0,0.0,3.0,,1774252434000,0.02,,80837929687048,3.0,0,,,
Fix,GPS,40.8909624908,29.3773481157,179.0,0.0,2.5,,1774252435000,0.01,,80838933699047,2.0,0,,,
Fix,GPS,40.8909624908,29.3773481157,179.0,0.0,2.5,,1774252436000,0.02,,80839931964700,2.0,0,,,
Fix,GPS,40.8909624908,29.3773481157,179.0,0.0,2.5,,1774252437000,0.01,,80840924019430,3.0,0,,,
Fix,GPS,40.8909624908,29.3773481157,179.0,0.0,2.5,,1774252438000,0.01,,80841932996122,3.0,0,,,
Fix,GPS,40.8909624908,29.3773481157,179.0,0.0,3.0,,1774252439000,0.02,,80842929934660,3.0,0,,,
Fix,GPS,40.8909624908,29.3773481157,179.0,0.0,2.5,,1774252440000,0.02,,80843935778043,3.0,0,,,
Fix,GPS,40.8909624908,29.3773481157,179.0,0.0,2.5,,1774252441000,0.02,,80844938686697,2.0,0,,,
Fix,GPS,40.8909624908,29.3773481157,179.0,0.0,2.5,,1774252442000,0.02,,80845950109619,3.0,0,,,
Fix,GPS,40.8909624908,29.3773481157,179.0,0.0,2.5,,1774252443000,0.01,,80846942227964,2.0,0,,,
Fix,GPS,40.8909624908,29.3773481157,179.0,0.0,2.5,,1774252444000,0.01,,80847942343425,3.0,0,,,
Fix,GPS,40.8909624908,29.3773481157,179.0,0.0,3.0,,1774252445000,0.02,,80848926782001,3.0,0,,,
Fix,GPS,40.8909624908,29.3773481157,179.0,0.0,3.0,,1774252446000,0.03,,80849928884693,3.0,0,,,
Fix,GPS,40.8909624908,29.3773481157,179.0,0.0,3.0,,1774252447000,0.04,,80850932941846,3.0,0,,,
Fix,GPS,40.8909624908,29.3773481157,179.0,0.0,2.5,,1774252448000,0.02,,80851935381884,3.0,0,,,
Fix,GPS,40.8909624908,29.3773481157,179.0,0.0,3.0,,1774252449000,0.01,,80852928735268,3.0,0,,,
Fix,GPS,40.8909624908,29.3773481157,179.0,0.0,3.0,,1774252450000,0.03,,80853936799498,3.0,0,,,
Fix,GPS,40.8909624908,29.3773481157,179.0,0.0,3.0,,1774252451000,0.03,,80854925316459,3.0,0,,,
Fix,GPS,40.8909624908,29.3773481157,179.0,0.0,2.5,,1774252452000,0.02,,80855924215420,2.0,0,,,
Fix,GPS,40.8909624908,29.3773481157,179.0,0.0,3.0,,1774252453000,0.03,,80856933843534,3.0,0,,,
Fix,GPS,40.8909624908,29.3773481157,179.0,0.0,2.5,,1774252454000,0.03,,80857927626495,3.0,0,,,
Fix,GPS,40.8909624908,29.3773481157,179.0,0.0,2.5,,1774252455000,0.02,,80858933275110,2.0,0,,,
Fix,GPS,40.8909624908,29.3773481157,179.0,0.0,3.0,,1774252456000,0.02,,80859929732340,3.0,0,,,
Fix,GPS,40.8909624908,29.3773481157,179.0,0.0,2.5,,1774252457000,0.02,,80860928275224,2.0,0,,,
Fix,GPS,40.8909624908,29.3773481157,179.0,0.0,2.5,,1774252458000,0.04,,80861945536492,2.0,0,,,
Fix,GPS,40.8909624908,29.3773481157,179.0,0.0,3.0,,1774252459000,0.01,,80862925261838,3.0,0,,,
Fix,GPS,40.8909624908,29.3773481157,179.0,0.0,2.5,,1774252460000,0.01,,80863929369106,3.0,0,,,
Fix,GPS,40.8909624908,29.3773481157,179.0,0.0,2.5,,1774252461000,0.02,,80864937702182,2.0,0,,,
Fix,GPS,40.8909624908,29.3773481157,179.0,0.0,2.5,,1774252462000,0.01,,80865940366874,3.0,0,,,
Fix,GPS,40.8909624908,29.3773481157,179.0,0.0,2.0,,1774252463000,0.01,,80866935981450,2.0,0,,,
Fix,GPS,40.8909624908,29.3773481157,179.0,0.0,2.5,,1774252464000,0.02,,80867905365680,2.0,0,,,
Fix,GPS,40.8909624908,29.3773481157,179.0,0.0,2.5,,1774252465000,0.02,,80868931759256,2.0,0,,,
Fix,GPS,40.8909624908,29.3773481157,179.0,0.0,2.5,,1774252466000,0.02,,80869922877525,2.0,0,,,
Fix,GPS,40.8909624908,29.3773481157,179.0,0.0,2.5,,1774252467000,0.01,,80870932556140,3.0,0,,,
Fix,GPS,40.8909624908,29.3773481157,179.0,0.0,3.0,,1774252468000,0.03,,80871938564100,3.0,0,,,
Fix,GPS,40.8909624908,29.3773481157,179.0,0.0,2.5,,1774252469000,0.01,,80872940439984,2.0,0,,,
Fix,GPS,40.8909624908,29.3773481157,179.0,0.0,3.0,,1774252470000,0.01,,80873928345445,3.0,0,,,
Fix,GPS,40.8909624908,29.3773481157,179.0,0.0,3.0,,1774252471000,0.01,,80874946768983,3.0,0,,,
Fix,GPS,40.8909624908,29.3773481157,179.0,0.0,2.5,,1774252472000,0.01,,80875932319174,2.0,0,,,
Fix,GPS,40.8909624908,29.3773481157,179.0,0.0,2.5,,1774252473000,0.01,,80876935048404,3.0,0,,,
Fix,GPS,40.8909624908,29.3773481157,179.0,0.0,2.5,,1774252474000,0.01,,80877923554750,3.0,0,,,
Fix,GPS,40.8909624908,29.3773481157,179.0,0.0,2.5,,1774252475000,0.04,,80878935429018,3.0,0,,,
Fix,GPS,40.8909624908,29.3773481157,179.0,0.0,3.0,,1774252476000,0.02,,80879921494749,3.0,0,,,
Fix,GPS,40.8909624908,29.3773481157,179.0,0.0,2.5,,1774252477000,0.02,,80880918394248,2.0,0,,,
Fix,GPS,40.8909624908,29.3773481157,179.0,0.0,2.0,,1774252478000,0.04,,80881904516286,2.0,0,,,
Fix,GPS,40.8909624908,29.3773481157,179.0,0.0,2.5,,1774252479000,0.01,,80882928369785,2.0,0,,,
Fix,GPS,40.8909624908,29.3773481157,179.0,0.0,2.5,,1774252480000,0.03,,80883936299438,2.0,0,,,
Fix,GPS,40.8909624908,29.3773481157,179.0,0.0,2.5,,1774252481000,0.01,,80884936651130,2.0,0,,,
Fix,GPS,40.8909624908,29.3773481157,179.0,0.0,2.5,,1774252482000,0.03,,80885931132821,2.0,0,,,
Fix,GPS,40.8909624908,29.3773481157,179.0,0.0,2.5,,1774252483000,0.02,,80886934871205,2.0,0,,,
Fix,GPS,40.8909624908,29.3773481157,179.0,0.0,2.5,,1774252484000,0.02,,80887935810974,2.0,0,,,
Fix,GPS,40.8909624908,29.3773481157,179.0,0.0,2.5,,1774252485000,0.02,,80888927451896,2.0,0,,,
Fix,GPS,40.8909624908,29.3773481157,179.0,0.0,2.5,,1774252486000,0.02,,80889935149511,2.0,0,,,
Fix,GPS,40.8909624908,29.3773481157,179.0,0.0,2.5,,1774252487000,0.01,,80890940381318,2.0,0,,,
Fix,GPS,40.8909624908,29.3773481157,179.0,0.0,2.5,,1774252488000,0.02,,80891928362394,2.0,0,,,
Fix,GPS,40.8909624908,29.3773481157,179.0,0.0,2.5,,1774252489000,0.03,,80892933463008,2.0,0,,,
Fix,GPS,40.8909624908,29.3773481157,179.0,0.0,2.5,,1774252490000,0.01,,80893932239162,2.0,0,,,
Fix,GPS,40.8909624908,29.3773481157,179.0,0.0,2.5,,1774252491000,0.02,,80894941134507,2.0,0,,,
Fix,GPS,40.8909624908,29.3773481157,179.0,0.0,2.5,,1774252492000,0.03,,80895940558237,3.0,0,,,
Fix,GPS,40.8909624908,29.3773481157,179.0,0.0,2.5,,1774252493000,0.02,,80896935036006,2.0,0,,,
Fix,GPS,40.8909624908,29.3773481157,179.0,0.0,2.5,,1774252494000,0.02,,80897941802428,2.0,0,,,
Fix,GPS,40.8909624908,29.3773481157,179.0,0.0,2.5,,1774252495000,0.01,,80898927960004,3.0,0,,,
Fix,GPS,40.8909624908,29.3773481157,179.0,0.0,2.5,,1774252496000,0.02,,80899920117311,3.0,0,,,
Fix,GPS,40.8909624908,29.3773481157,179.0,0.0,2.5,,1774252497000,0.02,,80900929801887,2.0,0,,,
Fix,GPS,40.8909624908,29.3773481157,179.0,0.0,2.5,,1774252498000,0.01,,80901946106540,3.0,0,,,
Fix,GPS,40.8909624908,29.3773481157,179.0,0.0,2.5,,1774252499000,0.01,,80902920662886,3.0,0,,,
Fix,GPS,40.8909624908,29.3773481157,179.0,0.0,2.5,,1774252500000,0.01,,80903947073924,3.0,0,,,
Fix,GPS,40.8909624908,29.3773481157,179.0,0.0,2.5,,1774252501000,0.01,,80904933307538,2.0,0,,,
Fix,GPS,40.8909624908,29.3773481157,179.0,0.0,2.5,,1774252502000,0.03,,80905937981153,2.0,0,,,
Fix,GPS,40.8909624908,29.3773481157,179.0,0.0,2.5,,1774252503000,0.03,,80906905437883,3.0,0,,,
Fix,GPS,40.8909624908,29.3773481157,179.0,0.0,2.5,,1774252504000,0.01,,80907931557805,2.0,0,,,
Fix,GPS,40.8909624908,29.3773481157,179.0,0.0,2.5,,1774252505000,0.04,,80908920471728,2.0,0,,,
Fix,GPS,40.8909624908,29.3773481157,179.0,0.0,2.5,,1774252506000,0.02,,80909936673342,2.0,0,,,
Fix,GPS,40.8909624908,29.3773481157,179.0,0.0,2.5,,1774252507000,0.01,,80910929382342,2.0,0,,,
Fix,GPS,40.8909624908,29.3773481157,179.0,0.0,2.5,,1774252508000,0.02,,80911927402687,2.0,0,,,
Fix,GPS,40.8909624908,29.3773481157,179.0,0.0,2.5,,1774252509000,0.01,,80912937071956,2.0,0,,,
Fix,GPS,40.8909624908,29.3773481157,179.0,0.0,2.5,,1774252510000,0.03,,80913926801455,2.0,0,,,
Fix,GPS,40.8909624908,29.3773481157,179.0,0.0,2.5,,1774252511000,0.02,,80914953218993,2.0,0,,,
Fix,GPS,40.8909624908,29.3773481157,179.0,0.0,2.5,,1774252512000,0.01,,80915928890646,3.0,0,,,
Fix,GPS,40.8909624908,29.3773481157,179.0,0.0,3.0,,1774252513000,0.01,,80916917525799,3.0,0,,,
Fix,GPS,40.8909624908,29.3773481157,179.0,0.0,2.5,,1774252514000,0.01,,80917929234567,2.0,0,,,
Fix,GPS,40.8909624908,29.3773481157,179.0,0.0,2.5,,1774252515000,0.03,,80918918939682,2.0,0,,,
Fix,GPS,40.8909624908,29.3773481157,179.0,0.0,2.5,,1774252516000,0.03,,80919917232181,2.0,0,,,
Fix,GPS,40.8909624908,29.3773481157,179.0,0.0,3.0,,1774252517000,0.02,,80920929818873,3.0,0,,,
Fix,GPS,40.8909624908,29.3773481157,179.0,0.0,3.0,,1774252518000,0.03,,80921941640565,3.0,0,,,
Fix,GPS,40.8909624908,29.3773481157,179.0,0.0,2.5,,1774252519000,0.01,,80922940275141,3.0,0,,,
Fix,GPS,40.8909624908,29.3773481157,179.0,0.0,3.0,,1774252520000,0.03,,80923930417140,3.0,0,,,
Fix,GPS,40.8909624908,29.3773481157,179.0,0.0,2.5,,1774252521000,0.02,,80924932060870,2.0,0,,,
Fix,GPS,40.8909624908,29.3773481157,179.0,0.0,2.5,,1774252522000,0.01,,80925937503523,3.0,0,,,
Fix,GPS,40.8909624908,29.3773481157,179.0,0.0,2.5,,1774252523000,0.02,,80926932712061,2.0,0,,,
Fix,GPS,40.8909624908,29.3773481157,179.0,0.0,2.5,,1774252524000,0.03,,80927935638099,3.0,0,,,
Fix,GPS,40.8909624908,29.3773481157,179.0,0.0,2.5,,1774252525000,0.03,,80928926642829,2.0,0,,,
Fix,GPS,40.8909624908,29.3773481157,179.0,0.0,2.5,,1774252526000,0.01,,80929925235713,3.0,0,,,
Fix,GPS,40.8909624908,29.3773481157,179.0,0.0,2.5,,1774252527000,0.02,,80930931013981,3.0,0,,,
Fix,GPS,40.8909624908,29.3773481157,179.0,0.0,2.5,,1774252528000,0.02,,80931940004673,2.0,0,,,
Fix,GPS,40.8909624908,29.3773481157,179.0,0.0,2.5,,1774252529000,0.02,,80932935019634,2.0,0,,,
Fix,GPS,40.8909624908,29.3773481157,179.0,0.0,2.5,,1774252530000,0.02,,80933930081210,2.0,0,,,
Fix,GPS,40.8909624908,29.3773481157,179.0,0.0,2.5,,1774252531000,0.03,,80934935262171,2.0,0,,,
Fix,GPS,40.8909624908,29.3773481157,179.0,0.0,3.0,,1774252532000,0.03,,80935943762093,3.0,0,,,
Fix,GPS,40.8909624908,29.3773481157,179.0,0.0,2.5,,1774252533000,0.03,,80936932105054,2.0,0,,,
Fix,GPS,40.8909624908,29.3773481157,179.0,0.0,2.5,,1774252534000,0.02,,80937934165322,3.0,0,,,
Fix,GPS,40.8909624908,29.3773481157,179.0,0.0,2.5,,1774252535000,0.02,,80938935588168,3.0,0,,,
Fix,GPS,40.8909624908,29.3773481157,179.0,0.0,2.5,,1774252536000,0.02,,80939920021859,3.0,0,,,
Fix,GPS,40.8909624908,29.3773481157,179.0,0.0,2.5,,1774252537000,0.03,,80940936320166,3.0,0,,,
Fix,GPS,40.8909624908,29.3773481157,179.0,0.0,2.5,,1774252538000,0.01,,80941930035320,2.0,0,,,
Fix,GPS,40.8909624908,29.3773481157,179.0,0.0,3.0,,1774252539000,0.01,,80942938542127,3.0,0,,,
Fix,GPS,40.8909624908,29.3773481157,179.0,0.0,2.5,,1774252540000,0.02,,80943940606895,2.0,0,,,
Fix,GPS,40.8909624908,29.3773481157,179.0,0.0,2.5,,1774252541000,0.03,,80944933127587,3.0,0,,,
Fix,GPS,40.8909624908,29.3773481157,179.0,0.0,2.5,,1774252542000,0.01,,80945920437855,3.0,0,,,
Fix,GPS,40.8909624908,29.3773481157,179.0,0.0,2.5,,1774252543000,0.02,,80946931367816,2.0,0,,,
Fix,GPS,40.8909624908,29.3773481157,179.0,0.0,3.0,,1774252544000,0.01,,80947931965123,3.0,0,,,
Fix,GPS,40.8909624908,29.3773481157,179.0,0.0,2.5,,1774252545000,0.01,,80948932560430,2.0,0,,,
Fix,GPS,40.8909624908,29.3773481157,179.0,0.0,2.5,,1774252546000,0.02,,80949932864314,3.0,0,,,
Fix,GPS,40.8909624908,29.3773481157,179.0,0.0,2.5,,1774252547000,0.03,,80950934503236,3.0,0,,,
Fix,GPS,40.8909624908,29.3773481157,179.0,0.0,2.5,,1774252548000,0.02,,80951943110889,2.0,0,,,
Fix,GPS,40.8909624908,29.3773481157,179.0,0.0,2.5,,1774252549000,0.01,,80952948314619,2.0,0,,,
Fix,GPS,40.8909624908,29.3773481157,179.0,0.0,2.5,,1774252550000,0.03,,80953926939080,2.0,0,,,
Fix,GPS,40.8909624908,29.3773481157,179.0,0.0,2.5,,1774252551000,0.04,,80954926559733,2.0,0,,,
Fix,GPS,40.8909624908,29.3773481157,179.0,0.0,2.5,,1774252552000,0.04,,80955943641656,2.0,0,,,
Fix,GPS,40.8909624908,29.3773481157,179.0,0.0,2.5,,1774252553000,0.04,,80956925270924,3.0,0,,,
Fix,GPS,40.8909624908,29.3773481157,179.0,0.0,2.5,,1774252554000,0.04,,80957924178193,2.0,0,,,
Fix,GPS,40.8909624908,29.3773481157,179.0,0.0,2.5,,1774252555000,0.03,,80958941645461,2.0,0,,,
Fix,GPS,40.8909624908,29.3773481157,179.0,0.0,2.5,,1774252556000,0.03,,80959937292499,2.0,0,,,
Fix,GPS,40.8909624908,29.3773481157,179.0,0.0,2.5,,1774252557000,0.03,,80960930115344,2.0,0,,,
Fix,GPS,40.8909624908,29.3773481157,179.0,0.0,2.5,,1774252558000,0.04,,80961924256959,2.0,0,,,
Fix,GPS,40.8909624908,29.3773481157,179.0,0.0,2.5,,1774252559000,0.03,,80962926494458,2.0,0,,,
Fix,GPS,40.8909624908,29.3773481157,179.0,0.0,2.5,,1774252560000,0.05,,80963929020496,2.0,0,,,
Fix,GPS,40.8909624908,29.3773481157,179.0,0.0,2.0,,1774252561000,0.02,,80964932832649,2.0,0,,,
Fix,GPS,40.8909624908,29.3773481157,179.0,0.0,2.5,,1774252562000,0.05,,80965933831187,2.0,0,,,
Fix,GPS,40.8909624908,29.3773481157,179.0,0.0,2.5,,1774252563000,0.01,,80966927751456,2.0,0,,,
Fix,GPS,40.8909624908,29.3773481157,179.0,0.0,2.5,,1774252564000,0.04,,80967929994032,2.0,0,,,
Fix,GPS,40.8909624908,29.3773481157,179.0,0.0,2.5,,1774252565000,0.04,,80968936563339,3.0,0,,,
Fix,GPS,40.8909624908,29.3773481157,179.0,0.0,2.5,,1774252566000,0.02,,80969927555723,2.0,0,,,
Fix,GPS,40.8909624908,29.3773481157,179.0,0.0,2.5,,1774252567000,0.04,,80970940341837,2.0,0,,,
Fix,GPS,40.8909624908,29.3773481157,179.0,0.0,3.0,,1774252568000,0.05,,80971937658067,3.0,0,,,
Fix,GPS,40.8909624908,29.3773481157,179.0,0.0,2.5,,1774252569000,0.02,,80972930306144,3.0,0,,,
Fix,GPS,40.8909624908,29.3773481157,179.0,0.0,3.0,,1774252570000,0.03,,80973940196604,3.0,0,,,
Fix,GPS,40.8909624908,29.3773481157,179.0,0.0,2.5,,1774252571000,0.02,,80974932185950,3.0,0,,,
Fix,GPS,40.8909624908,29.3773481157,179.0,0.0,2.5,,1774252572000,0.02,,80975926463680,2.0,0,,,
Fix,GPS,40.8909624908,29.3773481157,179.0,0.0,2.5,,1774252573000,0.02,,80976936132641,2.0,0,,,
Fix,GPS,40.8909624908,29.3773481157,179.0,0.0,3.0,,1774252574000,0.02,,80977929440525,3.0,0,,,
Fix,GPS,40.8909624908,29.3773481157,179.0,0.0,2.5,,1774252575000,0.01,,80978934445716,2.0,0,,,
Fix,GPS,40.8909624908,29.3773481157,179.0,0.0,2.5,,1774252576000,0.02,,80979934947062,3.0,0,,,
Fix,GPS,40.8909624908,29.3773481157,179.0,0.0,2.5,,1774252577000,0.01,,80980935979215,3.0,0,,,
Fix,GPS,40.8909624908,29.3773481157,179.0,0.0,2.5,,1774252578000,0.02,,80981928153599,3.0,0,,,
Fix,GPS,40.8909624908,29.3773481157,179.0,0.0,2.5,,1774252579000,0.01,,80982941713406,3.0,0,,,
Fix,GPS,40.8909624908,29.3773481157,179.0,0.0,2.5,,1774252580000,0.02,,80983945977943,3.0,0,,,
Fix,GPS,40.8909624908,29.3773481157,179.0,0.0,2.5,,1774252581000,0.02,,80984936161750,2.0,0,,,
Fix,GPS,40.8909624908,29.3773481157,179.0,0.0,2.5,,1774252582000,0.01,,80985931200750,2.0,0,,,
Fix,GPS,40.8909624908,29.3773481157,179.0,0.0,2.5,,1774252583000,0.01,,80986936527518,2.0,0,,,
Fix,GPS,40.8909624908,29.3773481157,179.0,0.0,2.5,,1774252584000,0.01,,80987927229171,2.0,0,,,
Fix,GPS,40.8909624908,29.3773481157,179.0,0.0,2.5,,1774252585000,0.04,,80988935413478,2.0,0,,,
Fix,GPS,40.8909624908,29.3773481157,179.0,0.0,2.5,,1774252586000,0.04,,80989934363978,3.0,0,,,
Fix,GPS,40.8909624908,29.3773481157,179.0,0.0,3.0,,1774252587000,0.05,,80990929906592,3.0,0,,,
Fix,GPS,40.8909624908,29.3773481157,179.0,0.0,2.5,,1774252588000,0.05,,80991926378822,2.0,0,,,
Fix,GPS,40.8909624908,29.3773481157,179.0,0.0,2.5,,1774252589000,0.03,,80992937814937,2.0,0,,,
Fix,GPS,40.8909624908,29.3773481157,179.0,0.0,2.5,,1774252590000,0.01,,80993930093513,3.0,0,,,
Fix,GPS,40.8909624908,29.3773481157,179.0,0.0,2.5,,1774252591000,0.01,,80994927506474,2.0,0,,,
Fix,GPS,40.8909624908,29.3773481157,179.0,0.0,2.5,,1774252592000,0.03,,80995931738742,2.0,0,,,
Fix,GPS,40.8909624908,29.3773481157,179.0,0.0,2.5,,1774252593000,0.03,,80996926999242,3.0,0,,,
Fix,GPS,40.8909624908,29.3773481157,179.0,0.0,2.5,,1774252594000,0.04,,80997937990087,3.0,0,,,
Fix,GPS,40.8909624908,29.3773481157,179.0,0.0,2.5,,1774252595000,0.01,,80998930050202,2.0,0,,,
Fix,GPS,40.8909624908,29.3773481157,179.0,0.0,2.5,,1774252596000,0.02,,80999916840893,3.0,0,,,
Fix,GPS,40.8909624908,29.3773481157,179.0,0.0,2.5,,1774252597000,0.02,,81000934566623,3.0,0,,,
Fix,GPS,40.8909624908,29.3773481157,179.0,0.0,2.5,,1774252598000,0.01,,81001929724892,3.0,0,,,
Fix,GPS,40.8909624908,29.3773481157,179.0,0.0,2.5,,1774252599000,0.01,,81002927329007,3.0,0,,,
Fix,GPS,40.8909624908,29.3773481157,179.0,0.0,2.5,,1774252600000,0.02,,81003932335314,2.0,0,,,
Fix,GPS,40.8909624908,29.3773481157,179.0,0.0,2.5,,1774252601000,0.01,,81004940262390,2.0,0,,,
Fix,GPS,40.8909624908,29.3773481157,179.0,0.0,3.0,,1774252602000,0.02,,81005938174312,3.0,0,,,
Fix,GPS,40.8909624908,29.3773481157,179.0,0.0,2.5,,1774252603000,0.03,,81006922166888,3.0,0,,,
Fix,GPS,40.8909624908,29.3773481157,179.0,0.0,2.5,,1774252604000,0.02,,81007933736888,2.0,0,,,
Fix,GPS,40.8909624908,29.3773481157,179.0,0.0,2.5,,1774252605000,0.03,,81008925830041,2.0,0,,,
Fix,GPS,40.8909624908,29.3773481157,179.0,0.0,2.5,,1774252606000,0.01,,81009924638963,2.0,0,,,
Fix,GPS,40.8909624908,29.3773481157,179.0,0.0,3.0,,1774252607000,0.03,,81010927935732,3.0,0,,,
Fix,GPS,40.8909624908,29.3773481157,179.0,0.0,3.0,,1774252608000,0.02,,81011938176616,3.0,0,,,
Fix,GPS,40.8909624908,29.3773481157,179.0,0.0,2.5,,1774252609000,0.02,,81012942195076,3.0,0,,,
Fix,GPS,40.8909624908,29.3773481157,179.0,0.0,2.5,,1774252610000,0.02,,81013923832307,2.0,0,,,
Fix,GPS,40.8909624908,29.3773481157,179.0,0.0,2.5,,1774252611000,0.02,,81014927806883,3.0,0,,,
Fix,GPS,40.8909624908,29.3773481157,179.0,0.0,2.5,,1774252612000,0.03,,81015929645920,2.0,0,,,
Fix,GPS,40.8909624908,29.3773481157,179.0,0.0,2.5,,1774252613000,0.01,,81016931296920,3.0,0,,,
Fix,GPS,40.8909624908,29.3773481157,179.0,0.0,2.5,,1774252614000,0.03,,81017928507534,2.0,0,,,
Fix,GPS,40.8909624908,29.3773481157,179.0,0.0,2.5,,1774252615000,0.12,,81018928272803,3.0,0,,,
Fix,GPS,40.8909624908,29.3773481157,179.0,0.0,2.5,,1774252616000,0.02,,81019949165956,2.0,0,,,
Fix,GPS,40.8909624908,29.3773481157,179.0,0.0,2.5,,1774252617000,0.03,,81020947865994,2.0,0,,,
Fix,GPS,40.8909624908,29.3773481157,179.0,0.0,2.5,,1774252618000,0.02,,81021937937685,3.0,0,,,
Fix,GPS,40.8909624908,29.3773481157,179.0,0.0,3.0,,1774252619000,0.02,,81022923798723,3.0,0,,,
Fix,GPS,40.8909624908,29.3773481157,179.0,0.0,2.5,,1774252620000,0.02,,81023929185107,3.0,0,,,
Fix,GPS,40.8909624908,29.3773481157,179.0,0.0,3.0,,1774252621000,0.02,,81024919699760,3.0,0,,,
Fix,GPS,40.8909624908,29.3773481157,179.0,0.0,3.0,,1774252622000,0.02,,81025938170567,3.0,0,,,
Fix,GPS,40.8909624908,29.3773481157,179.0,0.0,2.5,,1774252623000,0.01,,81026942855297,2.0,0,,,
Fix,GPS,40.8909624908,29.3773481157,179.0,0.0,2.5,,1774252624000,0.01,,81027930920296,3.0,0,,,
Fix,GPS,40.8909624908,29.3773481157,179.0,0.0,2.5,,1774252625000,0.12,,81028925287180,3.0,0,,,
Fix,GPS,40.8909624908,29.3773481157,179.0,0.0,2.5,,1774252626000,0.02,,81029934275218,3.0,0,,,
Fix,GPS,40.8909624908,29.3773481157,179.0,0.0,3.0,,1774252627000,0.01,,81030922802371,3.0,0,,,
Fix,GPS,40.8909624908,29.3773481157,179.0,0.0,3.0,,1774252628000,0.03,,81031920996717,3.0,0,,,
Fix,GPS,40.8909624908,29.3773481157,179.0,0.0,2.5,,1774252629000,0.02,,81032932481293,3.0,0,,,
Fix,GPS,40.8909624908,29.3773481157,179.0,0.0,2.5,,1774252630000,0.02,,81033936018523,3.0,0,,,
Fix,GPS,40.8909624908,29.3773481157,179.0,0.0,2.5,,1774252631000,0.03,,81034936703945,2.0,0,,,
Fix,GPS,40.8909624908,29.3773481157,179.0,0.0,2.5,,1774252632000,0.02,,81035930260983,2.0,0,,,
Fix,GPS,40.8909624908,29.3773481157,179.0,0.0,2.5,,1774252633000,0.01,,81036924649098,2.0,0,,,
Fix,GPS,40.8909624908,29.3773481157,179.0,0.0,2.5,,1774252634000,0.01,,81037916341943,2.0,0,,,
Fix,GPS,40.8909624908,29.3773481157,179.0,0.0,2.5,,1774252635000,0.02,,81038918223866,3.0,0,,,
Fix,GPS,40.8909624908,29.3773481157,179.0,0.0,2.5,,1774252636000,0.02,,81039927700673,2.0,0,,,
Fix,GPS,40.8909624908,29.3773481157,179.0,0.0,2.5,,1774252637000,0.02,,81040917018633,2.0,0,,,
Fix,GPS,40.8909624908,29.3773481157,179.0,0.0,2.5,,1774252638000,0.03,,81041927862017,3.0,0,,,
Fix,GPS,40.8909624908,29.3773481157,179.0,0.0,2.5,,1774252639000,0.01,,81042929988093,3.0,0,,,
Fix,GPS,40.8909624908,29.3773481157,179.0,0.0,2.5,,1774252640000,0.02,,81043920588131,3.0,0,,,
Fix,GPS,40.8909624908,29.3773481157,179.0,0.0,2.5,,1774252641000,0.01,,81044921473592,3.0,0,,,
Fix,GPS,40.8909624908,29.3773481157,179.0,0.0,2.5,,1774252642000,0.03,,81045932273514,2.0,0,,,
Fix,GPS,40.8909624908,29.3773481157,179.0,0.0,2.5,,1774252643000,0.02,,81046935317744,3.0,0,,,
Fix,GPS,40.8909624908,29.3773481157,179.0,0.0,2.5,,1774252644000,0.02,,81047937272436,3.0,0,,,
Fix,GPS,40.8909624908,29.3773481157,179.0,0.0,2.5,,1774252645000,0.01,,81048925146281,2.0,0,,,
Fix,GPS,40.8909624908,29.3773481157,179.0,0.0,2.5,,1774252646000,0.01,,81049920903858,3.0,0,,,
Fix,GPS,40.8909624908,29.3773481157,179.0,0.0,2.5,,1774252647000,0.01,,81050921599126,3.0,0,,,
Fix,GPS,40.8909624908,29.3773481157,179.0,0.0,3.0,,1774252648000,0.01,,81051921385125,3.0,0,,,
Fix,GPS,40.8909624908,29.3773481157,179.0,0.0,2.5,,1774252649000,0.01,,81052929193894,3.0,0,,,
Fix,GPS,40.8909624908,29.3773481157,179.0,0.0,3.0,,1774252650000,0.02,,81053941337547,3.0,0,,,
Fix,GPS,40.8909624908,29.3773481157,179.0,0.0,3.0,,1774252651000,0.01,,81054920530508,3.0,0,,,
Fix,GPS,40.8909624908,29.3773481157,179.0,0.0,2.5,,1774252652000,0.02,,81055931019853,2.0,0,,,
Fix,GPS,40.8909624908,29.3773481157,179.0,0.0,2.5,,1774252653000,0.01,,81056920340468,2.0,0,,,
Fix,GPS,40.8909624908,29.3773481157,179.0,0.0,2.5,,1774252654000,0.01,,81057928910352,2.0,0,,,
Fix,GPS,40.8909624908,29.3773481157,179.0,0.0,2.5,,1774252655000,0.01,,81058924046774,2.0,0,,,
Fix,GPS,40.8909624908,29.3773481157,179.0,0.0,2.5,,1774252656000,0.03,,81059923294543,2.0,0,,,
Fix,GPS,40.8909624908,29.3773481157,179.0,0.0,2.5,,1774252657000,0.01,,81060938589081,3.0,0,,,
Fix,GPS,40.8909624908,29.3773481157,179.0,0.0,2.5,,1774252658000,0.01,,81061929137618,2.0,0,,,
Fix,GPS,40.8909624908,29.3773481157,179.0,0.0,2.5,,1774252659000,0.03,,81062930018541,2.0,0,,,
Fix,GPS,40.8909624908,29.3773481157,179.0,0.0,3.0,,1774252660000,0.03,,81063920285809,3.0,0,,,
Fix,GPS,40.8909624908,29.3773481157,179.0,0.0,2.5,,1774252661000,0.01,,81064928745270,3.0,0,,,
Fix,GPS,40.8909624908,29.3773481157,179.0,0.0,3.0,,1774252662000,0.01,,81065931626269,3.0,0,,,
Fix,GPS,40.8909624908,29.3773481157,179.0,0.0,2.5,,1774252663000,0.01,,81066936971346,2.0,0,,,
Fix,GPS,40.8909624908,29.3773481157,179.0,0.0,2.5,,1774252664000,0.02,,81067933701999,2.0,0,,,
Fix,GPS,40.8909624908,29.3773481157,179.0,0.0,2.5,,1774252665000,0.01,,81068930206959,3.0,0,,,
Fix,GPS,40.8909624908,29.3773481157,179.0,0.0,2.5,,1774252666000,0.01,,81069934565113,3.0,0,,,
Fix,GPS,40.8909624908,29.3773481157,179.0,0.0,2.5,,1774252667000,0.01,,81070923592920,2.0,0,,,
Fix,GPS,40.8909624908,29.3773481157,179.0,0.0,2.5,,1774252668000,0.01,,81071936914457,2.0,0,,,
Fix,GPS,40.8909624908,29.3773481157,179.0,0.0,2.5,,1774252669000,0.03,,81072926354226,2.0,0,,,
Fix,GPS,40.8909624908,29.3773481157,179.0,0.0,2.5,,1774252670000,0.03,,81073938981687,3.0,0,,,
Fix,GPS,40.8909624908,29.3773481157,179.0,0.0,2.5,,1774252671000,0.12,,81074926635840,3.0,0,,,
Fix,GPS,40.8909624908,29.3773481157,179.0,0.0,2.5,,1774252672000,0.01,,81075932945031,2.0,0,,,
Fix,GPS,40.8909624908,29.3773481157,179.0,0.0,2.5,,1774252673000,0.01,,81076919853800,2.0,0,,,
Fix,GPS,40.8909624908,29.3773481157,179.0,0.0,3.0,,1774252674000,0.03,,81077917658992,3.0,0,,,
Fix,GPS,40.8909624908,29.3773481157,179.0,0.0,3.0,,1774252675000,0.02,,81078930922798,3.0,0,,,
Fix,GPS,40.8909624908,29.3773481157,179.0,0.0,3.0,,1774252676000,0.01,,81079914521375,3.0,0,,,
Fix,GPS,40.8909624908,29.3773481157,179.0,0.0,3.0,,1774252677000,0.03,,81080930137797,3.0,0,,,
Fix,GPS,40.8909624908,29.3773481157,179.0,0.0,2.5,,1774252678000,0.02,,81081924390835,3.0,0,,,
Fix,GPS,40.8909624908,29.3773481157,179.0,0.0,2.5,,1774252679000,0.03,,81082927573757,2.0,0,,,
Fix,GPS,40.8909624908,29.3773481157,179.0,0.0,2.5,,1774252680000,0.01,,81083931783141,2.0,0,,,
Fix,GPS,40.8909624908,29.3773481157,179.0,0.0,3.0,,1774252681000,0.01,,81084925458717,3.0,0,,,
Fix,GPS,40.8909624908,29.3773481157,179.0,0.0,2.5,,1774252682000,0.03,,81085929172717,2.0,0,,,
Fix,GPS,40.8909624908,29.3773481157,179.0,0.0,2.5,,1774252683000,0.04,,81086920034177,2.0,0,,,
Fix,GPS,40.8909624908,29.3773481157,179.0,0.0,2.5,,1774252684000,0.02,,81087933903100,2.0,0,,,
Fix,GPS,40.8909624908,29.3773481157,179.0,0.0,2.5,,1774252685000,0.02,,81088938451214,2.0,0,,,
Fix,GPS,40.8909624908,29.3773481157,179.0,0.0,2.5,,1774252686076,0.02,,81090014525483,2.0,0,,,
Fix,GPS,40.8909624908,29.3773481157,179.0,0.0,2.5,,1774252687086,0.02,,81091024751636,2.0,0,,,
Fix,GPS,40.8909624908,29.3773481157,179.0,0.0,2.5,,1774252688099,0.02,,81092038237443,2.0,0,,,
Fix,GPS,40.8909624908,29.3773481157,179.0,0.0,2.5,,1774252689112,0.02,,81093052009404,2.0,0,,,
Fix,GPS,40.8909624908,29.3773481157,179.0,0.0,2.5,,1774252690125,0.02,,81094065537711,2.0,0,,,
Fix,GPS,40.8909624908,29.3773481157,179.0,0.0,2.5,,1774252691139,0.02,,81095080317133,2.0,0,,,
Fix,GPS,40.8909624908,29.3773481157,179.0,0.0,2.5,,1774252692151,0.02,,81096093334440,2.0,0,,,
Fix,GPS,40.8909624908,29.3773481157,179.0,0.0,2.5,,1774252693163,0.02,,81097105683401,2.0,0,,,
Fix,GPS,40.8909624908,29.3773481157,179.0,0.0,2.5,,1774252694173,0.02,,81098116488477,2.0,0,,,
Fix,GPS,40.8909624908,29.3773481157,179.0,0.0,2.5,,1774252695186,0.02,,81099129786822,2.0,0,,,
Fix,GPS,40.8909624908,29.3773481157,179.0,0.0,2.5,,1774252696198,0.02,,81100142875514,2.0,0,,,
Fix,GPS,40.8909624908,29.3773481157,179.0,0.0,2.5,,1774252697212,0.02,,81101157308283,2.0,0,,,
Fix,GPS,40.8909624908,29.3773481157,179.0,0.0,2.5,,1774252698227,0.02,,81102172979936,2.0,0,,,
Fix,GPS,40.8909624908,29.3773481157,179.0,0.0,2.5,,1774252699244,0.02,,81103190172820,2.0,0,,,
Fix,GPS,40.8909624908,29.3773481157,179.0,0.0,2.5,,1774252700258,0.02,,81104204925550,2.0,0,,,
Fix,GPS,40.8909624908,29.3773481157,179.0,0.0,2.5,,1774252701270,0.02,,81105217788703,2.0,0,,,
Fix,GPS,40.8909624908,29.3773481157,179.0,0.0,2.5,,1774252702281,0.02,,81106229587394,2.0,0,,,
Fix,GPS,40.8909624908,29.3773481157,179.0,0.0,2.5,,1774252703289,0.02,,81107238100047,2.0,0,,,
Fix,GPS,40.8909624908,29.3773481157,179.0,0.0,2.5,,1774252704296,0.02,,81108245349893,2.0,0,,,
Fix,GPS,40.8909624908,29.3773481157,179.0,0.0,2.5,,1774252705306,0.02,,81109255601931,2.0,0,,,
Fix,GPS,40.8909624908,29.3773481157,179.0,0.0,2.5,,1774252706321,0.02,,81110270953661,2.0,0,,,
Fix,GPS,40.8909624908,29.3773481157,179.0,0.0,2.5,,1774252707332,0.02,,81111282194545,2.0,0,,,
Fix,GPS,40.8909624908,29.3773481157,179.0,0.0,2.5,,1774252708345,0.02,,81112295714621,2.0,0,,,
Fix,GPS,40.8909624908,29.3773481157,179.0,0.0,2.5,,1774252709353,0.02,,81113303830005,2.0,0,,,
Fix,GPS,40.8909624908,29.3773481157,179.0,0.0,2.5,,1774252710358,0.02,,81114309278427,2.0,0,,,
Fix,GPS,40.8909624908,29.3773481157,179.0,0.0,2.5,,1774252711361,0.02,,81115312575311,2.0,0,,,
Fix,GPS,40.8909624908,29.3773481157,179.0,0.0,2.5,,1774252712375,0.02,,81116327311887,2.0,0,,,
Fix,GPS,40.8909624908,29.3773481157,179.0,0.0,2.5,,1774252713387,0.02,,81117339681656,2.0,0,,,
Fix,GPS,40.8909624908,29.3773481157,179.0,0.0,2.5,,1774252714397,0.02,,81118350125809,2.0,0,,,
Fix,GPS,40.8909624908,29.3773481157,179.0,0.0,2.5,,1774252715413,0.02,,81119367010846,2.0,0,,,
Fix,GPS,40.8909624908,29.3773481157,179.0,0.0,2.5,,1774252716423,0.02,,81120377429230,2.0,0,,,
Fix,GPS,40.8909624908,29.3773481157,179.0,0.0,2.5,,1774252717438,0.02,,81121392786191,2.0,0,,,
Fix,GPS,40.8909624908,29.3773481157,179.0,0.0,2.5,,1774252718452,0.02,,81122407090229,2.0,0,,,
Fix,GPS,40.8909624908,29.3773481157,179.0,0.0,2.5,,1774252719466,0.02,,81123421850882,2.0,0,,,
Fix,GPS,40.8909624908,29.3773481157,179.0,0.0,2.5,,1774252720476,0.02,,81124432680958,2.0,0,,,
Fix,GPS,40.8909624908,29.3773481157,179.0,0.0,2.5,,1774252721488,0.02,,81125445394304,2.0,0,,,
Fix,GPS,40.8909624908,29.3773481157,179.0,0.0,2.5,,1774252722500,0.02,,81126458076841,2.0,0,,,
Fix,GPS,40.8909624908,29.3773481157,179.0,0.0,2.5,,1774252723512,0.02,,81127470416533,2.0,0,,,
Fix,GPS,40.8909624908,29.3773481157,179.0,0.0,2.5,,1774252724526,0.02,,81128485353109,2.0,0,,,
Fix,GPS,40.8909624908,29.3773481157,179.0,0.0,2.5,,1774252725540,0.02,,81129499600685,2.0,0,,,
Fix,GPS,40.8909624908,29.3773481157,179.0,0.0,2.5,,1774252726554,0.02,,81130514237877,2.0,0,,,
Fix,GPS,40.8909624908,29.3773481157,179.0,0.0,2.5,,1774252727568,0.02,,81131528536645,2.0,0,,,
Fix,GPS,40.8909624908,29.3773481157,179.0,0.0,2.5,,1774252728581,0.02,,81132542220299,2.0,0,,,
Fix,GPS,40.8909624908,29.3773481157,179.0,0.0,2.5,,1774252729589,0.02,,81133551125490,2.0,0,,,
Fix,GPS,40.8909624908,29.3773481157,179.0,0.0,2.5,,1774252730597,0.02,,81134559522297,2.0,0,,,
Fix,GPS,40.8909624908,29.3773481157,179.0,0.0,2.5,,1774252731610,0.02,,81135573327604,2.0,0,,,
Fix,GPS,40.8909624908,29.3773481157,179.0,0.0,2.5,,1774252732619,0.02,,81136583278142,2.0,0,,,
Fix,GPS,40.8909624908,29.3773481157,179.0,0.0,2.5,,1774252733633,0.02,,81137597857757,2.0,0,,,
Fix,GPS,40.8909624908,29.3773481157,179.0,0.0,2.5,,1774252734644,0.02,,81138609353833,2.0,0,,,
Fix,GPS,40.8909624908,29.3773481157,179.0,0.0,2.5,,1774252735654,0.02,,81139620060678,2.0,0,,,
Fix,GPS,40.8909624908,29.3773481157,179.0,0.0,2.5,,1774252736668,0.02,,81140634352600,2.0,0,,,
Fix,GPS,40.8909624908,29.3773481157,179.0,0.0,2.5,,1774252737681,0.02,,81141647463907,2.0,0,,,
Fix,GPS,40.8909624908,29.3773481157,179.0,0.0,2.5,,1774252738694,0.02,,81142660653522,2.0,0,,,
Fix,GPS,40.8909624908,29.3773481157,179.0,0.0,2.5,,1774252739704,0.02,,81143671515252,2.0,0,,,
Fix,GPS,40.8909624908,29.3773481157,179.0,0.0,2.5,,1774252740717,0.02,,81144685167521,2.0,0,,,
Fix,GPS,40.8909624908,29.3773481157,179.0,0.0,2.5,,1774252741731,0.02,,81145699919058,2.0,0,,,
Fix,GPS,40.8909624908,29.3773481157,179.0,0.0,2.5,,1774252742748,0.02,,81146717022712,2.0,0,,,
Fix,GPS,40.8909624908,29.3773481157,179.0,0.0,2.5,,1774252743760,0.02,,81147729420134,2.0,0,,,
Fix,GPS,40.8909624908,29.3773481157,179.0,0.0,2.5,,1774252744771,0.02,,81148740533172,2.0,0,,,
Fix,GPS,40.8909624908,29.3773481157,179.0,0.0,2.5,,1774252745783,0.02,,81149752660517,2.0,0,,,
Fix,GPS,40.8909624908,29.3773481157,179.0,0.0,2.5,,1774252746794,0.02,,81150764195324,2.0,0,,,
Fix,GPS,40.8909624908,29.3773481157,179.0,0.0,2.5,,1774252747807,0.02,,81151777328593,2.0,0,,,
Fix,GPS,40.8909624908,29.3773481157,179.0,0.0,2.5,,1774252748821,0.02,,81152791748399,2.0,0,,,
Fix,GPS,40.8909624908,29.3773481157,179.0,0.0,2.5,,1774252749842,0.02,,81153813083514,2.0,0,,,
Fix,GPS,40.8909624908,29.3773481157,179.0,0.0,2.5,,1774252750857,0.02,,81154828791167,2.0,0,,,
Fix,GPS,40.8909624908,29.3773481157,179.0,0.0,2.5,,1774252751869,0.02,,81155841212282,2.0,0,,,
Fix,GPS,40.8909624908,29.3773481157,179.0,0.0,2.5,,1774252752879,0.02,,81156851993166,2.0,0,,,
Fix,GPS,40.8909624908,29.3773481157,179.0,0.0,2.5,,1774252753894,0.02,,81157867653934,2.0,0,,,
Fix,GPS,40.8909624908,29.3773481157,179.0,0.0,2.5,,1774252754906,0.02,,81158880156203,2.0,0,,,
Fix,GPS,40.8909624908,29.3773481157,179.0,0.0,2.5,,1774252755917,0.02,,81159891438202,2.0,0,,,
Fix,GPS,40.8909624908,29.3773481157,179.0,0.0,2.5,,1774252756928,0.02,,81160902971201,2.0,0,,,
Fix,GPS,40.8909624908,29.3773481157,179.0,0.0,2.5,,1774252757941,0.02,,81161916972278,2.0,0,,,
Fix,GPS,40.8909624908,29.3773481157,179.0,0.0,2.5,,1774252758953,0.02,,81162929913277,2.0,0,,,
Fix,GPS,40.8909624908,29.3773481157,179.0,0.0,2.5,,1774252759965,0.02,,81163942333776,2.0,0,,,
Fix,GPS,40.8909624908,29.3773481157,179.0,0.0,2.5,,1774252760985,0.02,,81164962509698,2.0,0,,,
Fix,GPS,40.8909624908,29.3773481157,179.0,0.0,2.5,,1774252762002,0.02,,81165980391044,2.0,0,,,
Fix,GPS,40.8909624908,29.3773481157,179.0,0.0,2.5,,1774252763018,0.02,,81166997361312,2.0,0,,,
Fix,GPS,40.8909624908,29.3773481157,179.0,0.0,2.5,,1774252764033,0.02,,81168012633735,2.0,0,,,
Fix,GPS,40.8909624908,29.3773481157,179.0,0.0,2.5,,1774252765048,0.02,,81169028077119,2.0,0,,,
Fix,GPS,40.8909624908,29.3773481157,179.0,0.0,2.5,,1774252766066,0.02,,81170046325656,2.0,0,,,
Fix,GPS,40.8909624908,29.3773481157,179.0,0.0,2.5,,1774252767084,0.02,,81171064773771,2.0,0,,,
Fix,GPS,40.8909624908,29.3773481157,179.0,0.0,2.5,,1774252768100,0.02,,81172081367309,2.0,0,,,
Fix,GPS,40.8909624908,29.3773481157,179.0,0.0,2.5,,1774252769118,0.02,,81173100345308,2.0,0,,,
Fix,GPS,40.8909624908,29.3773481157,179.0,0.0,2.5,,1774252770133,0.02,,81174115574615,2.0,0,,,
Fix,GPS,40.8909624908,29.3773481157,179.0,0.0,2.5,,1774252771150,0.02,,81175132659730,2.0,0,,,
Fix,GPS,40.8909624908,29.3773481157,179.0,0.0,2.5,,1774252772165,0.02,,81176148076421,2.0,0,,,
Fix,GPS,40.8909624908,29.3773481157,179.0,0.0,2.5,,1774252773176,0.02,,81177159254921,2.0,0,,,
Fix,GPS,40.8909624908,29.3773481157,179.0,0.0,2.5,,1774252774186,0.02,,81178170265343,2.0,0,,,
Fix,GPS,40.8909624908,29.3773481157,179.0,0.0,2.5,,1774252775199,0.02,,81179183700842,2.0,0,,,
Fix,GPS,40.8909624908,29.3773481157,179.0,0.0,2.5,,1774252776217,0.02,,81180202645111,2.0,0,,,
Fix,GPS,40.8909624908,29.3773481157,179.0,0.0,2.5,,1774252777231,0.02,,81181217316841,2.0,0,,,
Fix,GPS,40.8909624908,29.3773481157,179.0,0.0,2.5,,1774252778243,0.02,,81182230265186,2.0,0,,,
Fix,GPS,40.8909624908,29.3773481157,179.0,0.0,2.5,,1774252779264,0.02,,81183251290839,2.0,0,,,
Fix,GPS,40.8909624908,29.3773481157,179.0,0.0,2.5,,1774252780276,0.02,,81184263825992,2.0,0,,,
Fix,GPS,40.8909624908,29.3773481157,179.0,0.0,2.5,,1774252781287,0.02,,81185275602222,2.0,0,,,
Fix,GPS,40.8909624908,29.3773481157,179.0,0.0,2.5,,1774252782303,0.02,,81186291949452,2.0,0,,,
Fix,GPS,40.8909624908,29.3773481157,179.0,0.0,2.5,,1774252783319,0.02,,81187308653413,2.0,0,,,
Fix,GPS,40.8909624908,29.3773481157,179.0,0.0,2.5,,1774252784338,0.02,,81188328214874,2.0,0,,,
Fix,GPS,40.8909624908,29.3773481157,179.0,0.0,2.5,,1774252785353,0.02,,81189344091758,2.0,0,,,
Fix,GPS,40.8909624908,29.3773481157,179.0,0.0,2.5,,1774252786364,0.02,,81190355588450,2.0,0,,,
Fix,GPS,40.8909624908,29.3773481157,179.0,0.0,2.5,,1774252787377,0.02,,81191368688795,2.0,0,,,
Fix,GPS,40.8909624908,29.3773481157,179.0,0.0,2.5,,1774252788389,0.02,,81192381370179,2.0,0,,,
Fix,GPS,40.8909624908,29.3773481157,179.0,0.0,2.5,,1774252789401,0.02,,81193393609986,2.0,0,,,
Fix,GPS,40.8909624908,29.3773481157,179.0,0.0,2.5,,1774252790417,0.02,,81194409815485,2.0,0,,,
Fix,GPS,40.8909624908,29.3773481157,179.0,0.0,2.5,,1774252791429,0.02,,81195422516023,2.0,0,,,
Fix,GPS,40.8909624908,29.3773481157,179.0,0.0,2.5,,1774252792442,0.02,,81196436246176,2.0,0,,,
Fix,GPS,40.8909624908,29.3773481157,179.0,0.0,2.5,,1774252793459,0.02,,81197454031098,2.0,0,,,
Fix,GPS,40.8909624908,29.3773481157,179.0,0.0,2.5,,1774252794473,0.02,,81198468593251,2.0,0,,,
Fix,GPS,40.8909624908,29.3773481157,179.0,0.0,2.5,,1774252795484,0.02,,81199480446751,2.0,0,,,
Fix,GPS,40.8909624908,29.3773481157,179.0,0.0,2.5,,1774252796495,0.02,,81200491551212,2.0,0,,,
Fix,GPS,40.8909624908,29.3773481157,179.0,0.0,2.5,,1774252797501,0.02,,81201498453865,2.0,0,,,
Fix,GPS,40.8909624908,29.3773481157,179.0,0.0,2.5,,1774252798510,0.02,,81202507672787,2.0,0,,,
Fix,GPS,40.8909624908,29.3773481157,179.0,0.0,2.5,,1774252799526,0.02,,81203524011094,2.0,0,,,
Fix,GPS,40.8909624908,29.3773481157,179.0,0.0,2.5,,1774252800537,0.02,,81204535059362,2.0,0,,,
Fix,GPS,40.8909624908,29.3773481157,179.0,0.0,2.5,,1774252801550,0.02,,81205548707631,2.0,0,,,
Fix,GPS,40.8909624908,29.3773481157,179.0,0.0,2.5,,1774252802561,0.02,,81206560128015,2.0,0,,,
Fix,GPS,40.8909624908,29.3773481157,179.0,0.0,2.5,,1774252803571,0.02,,81207570494860,2.0,0,,,
Fix,GPS,40.8909624908,29.3773481157,179.0,0.0,2.5,,1774252804580,0.02,,81208579786706,2.0,0,,,
Fix,GPS,40.8909624908,29.3773481157,179.0,0.0,2.5,,1774252805590,0.02,,81209590275090,2.0,0,,,
Fix,GPS,40.8909624908,29.3773481157,179.0,0.0,2.5,,1774252806602,0.02,,81210603124320,2.0,0,,,
Fix,GPS,40.8909624908,29.3773481157,179.0,0.0,2.5,,1774252807615,0.02,,81211616144588,2.0,0,,,
Fix,GPS,40.8909624908,29.3773481157,179.0,0.0,2.5,,1774252808628,0.02,,81212629889395,2.0,0,,,
Fix,GPS,40.8909624908,29.3773481157,179.0,0.0,2.5,,1774252809638,0.02,,81213640852664,2.0,0,,,
Fix,GPS,40.8909624908,29.3773481157,179.0,0.0,2.5,,1774252810648,0.02,,81214651143740,2.0,0,,,
Fix,GPS,40.8909624908,29.3773481157,179.0,0.0,2.5,,1774252811659,0.02,,81215662920893,2.0,0,,,
Fix,GPS,40.8909624908,29.3773481157,179.0,0.0,2.5,,1774252812667,0.02,,81216671544161,2.0,0,,,
Fix,GPS,40.8909624908,29.3773481157,179.0,0.0,2.5,,1774252813684,0.02,,81217689547122,2.0,0,,,
Fix,GPS,40.8909624908,29.3773481157,179.0,0.0,2.5,,1774252814696,0.02,,81218702353506,2.0,0,,,
Fix,GPS,40.8909624908,29.3773481157,179.0,0.0,2.5,,1774252815710,0.02,,81219716986890,2.0,0,,,
Fix,GPS,40.8909624908,29.3773481157,179.0,0.0,2.5,,1774252816719,0.02,,81220726284466,2.0,0,,,
Fix,GPS,40.8909624908,29.3773481157,179.0,0.0,2.5,,1774252817732,0.02,,81221740139042,2.0,0,,,
Fix,GPS,40.8909624908,29.3773481157,179.0,0.0,2.5,,1774252818744,0.02,,81222752952042,2.0,0,,,
Fix,GPS,40.8909624908,29.3773481157,179.0,0.0,2.5,,1774252819756,0.02,,81223765265003,2.0,0,,,
Fix,GPS,40.8909624908,29.3773481157,179.0,0.0,2.5,,1774252820767,0.02,,81224776951886,2.0,0,,,
Fix,GPS,40.8909624908,29.3773481157,179.0,0.0,2.5,,1774252821783,0.02,,81225793142501,2.0,0,,,
Fix,GPS,40.8909624908,29.3773481157,179.0,0.0,2.5,,1774252822798,0.02,,81226808577193,2.0,0,,,
Fix,GPS,40.8909624908,29.3773481157,179.0,0.0,2.5,,1774252823811,0.02,,81227822144000,2.0,0,,,
Fix,GPS,40.8909624908,29.3773481157,179.0,0.0,2.5,,1774252824836,0.02,,81228847715384,2.0,0,,,
Fix,GPS,40.8909624908,29.3773481157,179.0,0.0,2.5,,1774252825849,0.02,,81229861510691,2.0,0,,,
Fix,GPS,40.8909624908,29.3773481157,179.0,0.0,2.5,,1774252826864,0.02,,81230876961151,2.0,0,,,
Fix,GPS,40.8909624908,29.3773481157,179.0,0.0,2.5,,1774252827878,0.02,,81231891701497,2.0,0,,,
Fix,GPS,40.8909624908,29.3773481157,179.0,0.0,2.5,,1774252828887,0.02,,81232901697650,2.0,0,,,
Fix,GPS,40.8909624908,29.3773481157,179.0,0.0,2.5,,1774252829898,0.02,,81233912878303,2.0,0,,,
Fix,GPS,40.8909624908,29.3773481157,179.0,0.0,2.5,,1774252830914,0.02,,81234928973610,2.0,0,,,
Fix,GPS,40.8909624908,29.3773481157,179.0,0.0,2.5,,1774252831929,0.02,,81235944510032,2.0,0,,,
Fix,GPS,40.8909624908,29.3773481157,179.0,0.0,2.5,,1774252832946,0.02,,81236961573070,2.0,0,,,
Fix,GPS,40.8909624908,29.3773481157,179.0,0.0,2.5,,1774252833958,0.02,,81237974457377,2.0,0,,,
Fix,GPS,40.8909624908,29.3773481157,179.0,0.0,2.5,,1774252834973,0.02,,81238989549646,2.0,0,,,
Fix,GPS,40.8909624908,29.3773481157,179.0,0.0,2.5,,1774252835983,0.02,,81240000021722,2.0,0,,,
Fix,GPS,40.8909624908,29.3773481157,179.0,0.0,2.5,,1774252836997,0.02,,81241014529836,2.0,0,,,
Fix,GPS,40.8909624908,29.3773481157,179.0,0.0,2.5,,1774252838009,0.02,,81242027361759,2.0,0,,,
Fix,GPS,40.8909624908,29.3773481157,179.0,0.0,2.5,,1774252839020,0.02,,81243039364181,2.0,0,,,
Fix,GPS,40.8909624908,29.3773481157,179.0,0.0,2.5,,1774252840031,0.02,,81244051200065,2.0,0,,,
Fix,GPS,40.8909624908,29.3773481157,179.0,0.0,2.5,,1774252841043,0.02,,81245063850641,2.0,0,,,
Fix,GPS,40.8909624908,29.3773481157,179.0,0.0,2.5,,1774252842058,0.02,,81246079173564,2.0,0,,,
Fix,GPS,40.8909624908,29.3773481157,179.0,0.0,2.5,,1774252843071,0.02,,81247092340332,2.0,0,,,
Fix,GPS,40.8909624908,29.3773481157,179.0,0.0,2.5,,1774252844088,0.02,,81248109844601,2.0,0,,,
Fix,GPS,40.8909624908,29.3773481157,179.0,0.0,2.5,,1774252845100,0.02,,81249122169523,2.0,0,,,
Fix,GPS,40.8909624908,29.3773481157,179.0,0.0,2.5,,1774252846113,0.02,,81250135372984,2.0,0,,,
Fix,GPS,40.8909624908,29.3773481157,179.0,0.0,2.5,,1774252847127,0.02,,81251149774868,2.0,0,,,
Fix,GPS,40.8909624908,29.3773481157,179.0,0.0,2.5,,1774252848140,0.02,,81252163468444,2.0,0,,,
Fix,GPS,40.8909624908,29.3773481157,179.0,0.0,2.5,,1774252849154,0.02,,81253177683712,2.0,0,,,
Fix,GPS,40.8909624908,29.3773481157,179.0,0.0,2.5,,1774252850166,0.02,,81254189851404,2.0,0,,,
Fix,GPS,40.8909624908,29.3773481157,179.0,0.0,2.5,,1774252851185,0.02,,81255209581442,2.0,0,,,
Fix,GPS,40.8909624908,29.3773481157,179.0,0.0,2.5,,1774252852199,0.02,,81256224570210,2.0,0,,,
Fix,GPS,40.8909624908,29.3773481157,179.0,0.0,2.5,,1774252853215,0.02,,81257241440940,2.0,0,,,
Fix,GPS,40.8909624908,29.3773481157,179.0,0.0,2.5,,1774252854230,0.02,,81258257209170,2.0,0,,,
Fix,GPS,40.8909624908,29.3773481157,179.0,0.0,2.5,,1774252855245,0.02,,81259272782439,2.0,0,,,
Fix,GPS,40.8909624908,29.3773481157,179.0,0.0,2.5,,1774252856257,0.02,,81260285384938,2.0,0,,,
Fix,GPS,40.8909624908,29.3773481157,179.0,0.0,2.5,,1774252857270,0.02,,81261299346091,2.0,0,,,
Fix,GPS,40.8909624908,29.3773481157,179.0,0.0,2.5,,1774252858282,0.02,,81262312069706,2.0,0,,,
Fix,GPS,40.8909624908,29.3773481157,179.0,0.0,2.5,,1774252859296,0.02,,81263326568667,2.0,0,,,
Fix,GPS,40.8909624908,29.3773481157,179.0,0.0,2.5,,1774252860307,0.02,,81264338478935,2.0,0,,,
Fix,GPS,40.8909624908,29.3773481157,179.0,0.0,2.5,,1774252861321,0.02,,81265352713127,2.0,0,,,
Fix,GPS,40.8909624908,29.3773481157,179.0,0.0,2.5,,1774252862331,0.02,,81266363112049,2.0,0,,,
Fix,GPS,40.8909624908,29.3773481157,179.0,0.0,2.5,,1774252863339,0.02,,81267371868587,2.0,0,,,
Fix,GPS,40.8909624908,29.3773481157,179.0,0.0,2.5,,1774252864349,0.02,,81268382361894,2.0,0,,,
Fix,GPS,40.8909624908,29.3773481157,179.0,0.0,2.5,,1774252865365,0.02,,81269399099624,2.0,0,,,
Fix,GPS,40.8909624908,29.3773481157,179.0,0.0,2.5,,1774252866371,0.02,,81270405368200,2.0,0,,,
Fix,GPS,40.8909624908,29.3773481157,179.0,0.0,2.5,,1774252867381,0.02,,81271415458930,2.0,0,,,
Fix,GPS,40.8908285480,29.3771816511,189.0,0.16,21.5,281.8,1774252870976,0.97,180.0,81274909865658,20.0,0,,,
Fix,GPS,40.8908817312,29.3773981556,193.0,0.26,43.5,116.0,1774252872029,0.53,180.0,81275925828158,44.0,0,,,
Fix,GPS,40.8908457309,29.3772143405,210.0,0.049999997,29.0,0.0,1774252874000,0.54,180.0,81277910433925,74.0,0,,,
Fix,GPS,40.8908818988,29.3773857504,178.0,0.12,11.5,0.0,1774252875000,0.36,180.0,81278926896694,16.0,0,,,
Fix,GPS,40.8908989979,29.3773759436,181.0,0.04,10.0,0.0,1774252876000,0.15,180.0,81279930931462,13.0,0,,,
Fix,GPS,40.8909094334,29.3773649633,181.0,0.07,8.0,0.0,1774252877000,0.12,180.0,81280914335154,10.0,0,,,
Fix,GPS,40.8909044042,29.3773730937,180.0,0.04,7.0,0.0,1774252878000,0.12,180.0,81281901195692,8.0,0,,,
Fix,GPS,40.8909049490,29.3773765303,179.0,0.02,7.0,0.0,1774252879000,0.11,180.0,81282905842730,8.0,0,,,
Fix,GPS,40.8909038175,29.3773740996,179.0,0.049999997,6.0,0.0,1774252880000,0.12,180.0,81283911427113,7.0,0,,,
Fix,GPS,40.8909008419,29.3773755245,179.0,0.03,5.5,0.0,1774252881000,0.12,180.0,81284919747382,7.0,0,,,
Fix,GPS,40.8908971120,29.3773775361,179.0,0.02,5.5,0.0,1774252882000,0.12,180.0,81285915170343,6.0,0,,,
Fix,GPS,40.8908958547,29.3773800507,179.0,0.01,5.0,0.0,1774252883000,0.12,180.0,81286923900919,6.0,0,,,
Fix,GPS,40.8909019735,29.3773753569,180.0,0.0,5.0,,1774252884000,0.12,,81287933353880,6.0,0,,,
Fix,GPS,40.8909036079,29.3773741834,181.0,0.01,5.0,0.0,1774252885000,0.12,180.0,81288938427994,6.0,0,,,
Fix,GPS,40.8909097267,29.3773663044,183.0,0.049999997,4.5,0.0,1774252886000,0.11,180.0,81289937206648,5.0,0,,,
Fix,GPS,40.8909125347,29.3773644604,185.0,0.099999994,4.5,0.0,1774252887000,0.11,180.0,81290922236531,5.0,0,,,
Fix,GPS,40.8909124928,29.3773638736,185.0,0.0,4.0,,1774252888000,0.01,,81291936684415,5.0,0,,,
Fix,GPS,40.8909124928,29.3773638736,185.0,0.0,4.5,,1774252889000,0.02,,81292941767145,5.0,0,,,
Fix,GPS,40.8909124928,29.3773638736,185.0,0.0,4.5,,1774252890000,0.01,,81293938550914,5.0,0,,,
Fix,GPS,40.8909124928,29.3773638736,185.0,0.0,4.5,,1774252891000,0.02,,81294941203875,5.0,0,,,
Fix,GPS,40.8909124928,29.3773638736,185.0,0.0,4.5,,1774252892000,0.02,,81295923606643,5.0,0,,,
Fix,GPS,40.8909124928,29.3773638736,185.0,0.0,4.5,,1774252893000,0.01,,81296947972219,5.0,0,,,
Fix,GPS,40.8909124928,29.3773638736,185.0,0.0,4.5,,1774252894000,0.02,,81297927146373,5.0,0,,,
Fix,GPS,40.8909124928,29.3773638736,185.0,0.0,4.5,,1774252895000,0.02,,81298945925180,5.0,0,,,
Fix,GPS,40.8909124928,29.3773638736,185.0,0.0,4.5,,1774252896000,0.03,,81299930213871,5.0,0,,,
Fix,GPS,40.8909124928,29.3773638736,185.0,0.0,4.0,,1774252897000,0.01,,81300927345870,5.0,0,,,
Fix,GPS,40.8909124928,29.3773638736,185.0,0.0,4.5,,1774252898000,0.1,,81301955310370,5.0,0,,,
Fix,GPS,40.8909219224,29.3773572519,187.0,0.01,4.0,0.0,1774252899000,0.11,180.0,81302923988369,5.0,0,,,
Fix,GPS,40.8909217129,29.3773571681,187.0,0.02,4.0,0.0,1774252900000,0.11,180.0,81303941251599,4.0,0,,,
Fix,GPS,40.8909203717,29.3773584254,186.0,0.01,4.0,0.0,1774252901000,0.11,180.0,81304940343368,4.0,0,,,
Fix,GPS,40.8909205394,29.3773584254,187.0,0.0,4.0,,1774252902000,0.03,,81305948275790,4.0,0,,,
Fix,GPS,40.8909205394,29.3773584254,187.0,0.0,4.0,,1774252903000,0.02,,81306952681366,4.0,0,,,
Fix,GPS,40.8909205394,29.3773584254,187.0,0.0,4.0,,1774252904000,0.02,,81307939674904,4.0,0,,,
Fix,GPS,40.8909205394,29.3773584254,187.0,0.0,4.0,,1774252905000,0.02,,81308936247019,4.0,0,,,
Fix,GPS,40.8909205394,29.3773584254,187.0,0.0,4.0,,1774252906000,0.02,,81309937040441,4.0,0,,,
Fix,GPS,40.8909205394,29.3773584254,187.0,0.0,4.0,,1774252907000,0.02,,81310940409286,4.0,0,,,
Fix,GPS,40.8909205394,29.3773584254,187.0,0.0,4.0,,1774252908000,0.02,,81311950766324,4.0,0,,,
Fix,GPS,40.8909205394,29.3773584254,187.0,0.0,4.0,,1774252909000,0.02,,81312939409323,5.0,0,,,
Fix,GPS,40.8909205394,29.3773584254,187.0,0.0,4.0,,1774252910000,0.02,,81313937980515,5.0,0,,,
Fix,GPS,40.8909205394,29.3773584254,187.0,0.0,4.0,,1774252911000,0.02,,81314938541360,5.0,0,,,
Fix,GPS,40.8909205394,29.3773584254,187.0,0.0,4.0,,1774252912000,0.02,,81315944402552,5.0,0,,,
Fix,GPS,40.8909205394,29.3773584254,187.0,0.0,4.0,,1774252913000,0.01,,81316937055551,4.0,0,,,
Fix,GPS,40.8909205394,29.3773584254,187.0,0.0,3.5,,1774252914000,0.02,,81317942567512,4.0,0,,,
Fix,GPS,40.8909205394,29.3773584254,187.0,0.0,3.5,,1774252915000,0.02,,81318928579011,4.0,0,,,
Fix,GPS,40.8909205394,29.3773584254,187.0,0.0,3.5,,1774252916000,0.02,,81319951944934,4.0,0,,,
Fix,GPS,40.8909205394,29.3773584254,187.0,0.0,3.5,,1774252917000,0.02,,81320937958895,4.0,0,,,
Fix,GPS,40.8909205394,29.3773584254,187.0,0.0,3.5,,1774252918000,0.02,,81321929957163,4.0,0,,,
Fix,GPS,40.8909205394,29.3773584254,187.0,0.0,3.5,,1774252919000,0.02,,81322928999009,4.0,0,,,
Fix,GPS,40.8909205394,29.3773584254,187.0,0.0,3.5,,1774252920000,0.02,,81323943904239,4.0,0,,,
Fix,GPS,40.8909205394,29.3773584254,187.0,0.0,3.5,,1774252921000,0.02,,81324936198353,4.0,0,,,
Fix,GPS,40.8909205394,29.3773584254,187.0,0.0,4.0,,1774252922000,0.01,,81325939267968,4.0,0,,,
Fix,GPS,40.8909205394,29.3773584254,187.0,0.0,4.0,,1774252923000,0.02,,81326932502198,4.0,0,,,
Fix,GPS,40.8909205394,29.3773584254,187.0,0.0,4.0,,1774252924000,0.02,,81327942160428,4.0,0,,,
Fix,GPS,40.8909205394,29.3773584254,187.0,0.0,4.0,,1774252925000,0.01,,81328931685966,4.0,0,,,
Fix,GPS,40.8909205394,29.3773584254,187.0,0.0,4.0,,1774252926000,0.02,,81329924800119,4.0,0,,,
Fix,GPS,40.8909205394,29.3773584254,187.0,0.0,3.5,,1774252927000,0.02,,81330935612618,4.0,0,,,
Fix,GPS,40.8909205394,29.3773584254,187.0,0.0,3.5,,1774252928000,0.02,,81331934155925,4.0,0,,,
Fix,GPS,40.8909205394,29.3773584254,187.0,0.0,4.0,,1774252929000,0.01,,81332914793771,4.0,0,,,
Fix,GPS,40.8909205394,29.3773584254,187.0,0.0,3.5,,1774252930000,0.02,,81333915798847,4.0,0,,,
Fix,GPS,40.8909205394,29.3773584254,187.0,0.0,4.0,,1774252931000,0.01,,81334929119346,4.0,0,,,
Fix,GPS,40.8909205394,29.3773584254,187.0,0.0,4.0,,1774252932000,0.02,,81335940801499,4.0,0,,,
Fix,GPS,40.8909205394,29.3773584254,187.0,0.0,4.0,,1774252933000,0.01,,81336942878652,5.0,0,,,
Fix,GPS,40.8909205394,29.3773584254,187.0,0.0,4.0,,1774252934000,0.02,,81337924681036,4.0,0,,,
Fix,GPS,40.8909205394,29.3773584254,187.0,0.0,4.0,,1774252935000,0.01,,81338933109113,4.0,0,,,
Fix,GPS,40.8909205394,29.3773584254,187.0,0.0,4.0,,1774252936000,0.02,,81339939930535,5.0,0,,,
Fix,GPS,40.8909205394,29.3773584254,187.0,0.0,4.0,,1774252937000,0.02,,81340945137957,4.0,0,,,
Fix,GPS,40.8909205394,29.3773584254,187.0,0.0,4.0,,1774252938000,0.02,,81341942266918,5.0,0,,,
Fix,GPS,40.8909205394,29.3773584254,187.0,0.0,4.0,,1774252939000,0.02,,81342934384456,5.0,0,,,
Fix,GPS,40.8909205394,29.3773584254,187.0,0.0,3.5,,1774252940000,0.02,,81343935027840,4.0,0,,,
Fix,GPS,40.8909205394,29.3773584254,187.0,0.0,4.0,,1774252941000,0.02,,81344939913416,4.0,0,,,
Fix,GPS,40.8909205394,29.3773584254,187.0,0.0,4.0,,1774252942000,0.01,,81345938889338,4.0,0,,,
Fix,GPS,40.8909205394,29.3773584254,187.0,0.0,4.0,,1774252943000,0.01,,81346932655453,4.0,0,,,
Fix,GPS,40.8909205394,29.3773584254,187.0,0.0,4.0,,1774252944000,0.01,,81347943702837,4.0,0,,,
Fix,GPS,40.8909205394,29.3773584254,187.0,0.0,4.0,,1774252945000,0.02,,81348933349644,4.0,0,,,
Fix,GPS,40.8909205394,29.3773584254,187.0,0.0,4.0,,1774252946000,0.01,,81349937464566,4.0,0,,,
Fix,GPS,40.8909205394,29.3773584254,187.0,0.0,4.0,,1774252947000,0.01,,81350937877950,4.0,0,,,
Fix,GPS,40.8909205394,29.3773584254,187.0,0.0,4.0,,1774252948000,0.01,,81351942818142,4.0,0,,,
Fix,GPS,40.8909205394,29.3773584254,187.0,0.0,4.0,,1774252949000,0.01,,81352933167679,5.0,0,,,
Fix,GPS,40.8909205394,29.3773584254,187.0,0.0,4.0,,1774252950000,0.01,,81353936239871,4.0,0,,,
Fix,GPS,40.8909205394,29.3773584254,187.0,0.0,4.0,,1774252951000,0.01,,81354939206986,4.0,0,,,
Fix,GPS,40.8909205394,29.3773584254,187.0,0.0,4.0,,1774252952000,0.01,,81355933716870,4.0,0,,,
Fix,GPS,40.8909205394,29.3773584254,187.0,0.0,4.0,,1774252953000,0.01,,81356937256600,4.0,0,,,
Fix,GPS,40.8909205394,29.3773584254,187.0,0.0,4.0,,1774252954000,0.01,,81357936212291,4.0,0,,,
Fix,GPS,40.8909205394,29.3773584254,187.0,0.0,4.0,,1774252955000,0.02,,81358931097291,4.0,0,,,
Fix,GPS,40.8909205394,29.3773584254,187.0,0.0,4.0,,1774252956000,0.02,,81359939117944,4.0,0,,,
Fix,GPS,40.8909205394,29.3773584254,187.0,0.0,4.0,,1774252957000,0.01,,81360936988212,4.0,0,,,
Fix,GPS,40.8909205394,29.3773584254,187.0,0.0,4.0,,1774252958000,0.02,,81361926978827,4.0,0,,,
Fix,GPS,40.8909205394,29.3773584254,187.0,0.0,4.0,,1774252959000,0.01,,81362945539557,4.0,0,,,
Fix,GPS,40.8909205394,29.3773584254,187.0,0.0,3.5,,1774252960000,0.01,,81363917207825,4.0,0,,,
Fix,GPS,40.8909205394,29.3773584254,187.0,0.0,3.5,,1774252961000,0.01,,81364919175863,4.0,0,,,
Fix,GPS,40.8909205394,29.3773584254,187.0,0.0,3.5,,1774252962000,0.01,,81365941005439,4.0,0,,,
