# 
# Header Description:
# 
# Version: v3.1.1.2 Platform: 16 Manufacturer: samsung Model: SM-A176B GNSS Hardware Model Name: S.LSI,K056,SPOTNAV_4.11.1_25_E87
# 
# Raw,utcTimeMillis,TimeNanos,LeapSecond,TimeUncertaintyNanos,FullBiasNanos,BiasNanos,BiasUncertaintyNanos,DriftNanosPerSecond,DriftUncertaintyNanosPerSecond,HardwareClockDiscontinuityCount,Svid,TimeOffsetNanos,State,ReceivedSvTimeNanos,ReceivedSvTimeUncertaintyNanos,Cn0DbHz,PseudorangeRateMetersPerSecond,PseudorangeRateUncertaintyMetersPerSecond,AccumulatedDeltaRangeState,AccumulatedDeltaRangeMeters,AccumulatedDeltaRangeUncertaintyMeters,CarrierFrequencyHz,CarrierCycles,CarrierPhase,CarrierPhaseUncertainty,MultipathIndicator,SnrInDb,ConstellationType,AgcDb,BasebandCn0DbHz,FullInterSignalBiasNanos,FullInterSignalBiasUncertaintyNanos,SatelliteInterSignalBiasNanos,SatelliteInterSignalBiasUncertaintyNanos,CodeType,ChipsetElapsedRealtimeNanos,IsFullTracking,SvPositionEcefXMeters,SvPositionEcefYMeters,SvPositionEcefZMeters,SvVelocityEcefXMetersPerSecond,SvVelocityEcefYMetersPerSecond,SvVelocityEcefZMetersPerSecond,SvClockBiasMeters,SvClockDriftMetersPerSecond,KlobucharAlpha0,KlobucharAlpha1,KlobucharAlpha2,KlobucharAlpha3,KlobucharBeta0,KlobucharBeta1,KlobucharBeta2,KlobucharBeta3
# 
# UncalAccel,utcTimeMillis,elapsedRealtimeNanos,UncalAccelXMps2,UncalAccelYMps2,UncalAccelZMps2,BiasXMps2,BiasYMps2,BiasZMps2,CalibrationAccuracy
# 
# Accel,utcTimeMillis,elapsedRealtimeNanos,AccelXMps2,AccelYMps2,AccelZMps2,CalibrationAccuracy
# 
# UncalGyro,utcTimeMillis,elapsedRealtimeNanos,UncalGyroXRadPerSec,UncalGyroYRadPerSec,UncalGyroZRadPerSec,DriftXRadPerSec,DriftYRadPerSec,DriftZRadPerSec,CalibrationAccuracy
# 
# Gyro,utcTimeMillis,elapsedRealtimeNanos,GyroXRadPerSec,GyroYRadPerSec,GyroZRadPerSec,CalibrationAccuracy
# 
# UncalMag,utcTimeMillis,elapsedRealtimeNanos,UncalMagXMicroT,UncalMagYMicroT,UncalMagZMicroT,BiasXMicroT,BiasYMicroT,BiasZMicroT,CalibrationAccuracy
# 
# Mag,utcTimeMillis,elapsedRealtimeNanos,MagXMicroT,MagYMicroT,MagZMicroT,CalibrationAccuracy
# 
# Pressure,utcTimeMillis,elapsedRealtimeNanos,PressureHpa,CalibrationAccuracy
# 
# OrientationDeg,utcTimeMillis,elapsedRealtimeNanos,yawDeg,rollDeg,pitchDeg,CalibrationAccuracy
# 
# Fix,Provider,LatitudeDegrees,LongitudeDegrees,AltitudeMeters,SpeedMps,AccuracyMeters,BearingDegrees,UnixTimeMillis,SpeedAccuracyMps,BearingAccuracyDegrees,elapsedRealtimeNanos,VerticalAccuracyMeters,MockLocation,NumberOfUsedSignals,VerticalSpeedAccuracyMps,SolutionType
# 
# Nav,Svid,Type,Status,MessageId,Sub-messageId,Data(Bytes)
# 
# Status,UnixTimeMillis,SignalCount,SignalIndex,ConstellationType,Svid,CarrierFrequencyHz,Cn0DbHz,AzimuthDegrees,ElevationDegrees,UsedInFix,HasAlmanacData,HasEphemerisData,BasebandCn0DbHz
# 
# Agc,utcTimeMillis,TimeNanos,LeapSecond,TimeUncertaintyNanos,FullBiasNanos,BiasNanos,BiasUncertaintyNanos,DriftNanosPerSecond,DriftUncertaintyNanosPerSecond,HardwareClockDiscontinuityCount,AgcDb,CarrierFrequencyHz,ConstellationType
# 
# GameRotationVector,utcTimeMillis,elapsedRealtimeNanos,x,y,z,w
# 
Status,,35,0,1,4,1575420000,35.40,314.4,76.4,1,0,1,30.4
Status,,35,1,1,3,1575420000,38.30,80.9,65.9,1,0,1,33.3
Status,,35,2,1,9,1575420000,39.00,264.1,47.1,1,0,1,34.0
Status,,35,3,1,31,1575420000,34.30,51.4,32.4,1,0,1,29.3
Status,,35,4,1,1,1575420000,38.40,171.7,32.4,1,0,1,33.4
Status,,35,5,1,6,1575420000,37.70,311.7,31.9,1,0,1,32.7
Status,,35,6,1,19,1575420000,32.20,275.4,13.6,1,0,1,27.2
Status,,35,7,1,7,1575420000,35.60,198.6,11.7,1,0,1,30.6
Status,,35,8,1,17,1575420000,28.80,250.7,10.1,0,0,1,23.8
Status,,35,9,3,7,1604812500,39.50,342.7,58.8,1,0,1,34.5
Status,,35,10,3,22,1600312400,39.70,244.4,50.7,1,0,1,34.7
Status,,35,11,3,23,1602000000,13.70,307.1,40.9,0,0,1,8.7
Status,,35,12,3,16,1602000000,12.60,59.8,28.1,0,0,1,7.6
Status,,35,13,3,9,1600875000,26.50,122.1,26.3,1,0,1,21.5
Status,,35,14,3,8,1605375000,33.00,279.8,25.8,1,0,1,28.0
Status,,35,15,3,6,1602000000,13.40,59.7,24.7,0,0,1,8.4
Status,,35,16,6,3,1575420000,34.50,35.5,69.1,1,0,1,29.5
Status,,35,17,6,15,1575420000,38.80,203.6,67.3,1,0,1,33.8
Status,,35,18,6,8,1575420000,37.00,250.6,51.7,1,0,1,32.0
Status,,35,19,6,13,1575420000,33.90,309.6,42.7,1,0,1,28.9
Status,,35,20,6,34,1575420000,35.30,159.3,22.0,1,0,1,30.3
Status,,35,21,6,5,1575420000,29.70,55.1,18.0,1,0,1,24.7
Status,,35,22,6,32,1575420000,37.60,269.0,76.8,0,1,1,32.6
Status,,35,23,5,32,1575420000,38.60,27.0,67.4,1,0,1,33.6
Status,,35,24,5,9,1561098000,26.40,74.0,47.7,1,0,1,21.4
Status,,35,25,5,16,1561098000,30.70,50.6,33.8,1,0,1,25.7
Status,,35,26,5,29,1575420000,38.60,288.4,28.8,1,0,1,33.6
Status,,35,27,5,39,1575420000,35.80,45.0,28.2,1,0,1,30.8
Status,,35,28,5,25,1575420000,35.80,51.3,20.5,1,0,1,30.8
Status,,35,29,5,37,1575420000,36.10,158.6,18.7,1,0,1,31.1
Status,,35,30,5,13,1561098000,21.30,108.3,8.8,0,0,1,16.3
Status,,35,31,3,21,1602000000,27.00,186.5,10.5,0,1,1,22.0
Status,,35,32,5,20,1561098000,40.90,286.9,36.6,0,0,1,35.9
Status,,35,33,5,30,1561098000,35.70,229.2,30.0,0,1,1,30.7
Status,,35,34,5,47,1561098000,23.60,263.5,35.8,0,1,1,18.6
Fix,GPS,40.8914827136,29.3794878479,189.0,0.32,5.5,249.3,1774383213000,1.59,139.3,211624715435067,7.0,0,,,
Status,1774383213000,35,0,1,4,1575420000,34.80,314.4,76.4,1,0,1,29.8
Status,1774383213000,35,1,1,3,1575420000,37.70,80.9,65.9,1,0,1,32.7
Status,1774383213000,35,2,1,9,1575420000,38.50,264.1,47.1,1,0,1,33.5
Status,1774383213000,35,3,1,31,1575420000,33.80,51.4,32.4,1,0,1,28.8
Status,1774383213000,35,4,1,1,1575420000,38.00,171.7,32.4,1,0,1,33.0
Status,1774383213000,35,5,1,6,1575420000,37.50,311.7,31.9,1,0,1,32.5
Status,1774383213000,35,6,1,19,1575420000,31.90,275.4,13.6,1,0,1,26.9
Status,1774383213000,35,7,1,7,1575420000,35.00,198.6,11.7,1,0,1,30.0
Status,1774383213000,35,8,1,17,1575420000,27.90,250.7,10.1,1,0,1,22.9
Status,1774383213000,35,9,3,7,1604812500,39.30,342.7,58.8,1,0,1,34.3
Status,1774383213000,35,10,3,22,1600312400,39.00,244.4,50.7,1,0,1,34.0
Status,1774383213000,35,11,3,23,1602000000,13.00,307.1,40.9,0,0,1,8.0
Status,1774383213000,35,12,3,16,1602000000,12.00,59.8,28.1,0,0,1,7.0
Status,1774383213000,35,13,3,9,1600875000,26.00,122.1,26.3,1,0,1,21.0
Status,1774383213000,35,14,3,6,1602000000,12.70,59.7,24.7,0,0,1,7.7
Status,1774383213000,35,15,6,3,1575420000,34.10,35.5,69.1,1,0,1,29.1
Status,1774383213000,35,16,6,15,1575420000,38.30,203.6,67.3,1,0,1,33.3
Status,1774383213000,35,17,6,8,1575420000,36.30,250.6,51.7,1,0,1,31.3
Status,1774383213000,35,18,6,13,1575420000,33.10,309.6,42.7,1,0,1,28.1
Status,1774383213000,35,19,6,34,1575420000,35.00,159.3,22.0,1,0,1,30.0
Status,1774383213000,35,20,6,5,1575420000,29.30,55.1,18.0,1,0,1,24.3
Status,1774383213000,35,21,6,32,1575420000,37.30,269.0,76.8,0,1,1,32.3
Status,1774383213000,35,22,5,32,1575420000,38.30,27.0,67.4,1,0,1,33.3
Status,1774383213000,35,23,5,9,1561098000,27.10,74.0,47.7,1,0,1,22.1
Status,1774383213000,35,24,5,16,1561098000,30.30,50.6,33.8,1,0,1,25.3
Status,1774383213000,35,25,5,30,1575420000,34.60,229.2,30.0,1,0,1,29.6
Status,1774383213000,35,26,5,29,1575420000,38.00,288.4,28.8,1,0,1,33.0
Status,1774383213000,35,27,5,39,1575420000,35.00,45.0,28.2,1,0,1,30.0
Status,1774383213000,35,28,5,25,1575420000,35.70,51.3,20.5,1,0,1,30.7
Status,1774383213000,35,29,5,37,1575420000,35.90,158.6,18.7,1,0,1,30.9
Status,1774383213000,35,30,5,13,1561098000,21.00,108.3,8.8,0,0,1,16.0
Status,1774383213000,35,31,3,8,1602000000,31.50,279.8,25.8,0,1,1,26.5
Status,1774383213000,35,32,5,20,1561098000,39.40,286.9,36.6,0,0,1,34.4
Status,1774383213000,35,33,3,21,1602000000,25.50,186.5,10.5,0,0,1,20.5
Status,1774383213000,35,34,5,47,1561098000,22.10,263.5,35.8,0,1,1,17.1
Fix,GPS,40.8914861083,29.3794885185,189.0,0.19999999,6.5,315.4,1774383214000,2.25,180.0,211625708281489,7.0,0,,,
Status,1774383214000,34,0,1,4,1575420000,34.20,314.4,76.4,1,0,1,29.2
Status,1774383214000,34,1,1,3,1575420000,37.30,80.9,65.9,1,0,1,32.3
Status,1774383214000,34,2,1,9,1575420000,38.00,264.1,47.1,1,0,1,33.0
Status,1774383214000,34,3,1,31,1575420000,33.40,51.4,32.4,1,0,1,28.4
Status,1774383214000,34,4,1,1,1575420000,37.60,171.7,32.4,1,0,1,32.6
Status,1774383214000,34,5,1,6,1575420000,36.90,311.7,31.9,1,0,1,31.9
Status,1774383214000,34,6,1,19,1575420000,31.70,275.4,13.6,1,0,1,26.7
Status,1774383214000,34,7,1,7,1575420000,34.40,198.6,11.7,1,0,1,29.4
Status,1774383214000,34,8,1,17,1575420000,27.10,250.7,10.1,0,0,1,22.1
Status,1774383214000,34,9,3,7,1604812500,39.10,342.7,58.8,1,0,1,34.1
Status,1774383214000,34,10,3,22,1600312400,38.50,244.4,50.7,1,0,1,33.5
Status,1774383214000,34,11,3,23,1602000000,12.40,307.1,40.9,0,0,1,7.4
Status,1774383214000,34,12,3,9,1600875000,25.70,122.1,26.3,1,0,1,20.7
Status,1774383214000,34,13,3,6,1602000000,12.10,59.7,24.7,0,0,1,7.1
Status,1774383214000,34,14,3,21,1604250000,25.40,186.5,10.5,1,0,1,20.4
Status,1774383214000,34,15,6,3,1575420000,35.80,35.5,69.1,1,0,1,30.8
Status,1774383214000,34,16,6,15,1575420000,37.80,203.6,67.3,1,0,1,32.8
Status,1774383214000,34,17,6,8,1575420000,35.60,250.6,51.7,1,0,1,30.6
Status,1774383214000,34,18,6,13,1575420000,32.40,309.6,42.7,1,0,1,27.4
Status,1774383214000,34,19,6,34,1575420000,34.50,159.3,22.0,1,0,1,29.5
Status,1774383214000,34,20,6,5,1575420000,28.90,55.1,18.0,1,0,1,23.9
Status,1774383214000,34,21,6,32,1575420000,36.90,269.0,76.8,0,1,1,31.9
Status,1774383214000,34,22,5,32,1575420000,38.10,27.0,67.4,1,0,1,33.1
Status,1774383214000,34,23,5,9,1561098000,28.60,74.0,47.7,1,0,1,23.6
Status,1774383214000,34,24,5,16,1561098000,29.90,50.6,33.8,1,0,1,24.9
Status,1774383214000,34,25,5,30,1575420000,33.60,229.2,30.0,1,0,1,28.6
Status,1774383214000,34,26,5,29,1575420000,37.40,288.4,28.8,1,0,1,32.4
Status,1774383214000,34,27,5,39,1575420000,34.40,45.0,28.2,1,0,1,29.4
Status,1774383214000,34,28,5,25,1575420000,35.70,51.3,20.5,1,0,1,30.7
Status,1774383214000,34,29,5,37,1575420000,35.70,158.6,18.7,1,0,1,30.7
Status,1774383214000,34,30,5,13,1561098000,20.80,108.3,8.8,0,0,1,15.8
Status,1774383214000,34,31,5,20,1561098000,37.90,286.9,36.6,0,1,1,32.9
Status,1774383214000,34,32,3,8,1602000000,30.00,279.8,25.8,0,1,1,25.0
Status,1774383214000,34,33,5,47,1561098000,20.60,263.5,35.8,0,1,1,15.6
Fix,GPS,40.8914882457,29.3794810586,189.0,0.089999996,6.5,0.0,1774383215000,0.45,180.0,211626715131758,7.0,0,,,
Status,1774383215000,32,0,1,4,1575420000,33.60,314.4,76.4,1,0,1,28.6
Status,1774383215000,32,1,1,3,1575420000,38.00,80.9,65.9,1,0,1,33.0
Status,1774383215000,32,2,1,9,1575420000,37.60,264.1,47.1,1,0,1,32.6
Status,1774383215000,32,3,1,31,1575420000,33.00,51.4,32.4,1,0,1,28.0
Status,1774383215000,32,4,1,1,1575420000,37.10,171.7,32.4,1,0,1,32.1
Status,1774383215000,32,5,1,6,1575420000,36.20,311.7,31.9,1,0,1,31.2
Status,1774383215000,32,6,1,19,1575420000,31.50,275.4,13.6,1,0,1,26.5
Status,1774383215000,32,7,1,7,1575420000,33.90,198.6,11.7,0,0,1,28.9
Status,1774383215000,32,8,1,17,1575420000,26.40,250.7,10.1,1,0,1,21.4
Status,1774383215000,32,9,3,7,1604812500,38.80,342.7,58.8,1,0,1,33.8
Status,1774383215000,32,10,3,22,1600312400,38.00,244.4,50.7,1,0,1,33.0
Status,1774383215000,32,11,3,9,1600875000,25.30,122.1,26.3,1,0,1,20.3
Status,1774383215000,32,12,3,21,1604250000,26.60,186.5,10.5,1,0,1,21.6
Status,1774383215000,32,13,6,3,1575420000,35.80,35.5,69.1,1,0,1,30.8
Status,1774383215000,32,14,6,15,1575420000,37.30,203.6,67.3,1,0,1,32.3
Status,1774383215000,32,15,6,8,1575420000,34.90,250.6,51.7,1,0,1,29.9
Status,1774383215000,32,16,6,13,1575420000,31.90,309.6,42.7,1,0,1,26.9
Status,1774383215000,32,17,6,34,1575420000,33.90,159.3,22.0,1,0,1,28.9
Status,1774383215000,32,18,6,5,1575420000,28.60,55.1,18.0,1,0,1,23.6
Status,1774383215000,32,19,6,32,1575420000,36.60,269.0,76.8,0,1,1,31.6
Status,1774383215000,32,20,5,32,1575420000,38.00,27.0,67.4,1,0,1,33.0
Status,1774383215000,32,21,5,9,1561098000,29.20,74.0,47.7,1,0,1,24.2
Status,1774383215000,32,22,5,16,1561098000,29.70,50.6,33.8,1,0,1,24.7
Status,1774383215000,32,23,5,30,1575420000,32.70,229.2,30.0,1,0,1,27.7
Status,1774383215000,32,24,5,29,1575420000,36.80,288.4,28.8,1,0,1,31.8
Status,1774383215000,32,25,5,39,1575420000,33.90,45.0,28.2,1,0,1,28.9
Status,1774383215000,32,26,5,25,1575420000,35.60,51.3,20.5,1,0,1,30.6
Status,1774383215000,32,27,5,37,1575420000,35.50,158.6,18.7,1,0,1,30.5
Status,1774383215000,32,28,5,13,1561098000,20.50,108.3,8.8,0,0,1,15.5
Status,1774383215000,32,29,5,20,1561098000,36.40,286.9,36.6,0,1,1,31.4
Status,1774383215000,32,30,3,8,1602000000,28.50,279.8,25.8,0,1,1,23.5
Status,1774383215000,32,31,5,47,1561098000,19.10,263.5,35.8,0,1,1,14.1
Fix,GPS,40.8914864017,29.3794663902,188.0,0.03,6.0,0.0,1774383216000,0.15,180.0,211627729914565,6.0,0,,,
Status,1774383216000,32,0,1,4,1575420000,33.10,314.4,76.4,1,0,1,28.1
Status,1774383216000,32,1,1,3,1575420000,38.00,80.9,65.9,1,0,1,33.0
Status,1774383216000,32,2,1,9,1575420000,37.20,264.1,47.1,1,0,1,32.2
Status,1774383216000,32,3,1,31,1575420000,32.70,51.4,32.4,1,0,1,27.7
Status,1774383216000,32,4,1,1,1575420000,36.60,171.7,32.4,1,0,1,31.6
Status,1774383216000,32,5,1,6,1575420000,35.60,311.7,31.9,1,0,1,30.6
Status,1774383216000,32,6,1,19,1575420000,31.30,275.4,13.6,1,0,1,26.3
Status,1774383216000,32,7,1,7,1575420000,33.40,198.6,11.7,1,0,1,28.4
Status,1774383216000,32,8,1,17,1575420000,25.70,250.7,10.1,0,0,1,20.7
Status,1774383216000,32,9,3,7,1604812500,38.60,342.7,58.8,1,0,1,33.6
Status,1774383216000,32,10,3,22,1600312400,37.50,244.4,50.7,1,0,1,32.5
Status,1774383216000,32,11,3,9,1600875000,25.10,122.1,26.3,1,0,1,20.1
Status,1774383216000,32,12,3,21,1604250000,26.90,186.5,10.5,1,0,1,21.9
Status,1774383216000,32,13,6,3,1575420000,35.80,35.5,69.1,1,0,1,30.8
Status,1774383216000,32,14,6,15,1575420000,36.60,203.6,67.3,1,0,1,31.6
Status,1774383216000,32,15,6,8,1575420000,34.30,250.6,51.7,1,0,1,29.3
Status,1774383216000,32,16,6,13,1575420000,31.40,309.6,42.7,1,0,1,26.4
Status,1774383216000,32,17,6,34,1575420000,33.50,159.3,22.0,1,0,1,28.5
Status,1774383216000,32,18,6,5,1575420000,28.40,55.1,18.0,1,0,1,23.4
Status,1774383216000,32,19,6,32,1575420000,36.20,269.0,76.8,0,1,1,31.2
Status,1774383216000,32,20,5,32,1575420000,37.90,27.0,67.4,1,0,1,32.9
Status,1774383216000,32,21,5,9,1561098000,29.90,74.0,47.7,1,0,1,24.9
Status,1774383216000,32,22,5,16,1561098000,29.50,50.6,33.8,1,0,1,24.5
Status,1774383216000,32,23,5,30,1575420000,31.80,229.2,30.0,1,0,1,26.8
Status,1774383216000,32,24,5,29,1575420000,36.30,288.4,28.8,1,0,1,31.3
Status,1774383216000,32,25,5,39,1575420000,33.40,45.0,28.2,1,0,1,28.4
Status,1774383216000,32,26,5,25,1575420000,35.50,51.3,20.5,1,0,1,30.5
Status,1774383216000,32,27,5,37,1575420000,35.20,158.6,18.7,1,0,1,30.2
Status,1774383216000,32,28,5,13,1561098000,20.30,108.3,8.8,0,0,1,15.3
Status,1774383216000,32,29,5,20,1561098000,34.90,286.9,36.6,0,1,1,29.9
Status,1774383216000,32,30,3,8,1602000000,27.00,279.8,25.8,0,1,1,22.0
Status,1774383216000,32,31,5,47,1561098000,17.60,263.5,35.8,0,1,1,12.6
Fix,GPS,40.8914877428,29.3794638757,187.0,0.01,6.0,0.0,1774383217000,0.13,180.0,211628716098064,6.0,0,,,
Status,1774383217000,32,0,1,4,1575420000,32.60,314.4,76.4,1,0,1,27.6
Status,1774383217000,32,1,1,3,1575420000,37.90,80.9,65.9,1,0,1,32.9
Status,1774383217000,32,2,1,9,1575420000,36.90,264.1,47.1,1,0,1,31.9
Status,1774383217000,32,3,1,31,1575420000,32.40,51.4,32.4,1,0,1,27.4
Status,1774383217000,32,4,1,1,1575420000,36.20,171.7,32.4,1,0,1,31.2
Status,1774383217000,32,5,1,6,1575420000,35.10,311.7,31.9,1,0,1,30.1
Status,1774383217000,32,6,1,19,1575420000,31.10,275.4,13.6,1,0,1,26.1
Status,1774383217000,32,7,1,7,1575420000,32.90,198.6,11.7,1,0,1,27.9
Status,1774383217000,32,8,1,17,1575420000,25.20,250.7,10.1,1,0,1,20.2
Status,1774383217000,32,9,3,7,1604812500,38.40,342.7,58.8,1,0,1,33.4
Status,1774383217000,32,10,3,22,1600312400,37.10,244.4,50.7,1,0,1,32.1
Status,1774383217000,32,11,3,9,1600875000,24.90,122.1,26.3,1,0,1,19.9
Status,1774383217000,32,12,3,21,1604250000,27.20,186.5,10.5,1,0,1,22.2
Status,1774383217000,32,13,6,3,1575420000,35.70,35.5,69.1,1,0,1,30.7
Status,1774383217000,32,14,6,15,1575420000,36.20,203.6,67.3,1,0,1,31.2
Status,1774383217000,32,15,6,8,1575420000,33.80,250.6,51.7,1,0,1,28.8
Status,1774383217000,32,16,6,13,1575420000,31.00,309.6,42.7,1,0,1,26.0
Status,1774383217000,32,17,6,34,1575420000,33.00,159.3,22.0,1,0,1,28.0
Status,1774383217000,32,18,6,5,1575420000,28.20,55.1,18.0,1,0,1,23.2
Status,1774383217000,32,19,6,32,1575420000,36.00,269.0,76.8,0,1,1,31.0
Status,1774383217000,32,20,5,32,1575420000,37.80,27.0,67.4,1,0,1,32.8
Status,1774383217000,32,21,5,9,1561098000,30.30,74.0,47.7,1,0,1,25.3
Status,1774383217000,32,22,5,16,1561098000,29.30,50.6,33.8,1,0,1,24.3
Status,1774383217000,32,23,5,30,1575420000,31.00,229.2,30.0,1,0,1,26.0
Status,1774383217000,32,24,5,29,1575420000,35.80,288.4,28.8,1,0,1,30.8
Status,1774383217000,32,25,5,39,1575420000,33.10,45.0,28.2,1,0,1,28.1
Status,1774383217000,32,26,5,25,1575420000,35.50,51.3,20.5,1,0,1,30.5
Status,1774383217000,32,27,5,13,1561098000,20.10,108.3,8.8,0,0,1,15.1
Status,1774383217000,32,28,3,8,1602000000,25.50,279.8,25.8,0,0,1,20.5
Status,1774383217000,32,29,5,20,1561098000,33.40,286.9,36.6,0,1,1,28.4
Status,1774383217000,32,30,5,37,1561098000,33.70,158.6,18.7,0,1,1,28.7
Status,1774383217000,32,31,5,47,1561098000,16.10,263.5,35.8,0,1,1,11.1
Fix,GPS,40.8914882457,29.3794603553,187.0,0.0,6.0,,1774383218000,0.13,,211629713606525,6.0,0,,,
Status,1774383218000,32,0,1,4,1575420000,32.20,314.4,76.4,1,0,1,27.2
Status,1774383218000,32,1,1,3,1575420000,37.90,80.9,65.9,1,0,1,32.9
Status,1774383218000,32,2,1,9,1575420000,36.50,264.1,47.1,1,0,1,31.5
Status,1774383218000,32,3,1,31,1575420000,32.20,51.4,32.4,1,0,1,27.2
Status,1774383218000,32,4,1,1,1575420000,35.80,171.7,32.4,1,0,1,30.8
Status,1774383218000,32,5,1,6,1575420000,34.50,311.7,31.9,1,0,1,29.5
Status,1774383218000,32,6,1,19,1575420000,31.00,275.4,13.6,1,0,1,26.0
Status,1774383218000,32,7,1,7,1575420000,32.40,198.6,11.7,1,0,1,27.4
Status,1774383218000,32,8,1,17,1575420000,24.70,250.7,10.1,1,0,1,19.7
Status,1774383218000,32,9,3,7,1604812500,38.20,342.7,58.8,1,0,1,33.2
Status,1774383218000,32,10,3,22,1600312400,36.80,244.4,50.7,1,0,1,31.8
Status,1774383218000,32,11,3,9,1600875000,24.70,122.1,26.3,1,0,1,19.7
Status,1774383218000,32,12,3,21,1604250000,27.50,186.5,10.5,1,0,1,22.5
Status,1774383218000,32,13,6,3,1575420000,35.70,35.5,69.1,1,0,1,30.7
Status,1774383218000,32,14,6,15,1575420000,35.80,203.6,67.3,1,0,1,30.8
Status,1774383218000,32,15,6,8,1575420000,33.30,250.6,51.7,1,0,1,28.3
Status,1774383218000,32,16,6,13,1575420000,30.70,309.6,42.7,1,0,1,25.7
Status,1774383218000,32,17,6,34,1575420000,32.50,159.3,22.0,1,0,1,27.5
Status,1774383218000,32,18,6,5,1575420000,28.10,55.1,18.0,1,0,1,23.1
Status,1774383218000,32,19,6,32,1575420000,35.70,269.0,76.8,0,1,1,30.7
Status,1774383218000,32,20,5,32,1575420000,37.80,27.0,67.4,1,0,1,32.8
Status,1774383218000,32,21,5,9,1561098000,30.90,74.0,47.7,1,0,1,25.9
Status,1774383218000,32,22,5,16,1561098000,29.20,50.6,33.8,1,0,1,24.2
Status,1774383218000,32,23,5,30,1575420000,30.20,229.2,30.0,1,0,1,25.2
Status,1774383218000,32,24,5,29,1575420000,35.30,288.4,28.8,1,0,1,30.3
Status,1774383218000,32,25,5,39,1575420000,32.70,45.0,28.2,1,0,1,27.7
Status,1774383218000,32,26,5,25,1575420000,35.40,51.3,20.5,1,0,1,30.4
Status,1774383218000,32,27,5,13,1561098000,19.90,108.3,8.8,0,0,1,14.9
Status,1774383218000,32,28,3,8,1602000000,24.00,279.8,25.8,0,0,1,19.0
Status,1774383218000,32,29,5,20,1561098000,31.90,286.9,36.6,0,1,1,26.9
Status,1774383218000,32,30,5,37,1561098000,32.20,158.6,18.7,0,1,1,27.2
Status,1774383218000,32,31,5,47,1561098000,14.60,263.5,35.8,0,1,1,9.6
Fix,GPS,40.8914892515,29.3794539012,186.0,0.01,5.5,0.0,1774383219000,0.11,180.0,211630721818062,6.0,0,,,
Status,1774383219000,32,0,1,4,1575420000,31.80,314.4,76.4,1,0,1,26.8
Status,1774383219000,32,1,1,3,1575420000,37.90,80.9,65.9,1,0,1,32.9
Status,1774383219000,32,2,1,9,1575420000,36.20,264.1,47.1,1,0,1,31.2
Status,1774383219000,32,3,1,31,1575420000,32.00,51.4,32.4,1,0,1,27.0
Status,1774383219000,32,4,1,1,1575420000,35.30,171.7,32.4,1,0,1,30.3
Status,1774383219000,32,5,1,6,1575420000,34.10,311.7,31.9,1,0,1,29.1
Status,1774383219000,32,6,1,19,1575420000,30.80,275.4,13.6,1,0,1,25.8
Status,1774383219000,32,7,1,7,1575420000,32.00,198.6,11.7,0,0,1,27.0
Status,1774383219000,32,8,1,17,1575420000,24.30,250.7,10.1,1,0,1,19.3
Status,1774383219000,32,9,3,7,1604812500,38.00,342.7,58.8,1,0,1,33.0
Status,1774383219000,32,10,3,22,1600312400,36.50,244.4,50.7,1,0,1,31.5
Status,1774383219000,32,11,3,9,1600875000,24.60,122.1,26.3,1,0,1,19.6
Status,1774383219000,32,12,3,21,1604250000,27.60,186.5,10.5,1,0,1,22.6
Status,1774383219000,32,13,6,3,1575420000,35.70,35.5,69.1,1,0,1,30.7
Status,1774383219000,32,14,6,15,1575420000,35.40,203.6,67.3,1,0,1,30.4
Status,1774383219000,32,15,6,8,1575420000,32.80,250.6,51.7,1,0,1,27.8
Status,1774383219000,32,16,6,13,1575420000,30.40,309.6,42.7,1,0,1,25.4
Status,1774383219000,32,17,6,34,1575420000,32.20,159.3,22.0,1,0,1,27.2
Status,1774383219000,32,18,6,5,1575420000,28.00,55.1,18.0,1,0,1,23.0
Status,1774383219000,32,19,6,32,1575420000,35.40,269.0,76.8,0,1,1,30.4
Status,1774383219000,32,20,5,32,1575420000,37.90,27.0,67.4,1,0,1,32.9
Status,1774383219000,32,21,5,9,1561098000,31.20,74.0,47.7,1,0,1,26.2
Status,1774383219000,32,22,5,16,1561098000,29.10,50.6,33.8,1,0,1,24.1
Status,1774383219000,32,23,5,30,1575420000,29.50,229.2,30.0,1,0,1,24.5
Status,1774383219000,32,24,5,29,1575420000,34.80,288.4,28.8,1,0,1,29.8
Status,1774383219000,32,25,5,39,1575420000,32.50,45.0,28.2,1,0,1,27.5
Status,1774383219000,32,26,5,25,1575420000,35.40,51.3,20.5,1,0,1,30.4
Status,1774383219000,32,27,5,13,1561098000,19.70,108.3,8.8,0,0,1,14.7
Status,1774383219000,32,28,3,8,1602000000,22.50,279.8,25.8,0,0,1,17.5
Status,1774383219000,32,29,5,20,1561098000,30.40,286.9,36.6,0,1,1,25.4
Status,1774383219000,32,30,5,37,1561098000,30.70,158.6,18.7,0,1,1,25.7
Status,1774383219000,32,31,5,47,1561098000,13.80,263.5,35.8,0,1,1,8.8
Fix,GPS,40.8914892096,29.3794520572,185.0,0.01,5.5,0.0,1774383220000,0.11,180.0,211631723417716,6.0,0,,,
Status,1774383220000,32,0,1,4,1575420000,31.40,314.4,76.4,1,0,1,26.4
Status,1774383220000,32,1,1,3,1575420000,37.80,80.9,65.9,1,0,1,32.8
Status,1774383220000,32,2,1,9,1575420000,35.90,264.1,47.1,1,0,1,30.9
Status,1774383220000,32,3,1,31,1575420000,31.80,51.4,32.4,1,0,1,26.8
Status,1774383220000,32,4,1,1,1575420000,35.00,171.7,32.4,1,0,1,30.0
Status,1774383220000,32,5,1,6,1575420000,33.60,311.7,31.9,1,0,1,28.6
Status,1774383220000,32,6,1,19,1575420000,30.70,275.4,13.6,1,0,1,25.7
Status,1774383220000,32,7,1,7,1575420000,31.60,198.6,11.7,0,0,1,26.6
Status,1774383220000,32,8,1,17,1575420000,23.90,250.7,10.1,0,0,1,18.9
Status,1774383220000,32,9,3,7,1604812500,37.80,343.2,58.8,1,0,1,32.8
Status,1774383220000,32,10,3,22,1600312400,36.20,244.1,50.5,1,0,1,31.2
Status,1774383220000,32,11,3,9,1600875000,24.40,122.0,26.5,1,0,1,19.4
Status,1774383220000,32,12,3,21,1604250000,27.80,186.5,10.2,1,0,1,22.8
Status,1774383220000,32,13,6,3,1575420000,35.70,35.5,69.1,1,0,1,30.7
Status,1774383220000,32,14,6,15,1575420000,35.10,203.6,67.3,1,0,1,30.1
Status,1774383220000,32,15,6,8,1575420000,32.50,250.6,51.7,1,0,1,27.5
Status,1774383220000,32,16,6,13,1575420000,30.10,309.6,42.7,1,0,1,25.1
Status,1774383220000,32,17,6,34,1575420000,31.90,159.3,22.0,1,0,1,26.9
Status,1774383220000,32,18,6,5,1575420000,27.90,55.1,18.0,1,0,1,22.9
Status,1774383220000,32,19,6,32,1575420000,35.20,269.0,76.8,0,1,1,30.2
Status,1774383220000,32,20,5,32,1575420000,38.10,27.0,67.4,1,0,1,33.1
Status,1774383220000,32,21,5,9,1561098000,31.50,74.0,47.7,1,0,1,26.5
Status,1774383220000,32,22,5,16,1561098000,29.00,50.6,33.8,1,0,1,24.0
Status,1774383220000,32,23,5,29,1575420000,34.30,288.4,28.8,1,0,1,29.3
Status,1774383220000,32,24,5,39,1575420000,32.20,45.0,28.2,1,0,1,27.2
Status,1774383220000,32,25,5,25,1575420000,35.40,51.3,20.5,1,0,1,30.4
Status,1774383220000,32,26,5,37,1575420000,30.30,158.6,18.7,1,0,1,25.3
Status,1774383220000,32,27,5,13,1561098000,19.50,108.3,8.8,0,0,1,14.5
Status,1774383220000,32,28,3,8,1602000000,21.00,280.0,25.9,0,0,1,16.0
Status,1774383220000,32,29,5,20,1561098000,28.90,286.9,36.6,0,1,1,23.9
Status,1774383220000,32,30,5,30,1561098000,28.00,229.2,30.0,0,1,1,23.0
Status,1774383220000,32,31,5,47,1561098000,13.10,263.5,35.8,0,1,1,8.1
Fix,GPS,40.8914859826,29.3794565834,185.0,0.01,5.5,0.0,1774383221000,0.12,180.0,211632720206176,6.0,0,,,
Status,1774383221000,32,0,1,4,1575420000,31.00,314.4,76.4,1,0,1,26.0
Status,1774383221000,32,1,1,3,1575420000,37.80,80.9,65.9,1,0,1,32.8
Status,1774383221000,32,2,1,9,1575420000,35.70,264.1,47.1,1,0,1,30.7
Status,1774383221000,32,3,1,31,1575420000,31.60,51.4,32.4,1,0,1,26.6
Status,1774383221000,32,4,1,1,1575420000,34.60,171.7,32.4,1,0,1,29.6
Status,1774383221000,32,5,1,6,1575420000,33.20,311.7,31.9,1,0,1,28.2
Status,1774383221000,32,6,1,19,1575420000,30.60,275.4,13.6,1,0,1,25.6
Status,1774383221000,32,7,1,7,1575420000,31.20,198.6,11.7,1,0,1,26.2
Status,1774383221000,32,8,1,17,1575420000,23.60,250.7,10.1,1,0,1,18.6
Status,1774383221000,32,9,3,7,1604812500,37.60,343.2,58.8,1,0,1,32.6
Status,1774383221000,32,10,3,22,1600312400,35.90,244.1,50.5,1,0,1,30.9
Status,1774383221000,32,11,3,9,1600875000,24.30,122.0,26.5,1,0,1,19.3
Status,1774383221000,32,12,3,21,1604250000,27.80,186.5,10.2,1,0,1,22.8
Status,1774383221000,32,13,6,3,1575420000,35.70,35.5,69.1,1,0,1,30.7
Status,1774383221000,32,14,6,15,1575420000,34.80,203.6,67.3,1,0,1,29.8
Status,1774383221000,32,15,6,8,1575420000,32.10,250.6,51.7,1,0,1,27.1
Status,1774383221000,32,16,6,13,1575420000,29.90,309.6,42.7,1,0,1,24.9
Status,1774383221000,32,17,6,34,1575420000,31.60,159.3,22.0,1,0,1,26.6
Status,1774383221000,32,18,6,5,1575420000,27.90,55.1,18.0,1,0,1,22.9
Status,1774383221000,32,19,6,32,1575420000,35.00,269.0,76.8,0,1,1,30.0
Status,1774383221000,32,20,5,32,1575420000,38.40,27.0,67.4,1,0,1,33.4
Status,1774383221000,32,21,5,9,1561098000,31.90,74.0,47.7,1,0,1,26.9
Status,1774383221000,32,22,5,16,1561098000,29.00,50.6,33.8,1,0,1,24.0
Status,1774383221000,32,23,5,29,1575420000,33.80,288.4,28.8,1,0,1,28.8
Status,1774383221000,32,24,5,39,1575420000,32.00,45.0,28.2,1,0,1,27.0
Status,1774383221000,32,25,5,25,1575420000,35.30,51.3,20.5,1,0,1,30.3
Status,1774383221000,32,26,5,37,1575420000,30.00,158.6,18.7,1,0,1,25.0
Status,1774383221000,32,27,5,13,1561098000,19.30,108.3,8.8,0,0,1,14.3
Status,1774383221000,32,28,3,8,1602000000,19.50,280.0,25.9,0,0,1,14.5
Status,1774383221000,32,29,5,20,1561098000,27.40,286.9,36.6,0,1,1,22.4
Status,1774383221000,32,30,5,30,1561098000,26.50,229.2,30.0,0,1,1,21.5
Status,1774383221000,32,31,5,47,1561098000,12.50,263.5,35.8,0,1,1,7.5
Fix,GPS,40.8914879942,29.3794575054,185.0,0.01,5.5,0.0,1774383222000,0.12,180.0,211633723226983,6.0,0,,,
Status,1774383222000,31,0,1,4,1575420000,30.60,314.4,76.4,1,0,1,25.6
Status,1774383222000,31,1,1,3,1575420000,37.80,80.9,65.9,1,0,1,32.8
Status,1774383222000,31,2,1,9,1575420000,35.40,264.1,47.1,1,0,1,30.4
Status,1774383222000,31,3,1,31,1575420000,31.50,51.4,32.4,1,0,1,26.5
Status,1774383222000,31,4,1,1,1575420000,34.30,171.7,32.4,1,0,1,29.3
Status,1774383222000,31,5,1,6,1575420000,32.80,311.7,31.9,1,0,1,27.8
Status,1774383222000,31,6,1,19,1575420000,30.50,275.4,13.6,0,0,1,25.5
Status,1774383222000,31,7,1,7,1575420000,30.80,198.6,11.7,0,0,1,25.8
Status,1774383222000,31,8,1,17,1575420000,23.30,250.7,10.1,1,0,1,18.3
Status,1774383222000,31,9,3,7,1604812500,37.40,343.2,58.8,1,0,1,32.4
Status,1774383222000,31,10,3,22,1600312400,35.70,244.1,50.5,1,0,1,30.7
Status,1774383222000,31,11,3,9,1600875000,24.20,122.0,26.5,0,0,1,19.2
Status,1774383222000,31,12,3,21,1604250000,28.00,186.5,10.2,0,0,1,23.0
Status,1774383222000,31,13,6,3,1575420000,35.70,35.5,69.1,1,0,1,30.7
Status,1774383222000,31,14,6,15,1575420000,34.60,203.6,67.3,1,0,1,29.6
Status,1774383222000,31,15,6,8,1575420000,31.80,250.6,51.7,1,0,1,26.8
Status,1774383222000,31,16,6,13,1575420000,29.70,309.6,42.7,1,0,1,24.7
Status,1774383222000,31,17,6,34,1575420000,31.40,159.3,22.0,1,0,1,26.4
Status,1774383222000,31,18,6,5,1575420000,27.90,55.1,18.0,1,0,1,22.9
Status,1774383222000,31,19,6,32,1575420000,34.80,269.0,76.8,0,1,1,29.8
Status,1774383222000,31,20,5,32,1575420000,38.60,27.0,67.4,1,0,1,33.6
Status,1774383222000,31,21,5,9,1561098000,32.10,74.0,47.7,1,0,1,27.1
Status,1774383222000,31,22,5,20,1575420000,27.20,286.9,36.6,1,0,1,22.2
Status,1774383222000,31,23,5,16,1561098000,28.90,50.6,33.8,1,0,1,23.9
Status,1774383222000,31,24,5,29,1575420000,33.40,288.4,28.8,1,0,1,28.4
Status,1774383222000,31,25,5,39,1575420000,31.90,45.0,28.2,1,0,1,26.9
Status,1774383222000,31,26,5,25,1575420000,35.30,51.3,20.5,1,0,1,30.3
Status,1774383222000,31,27,5,37,1575420000,29.80,158.6,18.7,1,0,1,24.8
Status,1774383222000,31,28,5,13,1561098000,19.10,108.3,8.8,0,0,1,14.1
Status,1774383222000,31,29,5,30,1561098000,25.00,229.2,30.0,0,1,1,20.0
Status,1774383222000,31,30,3,8,1602000000,18.00,280.0,25.9,0,1,1,13.0
Fix,GPS,40.8914887486,29.3794572540,184.0,0.0,5.5,,1774383223000,0.12,,211634703039137,6.0,0,,,
Status,1774383223000,31,0,1,4,1575420000,30.30,314.4,76.4,0,0,1,25.3
Status,1774383223000,31,1,1,3,1575420000,37.70,80.9,65.9,1,0,1,32.7
Status,1774383223000,31,2,1,9,1575420000,35.20,264.1,47.1,1,0,1,30.2
Status,1774383223000,31,3,1,31,1575420000,31.30,51.4,32.4,1,0,1,26.3
Status,1774383223000,31,4,1,1,1575420000,34.00,171.7,32.4,1,0,1,29.0
Status,1774383223000,31,5,1,6,1575420000,32.50,311.7,31.9,1,0,1,27.5
Status,1774383223000,31,6,1,19,1575420000,30.50,275.4,13.6,1,0,1,25.5
Status,1774383223000,31,7,1,7,1575420000,30.40,198.6,11.7,1,0,1,25.4
Status,1774383223000,31,8,1,17,1575420000,23.10,250.7,10.1,1,0,1,18.1
Status,1774383223000,31,9,3,7,1604812500,37.30,343.2,58.8,1,0,1,32.3
Status,1774383223000,31,10,3,22,1600312400,35.50,244.1,50.5,1,0,1,30.5
Status,1774383223000,31,11,3,9,1600875000,24.20,122.0,26.5,1,0,1,19.2
Status,1774383223000,31,12,3,21,1604250000,28.10,186.5,10.2,1,0,1,23.1
Status,1774383223000,31,13,6,3,1575420000,35.60,35.5,69.1,1,0,1,30.6
Status,1774383223000,31,14,6,15,1575420000,34.40,203.6,67.3,1,0,1,29.4
Status,1774383223000,31,15,6,8,1575420000,31.50,250.6,51.7,1,0,1,26.5
Status,1774383223000,31,16,6,13,1575420000,29.50,309.6,42.7,1,0,1,24.5
Status,1774383223000,31,17,6,34,1575420000,31.20,159.3,22.0,1,0,1,26.2
Status,1774383223000,31,18,6,5,1575420000,27.80,55.1,18.0,1,0,1,22.8
Status,1774383223000,31,19,6,32,1575420000,34.60,269.0,76.8,0,1,1,29.6
Status,1774383223000,31,20,5,32,1575420000,38.70,27.0,67.4,1,0,1,33.7
Status,1774383223000,31,21,5,9,1561098000,32.20,74.0,47.7,1,0,1,27.2
Status,1774383223000,31,22,5,20,1575420000,26.90,286.9,36.6,1,0,1,21.9
Status,1774383223000,31,23,5,16,1561098000,28.90,50.6,33.8,1,0,1,23.9
Status,1774383223000,31,24,5,29,1575420000,32.90,288.4,28.8,0,0,1,27.9
Status,1774383223000,31,25,5,39,1575420000,31.80,45.0,28.2,1,0,1,26.8
Status,1774383223000,31,26,5,25,1575420000,35.30,51.3,20.5,1,0,1,30.3
Status,1774383223000,31,27,5,37,1575420000,29.50,158.6,18.7,1,0,1,24.5
Status,1774383223000,31,28,3,8,1602000000,16.50,280.0,25.9,0,0,1,11.5
Status,1774383223000,31,29,5,30,1561098000,23.50,229.2,30.0,0,1,1,18.5
Status,1774383223000,31,30,5,13,1561098000,17.60,108.3,8.8,0,1,1,12.6
Fix,GPS,40.8914882457,29.3794592656,185.0,0.01,5.5,0.0,1774383224000,0.12,180.0,211635713024559,6.0,0,,,
Status,1774383224000,31,0,1,4,1575420000,29.90,314.4,76.4,1,0,1,24.9
Status,1774383224000,31,1,1,3,1575420000,37.70,80.9,65.9,1,0,1,32.7
Status,1774383224000,31,2,1,9,1575420000,35.00,264.1,47.1,1,0,1,30.0
Status,1774383224000,31,3,1,31,1575420000,31.20,51.4,32.4,1,0,1,26.2
Status,1774383224000,31,4,1,1,1575420000,33.70,171.7,32.1,1,0,1,28.7
Status,1774383224000,31,5,1,6,1575420000,32.20,311.7,31.9,1,0,1,27.2
Status,1774383224000,31,6,1,19,1575420000,30.40,275.4,13.6,1,0,1,25.4
Status,1774383224000,31,7,1,7,1575420000,30.10,198.6,11.7,1,0,1,25.1
Status,1774383224000,31,8,1,17,1575420000,22.90,250.7,10.1,1,0,1,17.9
Status,1774383224000,31,9,3,7,1604812500,37.10,343.2,58.8,1,0,1,32.1
Status,1774383224000,31,10,3,22,1600312400,35.40,244.1,50.5,1,0,1,30.4
Status,1774383224000,31,11,3,9,1600875000,24.10,122.0,26.5,1,0,1,19.1
Status,1774383224000,31,12,3,21,1604250000,28.20,186.5,10.2,1,0,1,23.2
Status,1774383224000,31,13,6,3,1575420000,35.60,35.5,69.1,1,0,1,30.6
Status,1774383224000,31,14,6,15,1575420000,34.20,203.6,67.3,1,0,1,29.2
Status,1774383224000,31,15,6,8,1575420000,31.30,250.6,51.7,1,0,1,26.3
Status,1774383224000,31,16,6,13,1575420000,29.30,309.6,42.7,1,0,1,24.3
Status,1774383224000,31,17,6,34,1575420000,31.10,159.3,22.0,1,0,1,26.1
Status,1774383224000,31,18,6,5,1575420000,27.90,55.1,18.0,1,0,1,22.9
Status,1774383224000,31,19,6,32,1575420000,34.40,269.0,76.8,0,1,1,29.4
Status,1774383224000,31,20,5,32,1575420000,38.80,27.0,67.4,1,0,1,33.8
Status,1774383224000,31,21,5,9,1561098000,32.40,74.0,47.7,1,0,1,27.4
Status,1774383224000,31,22,5,16,1561098000,28.90,50.6,33.8,1,0,1,23.9
Status,1774383224000,31,23,5,29,1575420000,32.50,288.4,28.8,1,0,1,27.5
Status,1774383224000,31,24,5,39,1575420000,31.70,45.0,28.2,1,0,1,26.7
Status,1774383224000,31,25,5,25,1575420000,35.30,51.3,20.5,1,0,1,30.3
Status,1774383224000,31,26,5,37,1575420000,29.40,158.6,18.7,1,0,1,24.4
Status,1774383224000,31,27,3,8,1602000000,15.00,280.0,25.9,0,1,1,10.0
Status,1774383224000,31,28,5,20,1561098000,25.40,286.9,36.6,0,1,1,20.4
Status,1774383224000,31,29,5,30,1561098000,22.00,229.2,30.0,0,1,1,17.0
Status,1774383224000,31,30,5,13,1561098000,16.10,108.3,8.8,0,1,1,11.1
Fix,GPS,40.8914851444,29.3794610258,184.0,0.04,5.0,0.0,1774383225000,0.11,180.0,211636705962674,5.0,0,,,
Status,1774383225000,31,0,1,4,1575420000,29.60,315.5,76.4,1,0,1,24.6
Status,1774383225000,31,1,1,3,1575420000,37.70,81.4,65.7,1,0,1,32.7
Status,1774383225000,31,2,1,9,1575420000,34.80,264.1,47.1,1,0,1,29.8
Status,1774383225000,31,3,1,31,1575420000,31.10,51.4,32.4,1,0,1,26.1
Status,1774383225000,31,4,1,1,1575420000,33.40,171.7,32.1,1,0,1,28.4
Status,1774383225000,31,5,1,6,1575420000,31.90,311.7,31.9,1,0,1,26.9
Status,1774383225000,31,6,1,19,1575420000,30.30,275.4,13.6,1,0,1,25.3
Status,1774383225000,31,7,1,7,1575420000,29.80,198.6,11.7,1,0,1,24.8
Status,1774383225000,31,8,1,17,1575420000,22.70,250.7,10.1,1,0,1,17.7
Status,1774383225000,31,9,3,7,1604812500,37.00,343.2,58.8,1,0,1,32.0
Status,1774383225000,31,10,3,22,1600312400,35.20,244.1,50.5,1,0,1,30.2
Status,1774383225000,31,11,3,9,1600875000,24.00,122.0,26.5,1,0,1,19.0
Status,1774383225000,31,12,3,21,1604250000,28.20,186.5,10.2,1,0,1,23.2
Status,1774383225000,31,13,6,3,1575420000,35.60,35.5,69.1,1,0,1,30.6
Status,1774383225000,31,14,6,15,1575420000,34.00,203.6,67.3,1,0,1,29.0
Status,1774383225000,31,15,6,8,1575420000,31.00,250.6,51.7,1,0,1,26.0
Status,1774383225000,31,16,6,13,1575420000,29.20,309.6,42.7,1,0,1,24.2
Status,1774383225000,31,17,6,34,1575420000,30.90,159.3,22.0,1,0,1,25.9
Status,1774383225000,31,18,6,5,1575420000,28.10,55.1,18.0,1,0,1,23.1
Status,1774383225000,31,19,6,32,1575420000,34.20,269.0,76.8,0,1,1,29.2
Status,1774383225000,31,20,5,32,1575420000,39.00,27.0,67.4,1,0,1,34.0
Status,1774383225000,31,21,5,9,1561098000,32.60,73.9,47.8,1,0,1,27.6
Status,1774383225000,31,22,5,16,1561098000,29.10,50.6,33.8,1,0,1,24.1
Status,1774383225000,31,23,5,29,1575420000,32.00,288.4,28.8,1,0,1,27.0
Status,1774383225000,31,24,5,39,1575420000,31.60,45.0,28.2,1,0,1,26.6
Status,1774383225000,31,25,5,25,1575420000,35.20,51.3,20.5,1,0,1,30.2
Status,1774383225000,31,26,5,37,1575420000,29.20,158.6,18.7,1,0,1,24.2
Status,1774383225000,31,27,3,8,1602000000,13.50,280.0,25.9,0,1,1,8.5
Status,1774383225000,31,28,5,20,1561098000,23.90,286.9,36.6,0,1,1,18.9
Status,1774383225000,31,29,5,30,1561098000,20.50,229.2,30.0,0,1,1,15.5
Status,1774383225000,31,30,5,13,1561098000,14.60,108.3,8.8,0,1,1,9.6
Fix,GPS,40.8914847253,29.3794620316,184.0,0.02,5.0,0.0,1774383226000,0.11,180.0,211637702502558,5.0,0,,,
Status,1774383226000,31,0,1,4,1575420000,29.30,315.5,76.4,1,0,1,24.3
Status,1774383226000,31,1,1,3,1575420000,37.60,81.4,65.7,1,0,1,32.6
Status,1774383226000,31,2,1,9,1575420000,34.60,264.1,47.1,1,0,1,29.6
Status,1774383226000,31,3,1,31,1575420000,31.00,51.4,32.4,1,0,1,26.0
Status,1774383226000,31,4,1,1,1575420000,33.10,171.7,32.1,1,0,1,28.1
Status,1774383226000,31,5,1,6,1575420000,31.60,311.6,32.1,1,0,1,26.6
Status,1774383226000,31,6,1,19,1575420000,30.20,275.4,13.6,1,0,1,25.2
Status,1774383226000,31,7,1,7,1575420000,29.60,198.6,11.7,1,0,1,24.6
Status,1774383226000,31,8,1,17,1575420000,22.50,250.7,10.1,1,0,1,17.5
Status,1774383226000,31,9,3,7,1604812500,36.80,343.2,58.8,1,0,1,31.8
Status,1774383226000,31,10,3,22,1600312400,35.10,244.1,50.5,1,0,1,30.1
Status,1774383226000,31,11,3,9,1600875000,23.90,122.0,26.5,0,0,1,18.9
Status,1774383226000,31,12,3,21,1604250000,28.30,186.5,10.2,1,0,1,23.3
Status,1774383226000,31,13,6,3,1575420000,35.60,35.5,69.1,1,0,1,30.6
Status,1774383226000,31,14,6,15,1575420000,33.80,203.6,67.3,1,0,1,28.8
Status,1774383226000,31,15,6,8,1575420000,30.80,250.6,51.7,1,0,1,25.8
Status,1774383226000,31,16,6,13,1575420000,29.10,309.6,42.7,1,0,1,24.1
Status,1774383226000,31,17,6,34,1575420000,30.80,159.3,22.0,1,0,1,25.8
Status,1774383226000,31,18,6,5,1575420000,28.20,55.1,18.0,1,0,1,23.2
Status,1774383226000,31,19,6,32,1575420000,34.10,269.0,76.8,0,1,1,29.1
Status,1774383226000,31,20,5,32,1575420000,39.10,27.0,67.4,1,0,1,34.1
Status,1774383226000,31,21,5,9,1561098000,32.70,73.9,47.8,1,0,1,27.7
Status,1774383226000,31,22,5,16,1561098000,29.20,50.6,33.8,1,0,1,24.2
Status,1774383226000,31,23,5,29,1575420000,31.60,288.4,28.8,1,0,1,26.6
Status,1774383226000,31,24,5,39,1575420000,31.50,45.0,28.2,1,0,1,26.5
Status,1774383226000,31,25,5,25,1575420000,35.20,51.3,20.5,1,0,1,30.2
Status,1774383226000,31,26,5,37,1575420000,29.10,158.6,18.7,1,0,1,24.1
Status,1774383226000,31,27,3,8,1602000000,12.90,280.0,25.9,0,1,1,7.9
Status,1774383226000,31,28,5,20,1561098000,22.40,286.9,36.6,0,1,1,17.4
Status,1774383226000,31,29,5,30,1561098000,19.00,229.2,30.0,0,1,1,14.0
Status,1774383226000,31,30,5,13,1561098000,13.80,108.3,8.8,0,1,1,8.8
Fix,GPS,40.8914859407,29.3794618640,184.0,0.02,5.0,0.0,1774383227000,0.11,180.0,211638711880980,5.0,0,,,
Status,1774383227000,31,0,1,4,1575420000,29.10,315.5,76.4,1,0,1,24.1
Status,1774383227000,31,1,1,3,1575420000,37.60,81.4,65.7,1,0,1,32.6
Status,1774383227000,31,2,1,9,1575420000,34.50,264.1,47.1,1,0,1,29.5
Status,1774383227000,31,3,1,31,1575420000,30.90,51.4,32.4,1,0,1,25.9
Status,1774383227000,31,4,1,1,1575420000,32.90,171.7,32.1,1,0,1,27.9
Status,1774383227000,31,5,1,6,1575420000,31.30,311.6,32.1,1,0,1,26.3
Status,1774383227000,31,6,1,19,1575420000,30.20,275.4,13.6,0,0,1,25.2
Status,1774383227000,31,7,1,7,1575420000,29.30,198.6,11.9,0,0,1,24.3
Status,1774383227000,31,8,1,17,1575420000,22.40,250.7,10.1,1,0,1,17.4
Status,1774383227000,31,9,3,7,1604812500,36.70,343.2,58.8,1,0,1,31.7
Status,1774383227000,31,10,3,22,1600312400,35.00,244.1,50.5,1,0,1,30.0
Status,1774383227000,31,11,3,9,1600875000,23.80,122.0,26.5,1,0,1,18.8
Status,1774383227000,31,12,3,21,1604250000,28.40,186.5,10.2,0,0,1,23.4
Status,1774383227000,31,13,6,3,1575420000,35.60,35.5,69.1,1,0,1,30.6
Status,1774383227000,31,14,6,15,1575420000,33.70,203.6,67.3,1,0,1,28.7
Status,1774383227000,31,15,6,8,1575420000,30.60,250.6,51.7,1,0,1,25.6
Status,1774383227000,31,16,6,13,1575420000,29.00,309.6,42.7,1,0,1,24.0
Status,1774383227000,31,17,6,34,1575420000,30.70,159.3,22.0,1,0,1,25.7
Status,1774383227000,31,18,6,5,1575420000,28.20,55.1,18.0,1,0,1,23.2
Status,1774383227000,31,19,6,32,1575420000,33.90,269.0,76.8,0,1,1,28.9
Status,1774383227000,31,20,5,32,1575420000,39.20,27.0,67.4,1,0,1,34.2
Status,1774383227000,31,21,5,9,1561098000,32.80,73.9,47.8,1,0,1,27.8
Status,1774383227000,31,22,5,16,1561098000,29.30,50.6,33.8,1,0,1,24.3
Status,1774383227000,31,23,5,29,1575420000,31.10,288.4,28.8,1,0,1,26.1
Status,1774383227000,31,24,5,39,1575420000,31.50,45.0,28.2,1,0,1,26.5
Status,1774383227000,31,25,5,25,1575420000,35.20,51.3,20.5,1,0,1,30.2
Status,1774383227000,31,26,5,37,1575420000,29.00,158.6,18.7,1,0,1,24.0
Status,1774383227000,31,27,3,8,1602000000,12.20,280.0,25.9,0,1,1,7.2
Status,1774383227000,31,28,5,20,1561098000,20.90,286.9,36.6,0,1,1,15.9
Status,1774383227000,31,29,5,30,1561098000,17.50,229.2,30.0,0,1,1,12.5
Status,1774383227000,31,30,5,13,1561098000,13.10,108.5,8.8,0,1,1,8.1
Fix,GPS,40.8914853539,29.3794616964,183.0,0.0,5.0,,1774383228000,0.11,,211639708804671,5.0,0,,,
Status,1774383228000,30,0,1,4,1575420000,28.90,315.5,76.4,1,0,1,23.9
Status,1774383228000,30,1,1,3,1575420000,37.50,81.4,65.7,1,0,1,32.5
Status,1774383228000,30,2,1,9,1575420000,34.30,264.4,47.3,1,0,1,29.3
Status,1774383228000,30,3,1,31,1575420000,30.90,51.4,32.4,1,0,1,25.9
Status,1774383228000,30,4,1,1,1575420000,32.60,171.7,32.1,1,0,1,27.6
Status,1774383228000,30,5,1,6,1575420000,31.10,311.6,32.1,1,0,1,26.1
Status,1774383228000,30,6,1,19,1575420000,30.10,275.4,13.6,1,0,1,25.1
Status,1774383228000,30,7,1,7,1575420000,29.10,198.6,11.9,0,0,1,24.1
Status,1774383228000,30,8,1,17,1575420000,22.30,250.7,10.1,1,0,1,17.3
Status,1774383228000,30,9,3,7,1604812500,36.50,343.2,58.8,1,0,1,31.5
Status,1774383228000,30,10,3,22,1600312400,34.90,244.1,50.5,1,0,1,29.9
Status,1774383228000,30,11,3,9,1600875000,23.80,122.0,26.5,1,0,1,18.8
Status,1774383228000,30,12,3,21,1604250000,28.50,186.5,10.2,0,0,1,23.5
Status,1774383228000,30,13,6,3,1575420000,35.60,35.5,69.1,1,0,1,30.6
Status,1774383228000,30,14,6,15,1575420000,33.60,203.6,67.3,1,0,1,28.6
Status,1774383228000,30,15,6,8,1575420000,30.50,250.6,51.7,1,0,1,25.5
Status,1774383228000,30,16,6,13,1575420000,28.90,309.6,42.7,1,0,1,23.9
Status,1774383228000,30,17,6,34,1575420000,30.60,159.3,22.0,1,0,1,25.6
Status,1774383228000,30,18,6,5,1575420000,28.30,55.1,18.0,1,0,1,23.3
Status,1774383228000,30,19,6,32,1575420000,33.80,269.0,76.8,0,1,1,28.8
Status,1774383228000,30,20,5,32,1575420000,39.20,27.0,67.4,1,0,1,34.2
Status,1774383228000,30,21,5,9,1561098000,32.80,73.9,47.8,1,0,1,27.8
Status,1774383228000,30,22,5,16,1561098000,29.40,50.5,33.8,1,0,1,24.4
Status,1774383228000,30,23,5,29,1575420000,30.70,288.4,28.8,1,0,1,25.7
Status,1774383228000,30,24,5,39,1575420000,31.50,45.0,28.2,1,0,1,26.5
Status,1774383228000,30,25,5,25,1575420000,35.20,51.3,20.5,1,0,1,30.2
Status,1774383228000,30,26,5,37,1575420000,28.90,158.6,18.7,1,0,1,23.9
Status,1774383228000,30,27,5,20,1561098000,19.40,286.9,36.6,0,1,1,14.4
Status,1774383228000,30,28,5,30,1561098000,16.00,229.2,30.0,0,1,1,11.0
Status,1774383228000,30,29,5,13,1561098000,12.50,108.5,8.8,0,1,1,7.5
Fix,GPS,40.8914823784,29.3794632051,183.0,0.01,4.5,0.0,1774383229000,0.11,180.0,211640722935055,5.0,0,,,
Status,1774383229000,29,0,1,4,1575420000,28.70,315.5,76.4,1,0,1,23.7
Status,1774383229000,29,1,1,3,1575420000,37.50,81.4,65.7,1,0,1,32.5
Status,1774383229000,29,2,1,9,1575420000,34.20,264.4,47.3,1,0,1,29.2
Status,1774383229000,29,3,1,31,1575420000,30.80,51.4,32.4,1,0,1,25.8
Status,1774383229000,29,4,1,1,1575420000,32.00,171.7,32.1,1,0,1,27.0
Status,1774383229000,29,5,1,6,1575420000,30.90,311.6,32.1,1,0,1,25.9
Status,1774383229000,29,6,1,19,1575420000,30.10,275.1,13.4,1,0,1,25.1
Status,1774383229000,29,7,1,7,1575420000,28.80,198.6,11.9,1,0,1,23.8
Status,1774383229000,29,8,1,17,1575420000,22.20,250.5,10.0,1,0,1,17.2
Status,1774383229000,29,9,3,7,1604812500,36.40,343.4,58.8,1,0,1,31.4
Status,1774383229000,29,10,3,22,1600312400,34.90,244.0,50.5,1,0,1,29.9
Status,1774383229000,29,11,3,9,1600875000,23.70,121.9,26.5,1,0,1,18.7
Status,1774383229000,29,12,3,21,1604250000,28.50,186.5,10.2,1,0,1,23.5
Status,1774383229000,29,13,6,3,1575420000,35.50,35.5,69.1,1,0,1,30.5
Status,1774383229000,29,14,6,15,1575420000,33.40,203.6,67.3,1,0,1,28.4
Status,1774383229000,29,15,6,8,1575420000,30.40,250.6,51.7,1,0,1,25.4
Status,1774383229000,29,16,6,13,1575420000,28.80,309.6,42.7,1,0,1,23.8
Status,1774383229000,29,17,6,34,1575420000,30.60,159.3,22.0,1,0,1,25.6
Status,1774383229000,29,18,6,5,1575420000,28.30,55.1,18.0,1,0,1,23.3
Status,1774383229000,29,19,6,32,1575420000,33.60,269.0,76.8,0,1,1,28.6
Status,1774383229000,29,20,5,32,1575420000,39.30,27.6,67.3,1,0,1,34.3
Status,1774383229000,29,21,5,9,1561098000,32.90,73.9,47.8,1,0,1,27.9
Status,1774383229000,29,22,5,20,1575420000,26.70,287.2,36.8,1,0,1,21.7
Status,1774383229000,29,23,5,16,1561098000,29.50,50.5,33.8,1,0,1,24.5
Status,1774383229000,29,24,5,29,1575420000,30.20,288.1,28.8,1,0,1,25.2
Status,1774383229000,29,25,5,39,1575420000,31.40,44.9,28.1,1,0,1,26.4
Status,1774383229000,29,26,5,25,1575420000,35.20,51.1,20.4,1,0,1,30.2
Status,1774383229000,29,27,5,37,1575420000,28.90,158.5,18.9,1,0,1,23.9
Status,1774383229000,29,28,5,30,1561098000,14.50,229.0,29.8,0,1,1,9.5
Fix,GPS,40.8914830070,29.3794642109,184.0,0.0,4.5,,1774383230000,0.12,,211641697941055,5.0,0,,,
Status,1774383230000,29,0,1,4,1575420000,28.50,315.5,76.4,1,0,1,23.5
Status,1774383230000,29,1,1,3,1575420000,37.50,81.4,65.7,1,0,1,32.5
Status,1774383230000,29,2,1,9,1575420000,34.10,264.4,47.3,1,0,1,29.1
Status,1774383230000,29,3,1,31,1575420000,30.70,51.4,32.4,1,0,1,25.7
Status,1774383230000,29,4,1,1,1575420000,31.40,171.7,32.1,1,0,1,26.4
Status,1774383230000,29,5,1,6,1575420000,30.60,311.6,32.1,1,0,1,25.6
Status,1774383230000,29,6,1,19,1575420000,30.00,275.1,13.4,1,0,1,25.0
Status,1774383230000,29,7,1,7,1575420000,28.60,198.6,11.9,1,0,1,23.6
Status,1774383230000,29,8,1,17,1575420000,22.10,250.5,10.0,1,0,1,17.1
Status,1774383230000,29,9,3,7,1604812500,36.30,343.4,58.8,1,0,1,31.3
Status,1774383230000,29,10,3,22,1600312400,34.80,244.0,50.5,1,0,1,29.8
Status,1774383230000,29,11,3,9,1600875000,23.60,121.9,26.5,1,0,1,18.6
Status,1774383230000,29,12,3,21,1604250000,28.50,186.5,10.2,1,0,1,23.5
Status,1774383230000,29,13,6,3,1575420000,35.50,35.5,69.1,1,0,1,30.5
Status,1774383230000,29,14,6,15,1575420000,33.30,203.6,67.3,1,0,1,28.3
Status,1774383230000,29,15,6,8,1575420000,30.20,250.6,51.7,1,0,1,25.2
Status,1774383230000,29,16,6,13,1575420000,28.80,309.6,42.7,1,0,1,23.8
Status,1774383230000,29,17,6,34,1575420000,30.50,159.3,22.0,1,0,1,25.5
Status,1774383230000,29,18,6,5,1575420000,28.30,55.1,18.0,1,0,1,23.3
Status,1774383230000,29,19,6,32,1575420000,33.50,269.0,76.8,0,1,1,28.5
Status,1774383230000,29,20,5,32,1575420000,39.40,27.6,67.3,1,0,1,34.4
Status,1774383230000,29,21,5,9,1561098000,33.00,73.9,47.8,1,0,1,28.0
Status,1774383230000,29,22,5,20,1575420000,26.70,287.2,36.8,1,0,1,21.7
Status,1774383230000,29,23,5,16,1561098000,29.60,50.5,33.8,1,0,1,24.6
Status,1774383230000,29,24,5,29,1575420000,29.80,288.1,28.8,1,0,1,24.8
Status,1774383230000,29,25,5,39,1575420000,31.40,44.9,28.1,1,0,1,26.4
Status,1774383230000,29,26,5,25,1575420000,35.10,51.1,20.4,1,0,1,30.1
Status,1774383230000,29,27,5,37,1575420000,28.80,158.5,18.9,1,0,1,23.8
Status,1774383230000,29,28,5,30,1561098000,13.70,229.0,29.8,0,1,1,8.7
Fix,GPS,40.8914841805,29.3794672284,183.0,0.0,4.5,,1774383231000,0.12,,211642731743131,5.0,0,,,
Status,1774383231000,29,0,1,4,1575420000,28.30,315.5,76.4,1,0,1,23.3
Status,1774383231000,29,1,1,3,1575420000,37.40,81.4,65.7,1,0,1,32.4
Status,1774383231000,29,2,1,9,1575420000,34.00,264.4,47.3,1,0,1,29.0
Status,1774383231000,29,3,1,31,1575420000,30.70,51.2,32.2,1,0,1,25.7
Status,1774383231000,29,4,1,1,1575420000,30.80,171.7,32.1,1,0,1,25.8
Status,1774383231000,29,5,1,6,1575420000,30.50,311.6,32.1,1,0,1,25.5
Status,1774383231000,29,6,1,19,1575420000,29.90,275.1,13.4,0,0,1,24.9
Status,1774383231000,29,7,1,7,1575420000,28.40,198.6,11.9,0,0,1,23.4
Status,1774383231000,29,8,1,17,1575420000,22.10,250.5,10.0,1,0,1,17.1
Status,1774383231000,29,9,3,7,1604812500,36.10,343.4,58.8,1,0,1,31.1
Status,1774383231000,29,10,3,22,1600312400,34.80,244.0,50.5,1,0,1,29.8
Status,1774383231000,29,11,3,9,1600875000,23.50,121.9,26.5,1,0,1,18.5
Status,1774383231000,29,12,3,21,1604250000,28.50,186.5,10.2,0,0,1,23.5
Status,1774383231000,29,13,6,3,1575420000,35.50,35.5,69.1,1,0,1,30.5
Status,1774383231000,29,14,6,15,1575420000,33.20,203.6,67.3,1,0,1,28.2
Status,1774383231000,29,15,6,8,1575420000,30.10,250.6,51.7,1,0,1,25.1
Status,1774383231000,29,16,6,13,1575420000,28.70,309.6,42.7,1,0,1,23.7
Status,1774383231000,29,17,6,34,1575420000,30.50,159.3,22.0,1,0,1,25.5
Status,1774383231000,29,18,6,5,1575420000,28.40,55.1,18.0,1,0,1,23.4
Status,1774383231000,29,19,6,32,1575420000,33.40,269.0,76.8,0,1,1,28.4
Status,1774383231000,29,20,5,32,1575420000,39.40,27.6,67.3,1,0,1,34.4
Status,1774383231000,29,21,5,9,1561098000,33.10,73.9,47.8,1,0,1,28.1
Status,1774383231000,29,22,5,20,1575420000,26.70,287.2,36.8,0,0,1,21.7
Status,1774383231000,29,23,5,16,1561098000,29.60,50.5,33.8,1,0,1,24.6
Status,1774383231000,29,24,5,29,1575420000,29.40,288.1,28.8,1,0,1,24.4
Status,1774383231000,29,25,5,39,1575420000,31.50,44.9,28.1,1,0,1,26.5
Status,1774383231000,29,26,5,25,1575420000,35.10,51.1,20.4,1,0,1,30.1
Status,1774383231000,29,27,5,37,1575420000,28.70,158.5,18.9,1,0,1,23.7
Status,1774383231000,29,28,5,30,1561098000,13.00,229.0,29.8,0,1,1,8.0
Fix,GPS,40.8914842643,29.3794656359,183.0,0.01,4.5,0.0,1774383232000,0.12,180.0,211643722530669,5.0,0,,,
Status,1774383232000,29,0,1,4,1575420000,28.20,315.5,76.4,1,0,1,23.2
Status,1774383232000,29,1,1,3,1575420000,37.40,81.4,65.7,1,0,1,32.4
Status,1774383232000,29,2,1,9,1575420000,33.90,264.4,47.3,1,0,1,28.9
Status,1774383232000,29,3,1,31,1575420000,30.60,51.2,32.2,1,0,1,25.6
Status,1774383232000,29,4,1,1,1575420000,30.40,171.7,32.1,1,0,1,25.4
Status,1774383232000,29,5,1,6,1575420000,30.30,311.6,32.1,1,0,1,25.3
Status,1774383232000,29,6,1,19,1575420000,29.90,275.1,13.4,1,0,1,24.9
Status,1774383232000,29,7,1,7,1575420000,28.20,198.6,11.9,1,0,1,23.2
Status,1774383232000,29,8,1,17,1575420000,22.00,250.5,10.0,1,0,1,17.0
Status,1774383232000,29,9,3,7,1604812500,36.00,343.4,58.8,1,0,1,31.0
Status,1774383232000,29,10,3,22,1600312400,34.70,244.0,50.5,1,0,1,29.7
Status,1774383232000,29,11,3,9,1600875000,23.40,121.9,26.5,1,0,1,18.4
Status,1774383232000,29,12,3,21,1604250000,28.50,186.5,10.2,1,0,1,23.5
Status,1774383232000,29,13,6,3,1575420000,35.50,35.5,69.1,1,0,1,30.5
Status,1774383232000,29,14,6,15,1575420000,33.10,203.6,67.3,1,0,1,28.1
Status,1774383232000,29,15,6,8,1575420000,30.00,250.6,51.7,1,0,1,25.0
Status,1774383232000,29,16,6,13,1575420000,28.70,309.6,42.7,1,0,1,23.7
Status,1774383232000,29,17,6,34,1575420000,30.40,159.3,22.0,1,0,1,25.4
Status,1774383232000,29,18,6,5,1575420000,28.40,55.1,18.0,1,0,1,23.4
Status,1774383232000,29,19,6,32,1575420000,33.30,269.0,76.8,0,1,1,28.3
Status,1774383232000,29,20,5,32,1575420000,39.40,27.6,67.3,1,0,1,34.4
Status,1774383232000,29,21,5,9,1561098000,33.20,73.9,47.8,1,0,1,28.2
Status,1774383232000,29,22,5,20,1575420000,26.70,287.2,36.8,1,0,1,21.7
Status,1774383232000,29,23,5,16,1561098000,29.70,50.5,33.8,1,0,1,24.7
Status,1774383232000,29,24,5,39,1575420000,31.50,44.9,28.1,1,0,1,26.5
Status,1774383232000,29,25,5,25,1575420000,35.10,51.1,20.4,1,0,1,30.1
Status,1774383232000,29,26,5,37,1575420000,28.70,158.5,18.9,1,0,1,23.7
Status,1774383232000,29,27,5,30,1561098000,12.40,229.0,29.8,0,1,1,7.4
Status,1774383232000,29,28,5,29,1561098000,27.90,288.1,28.8,0,0,1,22.9
Fix,GPS,40.8914849767,29.3794639595,182.0,0.01,4.5,0.0,1774383233000,0.12,180.0,211644725433476,5.0,0,,,
Status,1774383233000,28,0,1,4,1575420000,28.00,315.5,76.4,1,0,1,23.0
Status,1774383233000,28,1,1,3,1575420000,37.40,81.4,65.7,1,0,1,32.4
Status,1774383233000,28,2,1,9,1575420000,33.80,264.4,47.3,1,0,1,28.8
Status,1774383233000,28,3,1,31,1575420000,30.60,51.2,32.2,1,0,1,25.6
Status,1774383233000,28,4,1,1,1575420000,30.00,171.7,32.1,1,0,1,25.0
Status,1774383233000,28,5,1,6,1575420000,30.10,311.6,32.1,1,0,1,25.1
Status,1774383233000,28,6,1,19,1575420000,29.80,275.1,13.4,1,0,1,24.8
Status,1774383233000,28,7,1,7,1575420000,28.00,198.6,11.9,1,0,1,23.0
Status,1774383233000,28,8,1,17,1575420000,22.10,250.5,10.0,1,0,1,17.1
Status,1774383233000,28,9,3,7,1604812500,35.90,343.4,58.8,1,0,1,30.9
Status,1774383233000,28,10,3,22,1600312400,34.70,244.0,50.5,1,0,1,29.7
Status,1774383233000,28,11,3,9,1600875000,23.30,121.9,26.5,0,0,1,18.3
Status,1774383233000,28,12,3,21,1604250000,28.50,186.5,10.2,1,0,1,23.5
Status,1774383233000,28,13,6,3,1575420000,35.50,35.5,69.1,1,0,1,30.5
Status,1774383233000,28,14,6,15,1575420000,33.00,203.6,67.3,1,0,1,28.0
Status,1774383233000,28,15,6,8,1575420000,30.00,250.6,51.7,1,0,1,25.0
Status,1774383233000,28,16,6,13,1575420000,28.70,309.6,42.7,1,0,1,23.7
Status,1774383233000,28,17,6,34,1575420000,30.40,159.3,22.0,1,0,1,25.4
Status,1774383233000,28,18,6,5,1575420000,28.40,55.1,18.0,1,0,1,23.4
Status,1774383233000,28,19,6,32,1575420000,33.20,269.0,76.8,0,1,1,28.2
Status,1774383233000,28,20,5,32,1575420000,39.40,27.6,67.3,1,0,1,34.4
Status,1774383233000,28,21,5,9,1561098000,33.20,73.9,47.8,1,0,1,28.2
Status,1774383233000,28,22,5,20,1575420000,26.70,287.2,36.8,1,0,1,21.7
Status,1774383233000,28,23,5,16,1561098000,29.70,50.5,33.8,1,0,1,24.7
Status,1774383233000,28,24,5,39,1575420000,31.60,44.9,28.1,1,0,1,26.6
Status,1774383233000,28,25,5,25,1575420000,35.10,51.1,20.4,1,0,1,30.1
Status,1774383233000,28,26,5,37,1575420000,28.70,158.5,18.9,1,0,1,23.7
Status,1774383233000,28,27,5,29,1561098000,26.40,288.1,28.8,0,1,1,21.4
Fix,GPS,40.8914841805,29.3794644624,182.0,0.0,4.5,,1774383234000,0.12,,211645735355744,5.0,0,,,
Status,1774383234000,28,0,1,4,1575420000,27.90,315.5,76.4,1,0,1,22.9
Status,1774383234000,28,1,1,3,1575420000,37.30,81.4,65.7,1,0,1,32.3
Status,1774383234000,28,2,1,9,1575420000,33.70,264.4,47.3,1,0,1,28.7
Status,1774383234000,28,3,1,31,1575420000,30.60,51.2,32.2,1,0,1,25.6
Status,1774383234000,28,4,1,1,1575420000,29.70,171.7,32.1,1,0,1,24.7
Status,1774383234000,28,5,1,6,1575420000,30.00,311.6,32.1,1,0,1,25.0
Status,1774383234000,28,6,1,19,1575420000,29.70,275.1,13.4,1,0,1,24.7
Status,1774383234000,28,7,1,7,1575420000,27.90,198.6,11.9,1,0,1,22.9
Status,1774383234000,28,8,1,17,1575420000,22.50,250.5,10.0,1,0,1,17.5
Status,1774383234000,28,9,3,7,1604812500,35.80,343.4,58.8,1,0,1,30.8
Status,1774383234000,28,10,3,22,1600312400,34.70,244.0,50.5,1,0,1,29.7
Status,1774383234000,28,11,3,9,1600875000,23.10,121.9,26.5,0,0,1,18.1
Status,1774383234000,28,12,3,21,1604250000,28.60,186.5,10.2,1,0,1,23.6
Status,1774383234000,28,13,6,3,1575420000,35.40,35.7,68.9,1,0,1,30.4
Status,1774383234000,28,14,6,15,1575420000,33.00,203.6,67.3,1,0,1,28.0
Status,1774383234000,28,15,6,8,1575420000,29.90,250.6,51.7,1,0,1,24.9
Status,1774383234000,28,16,6,13,1575420000,28.60,309.6,42.7,1,0,1,23.6
Status,1774383234000,28,17,6,34,1575420000,30.40,159.3,22.0,1,0,1,25.4
Status,1774383234000,28,18,6,5,1575420000,28.50,55.1,18.0,1,0,1,23.5
Status,1774383234000,28,19,6,32,1575420000,33.10,269.0,76.8,0,1,1,28.1
Status,1774383234000,28,20,5,32,1575420000,39.40,27.6,67.3,1,0,1,34.4
Status,1774383234000,28,21,5,9,1561098000,33.20,73.9,47.8,1,0,1,28.2
Status,1774383234000,28,22,5,20,1575420000,26.70,287.2,36.8,1,0,1,21.7
Status,1774383234000,28,23,5,16,1561098000,29.70,50.5,33.8,1,0,1,24.7
Status,1774383234000,28,24,5,39,1575420000,31.70,44.9,28.1,1,0,1,26.7
Status,1774383234000,28,25,5,25,1575420000,35.10,51.1,20.4,1,0,1,30.1
Status,1774383234000,28,26,5,37,1575420000,28.70,158.5,18.9,1,0,1,23.7
Status,1774383234000,28,27,5,29,1561098000,24.90,288.1,28.8,0,1,1,19.9
Fix,GPS,40.8914833423,29.3794647977,182.0,0.0,4.5,,1774383235000,0.12,,211646725994936,5.0,0,,,
Status,1774383235000,28,0,1,4,1575420000,27.80,315.5,76.4,1,0,1,22.8
Status,1774383235000,28,1,1,3,1575420000,37.30,81.4,65.7,1,0,1,32.3
Status,1774383235000,28,2,1,9,1575420000,33.70,264.4,47.3,1,0,1,28.7
Status,1774383235000,28,3,1,31,1575420000,30.50,51.2,32.2,1,0,1,25.5
Status,1774383235000,28,4,1,1,1575420000,29.50,171.7,32.1,1,0,1,24.5
Status,1774383235000,28,5,1,6,1575420000,29.80,311.6,32.1,1,0,1,24.8
Status,1774383235000,28,6,1,19,1575420000,29.60,275.1,13.4,1,0,1,24.6
Status,1774383235000,28,7,1,7,1575420000,27.70,198.6,11.9,1,0,1,22.7
Status,1774383235000,28,8,1,17,1575420000,22.80,250.5,10.0,1,0,1,17.8
Status,1774383235000,28,9,3,7,1604812500,35.70,343.4,58.8,1,0,1,30.7
Status,1774383235000,28,10,3,22,1600312400,34.70,244.0,50.5,1,0,1,29.7
Status,1774383235000,28,11,3,9,1600875000,23.00,121.9,26.5,1,0,1,18.0
Status,1774383235000,28,12,3,21,1604250000,28.70,186.5,10.2,1,0,1,23.7
Status,1774383235000,28,13,6,3,1575420000,35.40,35.7,68.9,1,0,1,30.4
Status,1774383235000,28,14,6,15,1575420000,32.90,203.6,67.3,1,0,1,27.9
Status,1774383235000,28,15,6,8,1575420000,29.80,250.6,51.7,1,0,1,24.8
Status,1774383235000,28,16,6,13,1575420000,28.60,309.6,42.7,1,0,1,23.6
Status,1774383235000,28,17,6,34,1575420000,30.40,159.3,22.0,1,0,1,25.4
Status,1774383235000,28,18,6,5,1575420000,28.60,55.2,17.9,1,0,1,23.6
Status,1774383235000,28,19,6,32,1575420000,33.00,269.0,76.8,0,1,1,28.0
Status,1774383235000,28,20,5,32,1575420000,39.40,27.6,67.3,1,0,1,34.4
Status,1774383235000,28,21,5,9,1561098000,33.20,73.9,47.8,1,0,1,28.2
Status,1774383235000,28,22,5,20,1575420000,26.70,287.2,36.8,1,0,1,21.7
Status,1774383235000,28,23,5,16,1561098000,29.80,50.5,33.8,1,0,1,24.8
Status,1774383235000,28,24,5,39,1575420000,31.70,44.9,28.1,1,0,1,26.7
Status,1774383235000,28,25,5,25,1575420000,35.10,51.1,20.4,1,0,1,30.1
Status,1774383235000,28,26,5,37,1575420000,28.70,158.5,18.9,1,0,1,23.7
Status,1774383235000,28,27,5,29,1561098000,23.40,288.1,28.8,0,1,1,18.4
Fix,GPS,40.8914820431,29.3794665579,182.0,0.02,4.5,0.0,1774383236000,0.12,180.0,211647728395204,5.0,0,,,
Status,1774383236000,29,0,1,4,1575420000,27.80,315.5,76.4,1,0,1,22.8
Status,1774383236000,29,1,1,3,1575420000,37.30,81.4,65.7,1,0,1,32.3
Status,1774383236000,29,2,1,9,1575420000,33.60,264.4,47.3,1,0,1,28.6
Status,1774383236000,29,3,1,31,1575420000,30.50,51.2,32.2,1,0,1,25.5
Status,1774383236000,29,4,1,1,1575420000,29.30,171.7,32.1,1,0,1,24.3
Status,1774383236000,29,5,1,6,1575420000,29.70,311.6,32.1,1,0,1,24.7
Status,1774383236000,29,6,1,19,1575420000,29.50,275.1,13.4,1,0,1,24.5
Status,1774383236000,29,7,1,7,1575420000,27.50,198.6,11.9,1,0,1,22.5
Status,1774383236000,29,8,1,17,1575420000,23.00,250.5,10.0,1,0,1,18.0
Status,1774383236000,29,9,3,7,1604812500,35.60,343.4,58.8,1,0,1,30.6
Status,1774383236000,29,10,3,22,1600312400,34.70,244.0,50.5,1,0,1,29.7
Status,1774383236000,29,11,3,9,1600875000,22.90,121.9,26.5,0,0,1,17.9
Status,1774383236000,29,12,3,8,1605375000,20.30,280.1,26.0,1,0,1,15.3
Status,1774383236000,29,13,3,21,1604250000,28.80,186.5,10.2,1,0,1,23.8
Status,1774383236000,29,14,6,3,1575420000,35.40,35.7,68.9,1,0,1,30.4
Status,1774383236000,29,15,6,15,1575420000,32.80,203.6,67.3,1,0,1,27.8
Status,1774383236000,29,16,6,8,1575420000,29.80,250.6,51.7,1,0,1,24.8
Status,1774383236000,29,17,6,13,1575420000,28.60,309.6,42.7,1,0,1,23.6
Status,1774383236000,29,18,6,34,1575420000,30.50,159.3,22.0,1,0,1,25.5
Status,1774383236000,29,19,6,5,1575420000,28.70,55.2,17.9,1,0,1,23.7
Status,1774383236000,29,20,6,32,1575420000,33.00,269.0,76.8,0,1,1,28.0
Status,1774383236000,29,21,5,32,1575420000,39.40,27.6,67.3,1,0,1,34.4
Status,1774383236000,29,22,5,9,1561098000,33.20,73.9,47.8,1,0,1,28.2
Status,1774383236000,29,23,5,20,1575420000,26.70,287.2,36.8,1,0,1,21.7
Status,1774383236000,29,24,5,16,1561098000,29.90,50.5,33.8,1,0,1,24.9
Status,1774383236000,29,25,5,39,1575420000,31.80,44.9,28.1,1,0,1,26.8
Status,1774383236000,29,26,5,25,1575420000,35.00,51.1,20.4,1,0,1,30.0
Status,1774383236000,29,27,5,37,1575420000,28.90,158.5,18.9,1,0,1,23.9
Status,1774383236000,29,28,5,29,1561098000,21.90,288.1,28.8,0,1,1,16.9
Fix,GPS,40.8914814563,29.3794677313,182.0,0.0,4.5,,1774383237000,0.12,,211648722796280,4.0,0,,,
Status,1774383237000,29,0,1,4,1575420000,27.70,315.5,76.4,1,0,1,22.7
Status,1774383237000,29,1,1,3,1575420000,37.30,81.4,65.7,1,0,1,32.3
Status,1774383237000,29,2,1,9,1575420000,33.50,264.4,47.3,1,0,1,28.5
Status,1774383237000,29,3,1,31,1575420000,30.50,51.2,32.2,1,0,1,25.5
Status,1774383237000,29,4,1,1,1575420000,29.20,171.7,32.1,1,0,1,24.2
Status,1774383237000,29,5,1,6,1575420000,29.60,311.6,32.1,1,0,1,24.6
Status,1774383237000,29,6,1,19,1575420000,29.40,275.1,13.4,1,0,1,24.4
Status,1774383237000,29,7,1,7,1575420000,27.40,198.6,11.9,1,0,1,22.4
Status,1774383237000,29,8,1,17,1575420000,23.00,250.5,10.0,1,0,1,18.0
Status,1774383237000,29,9,3,7,1604812500,35.50,343.4,58.8,1,0,1,30.5
Status,1774383237000,29,10,3,22,1600312400,34.80,244.0,50.5,1,0,1,29.8
