Fix,GPS,40.8914827136,29.3794878479,189.0,0.32,5.5,249.3,1774383213000,1.59,139.3,211624715435067,7.0,0,,,
Fix,GPS,40.8914861083,29.3794885185,189.0,0.19999999,6.5,315.4,1774383214000,2.25,180.0,211625708281489,7.0,0,,,
Fix,GPS,40.8914882457,29.3794810586,189.0,0.089999996,6.5,0.0,1774383215000,0.45,180.0,211626715131758,7.0,0,,,
Fix,GPS,40.8914864017,29.3794663902,188.0,0.03,6.0,0.0,1774383216000,0.15,180.0,211627729914565,6.0,0,,,
Fix,GPS,40.8914877428,29.3794638757,187.0,0.01,6.0,0.0,1774383217000,0.13,180.0,211628716098064,6.0,0,,,
Fix,GPS,40.8914882457,29.3794603553,187.0,0.0,6.0,,1774383218000,0.13,,211629713606525,6.0,0,,,
Fix,GPS,40.8914892515,29.3794539012,186.0,0.01,5.5,0.0,1774383219000,0.11,180.0,211630721818062,6.0,0,,,
Fix,GPS,40.8914892096,29.3794520572,185.0,0.01,5.5,0.0,1774383220000,0.11,180.0,211631723417716,6.0,0,,,
Fix,GPS,40.8914859826,29.3794565834,185.0,0.01,5.5,0.0,1774383221000,0.12,180.0,211632720206176,6.0,0,,,
Fix,GPS,40.8914879942,29.3794575054,185.0,0.01,5.5,0.0,1774383222000,0.12,180.0,211633723226983,6.0,0,,,
Fix,GPS,40.8914887486,29.3794572540,184.0,0.0,5.5,,1774383223000,0.12,,211634703039137,6.0,0,,,
Fix,GPS,40.8914882457,29.3794592656,185.0,0.01,5.5,0.0,1774383224000,0.12,180.0,211635713024559,6.0,0,,,
Fix,GPS,40.8914851444,29.3794610258,184.0,0.04,5.0,0.0,1774383225000,0.11,180.0,211636705962674,5.0,0,,,
Fix,GPS,40.8914847253,29.3794620316,184.0,0.02,5.0,0.0,1774383226000,0.11,180.0,211637702502558,5.0,0,,,
Fix,GPS,40.8914859407,29.3794618640,184.0,0.02,5.0,0.0,1774383227000,0.11,180.0,211638711880980,5.0,0,,,
Fix,GPS,40.8914853539,29.3794616964,183.0,0.0,5.0,,1774383228000,0.11,,211639708804671,5.0,0,,,
Fix,GPS,40.8914823784,29.3794632051,183.0,0.01,4.5,0.0,1774383229000,0.11,180.0,211640722935055,5.0,0,,,
Fix,GPS,40.8914830070,29.3794642109,184.0,0.0,4.5,,1774383230000,0.12,,211641697941055,5.0,0,,,
Fix,GPS,40.8914841805,29.3794672284,183.0,0.0,4.5,,1774383231000,0.12,,211642731743131,5.0,0,,,
Fix,GPS,40.8914842643,29.3794656359,183.0,0.01,4.5,0.0,1774383232000,0.12,180.0,211643722530669,5.0,0,,,
Fix,GPS,40.8914849767,29.3794639595,182.0,0.01,4.5,0.0,1774383233000,0.12,180.0,211644725433476,5.0,0,,,
Fix,GPS,40.8914841805,29.3794644624,182.0,0.0,4.5,,1774383234000,0.12,,211645735355744,5.0,0,,,
Fix,GPS,40.8914833423,29.3794647977,182.0,0.0,4.5,,1774383235000,0.12,,211646725994936,5.0,0,,,
Fix,GPS,40.8914820431,29.3794665579,182.0,0.02,4.5,0.0,1774383236000,0.12,180.0,211647728395204,5.0,0,,,
Fix,GPS,40.8914814563,29.3794677313,182.0,0.0,4.5,,1774383237000,0.12,,211648722796280,4.0,0,,,
Fix,GPS,40.8914822945,29.3794683181,182.0,0.01,4.0,0.0,1774383238000,0.11,180.0,211649716393934,4.0,0,,,
Fix,GPS,40.8914838871,29.3794692401,182.0,0.02,4.0,0.0,1774383239000,0.11,180.0,211650723025317,4.0,0,,,
Fix,GPS,40.8914848091,29.3794689886,183.0,0.02,4.0,0.0,1774383240000,0.11,180.0,211651726531047,4.0,0,,,
Fix,GPS,40.8914844319,29.3794709165,183.0,0.01,4.0,0.0,1774383241000,0.11,180.0,211652730087662,4.0,0,,,
Fix,GPS,40.8914848510,29.3794712517,183.0,0.01,4.0,0.0,1774383242000,0.12,180.0,211653730327161,4.0,0,,,
Fix,GPS,40.8914844319,29.3794725928,183.0,0.01,3.5,0.0,1774383243000,0.12,180.0,211654725051738,4.0,0,,,
Fix,GPS,40.8914843062,29.3794718385,183.0,0.03,3.5,0.0,1774383244000,0.12,180.0,211655736143545,4.0,0,,,
Fix,GPS,40.8914850606,29.3794736825,183.0,0.04,3.5,0.0,1774383245000,0.12,180.0,211656731105659,4.0,0,,,
Fix,GPS,40.8914861502,29.3794744369,183.0,0.06,3.5,0.0,1774383246000,0.12,180.0,211657733734159,4.0,0,,,
Fix,GPS,40.8914853120,29.3794746045,183.0,0.03,3.5,0.0,1774383247000,0.12,180.0,211658720576735,4.0,0,,,
Fix,GPS,40.8914856054,29.3794752751,183.0,0.049999997,3.5,0.0,1774383248000,0.11,180.0,211659732219234,4.0,0,,,
Fix,GPS,40.8914835518,29.3794763647,183.0,0.049999997,3.5,0.0,1774383249000,0.11,180.0,211660720897503,4.0,0,,,
Fix,GPS,40.8914852701,29.3794790469,184.0,0.03,4.0,0.0,1774383250000,0.11,180.0,211661726625463,4.0,0,,,
Fix,GPS,40.8914860664,29.3794787116,184.0,0.02,3.5,0.0,1774383251000,0.11,180.0,211662726244578,4.0,0,,,
Fix,GPS,40.8914877009,29.3794803880,184.0,0.03,3.5,0.0,1774383252000,0.11,180.0,211663723496116,3.0,0,,,
Fix,GPS,40.8914878266,29.3794827349,184.0,0.04,3.5,0.0,1774383253000,0.11,180.0,211664724191577,4.0,0,,,
Fix,GPS,40.8914878266,29.3794844951,184.0,0.02,3.5,0.0,1774383254000,0.1,180.0,211665731714537,4.0,0,,,
Fix,GPS,40.8914898802,29.3794855848,184.0,0.0,3.5,,1774383255000,0.13,,211666737119768,4.0,0,,,
Fix,GPS,40.8914903831,29.3794863392,184.0,0.0,3.5,,1774383256000,0.13,,211667724529767,4.0,0,,,
Fix,GPS,40.8914912213,29.3794868421,185.0,0.02,3.5,0.0,1774383257000,0.12,180.0,211668704559728,4.0,0,,,
Fix,GPS,40.8914926462,29.3794870097,185.0,0.07,3.5,0.0,1774383258000,0.13,180.0,211669732070304,3.0,0,,,
Fix,GPS,40.8914928976,29.3794875126,185.0,0.04,3.5,0.0,1774383259000,0.12,180.0,211670730729880,3.0,0,,,
Fix,GPS,40.8914921852,29.3794885185,185.0,0.03,3.5,0.0,1774383260000,0.1,180.0,211671730596879,3.0,0,,,
Fix,GPS,40.8914928138,29.3794891052,185.0,0.01,3.0,0.0,1774383261000,0.11,180.0,211672726514071,3.0,0,,,
Fix,GPS,40.8914942387,29.3794889376,185.0,0.03,3.0,0.0,1774383262000,0.1,180.0,211673729960993,3.0,0,,,
Fix,GPS,40.8914937777,29.3794897757,186.0,0.01,3.5,0.0,1774383263000,0.13,180.0,211674756190723,3.0,0,,,
Fix,GPS,40.8914942387,29.3794907816,186.0,0.03,3.5,0.0,1774383264000,0.13,180.0,211675726441300,3.0,0,,,
Fix,GPS,40.8914941130,29.3794917874,185.0,0.01,3.5,0.0,1774383265000,0.13,180.0,211676737026030,3.0,0,,,
Fix,GPS,40.8914934425,29.3794940505,186.0,0.03,3.5,0.0,1774383266000,0.13,180.0,211677725350029,3.0,0,,,
Fix,GPS,40.8914910955,29.3794943020,185.0,0.04,3.0,0.0,1774383267000,0.1,180.0,211678726250067,3.0,0,,,
Fix,GPS,40.8914908860,29.3794943020,186.0,0.0,3.0,,1774383268000,0.1,,211679738775258,3.0,0,,,
Fix,GPS,40.8914914308,29.3794949725,186.0,0.04,3.5,0.0,1774383269000,0.11,180.0,211680698970104,3.0,0,,,
Fix,GPS,40.8914918080,29.3794958945,186.0,0.04,3.0,0.0,1774383270000,0.13,180.0,211681734599257,3.0,0,,,
Fix,GPS,40.8914913889,29.3794971518,186.0,0.02,3.5,0.0,1774383271000,0.12,180.0,211682738829871,3.0,0,,,
Fix,GPS,40.8914914308,29.3794982415,186.0,0.03,3.0,0.0,1774383272000,0.13,180.0,211683728382794,3.0,0,,,
Fix,GPS,40.8914895030,29.3794975709,186.0,0.03,3.5,0.0,1774383273000,0.12,180.0,211684714743024,3.0,0,,,
Fix,GPS,40.8914902154,29.3794977386,186.0,0.04,3.0,0.0,1774383274000,0.13,180.0,211685727455600,3.0,0,,,
Fix,GPS,40.8914905926,29.3794977386,186.0,0.0,3.0,,1774383275000,0.12,,211686726163599,3.0,0,,,
Fix,GPS,40.8914905088,29.3794983253,186.0,0.04,3.0,0.0,1774383276000,0.11,180.0,211687736106752,3.0,0,,,
Fix,GPS,40.8914902993,29.3794986606,186.0,0.099999994,3.0,0.0,1774383277000,0.11,180.0,211688717698444,3.0,0,,,
Fix,GPS,40.8914903412,29.3794986606,186.0,0.08,3.0,0.0,1774383278000,0.1,180.0,211689741176905,3.0,0,,,
Fix,GPS,40.8914910536,29.3795002531,186.0,0.07,3.0,0.0,1774383279000,0.11,180.0,211690716578789,3.0,0,,,
Fix,GPS,40.8914916823,29.3795018457,187.0,0.07,3.0,0.0,1774383280000,0.11,180.0,211691721937634,3.0,0,,,
Fix,GPS,40.8914917661,29.3795036897,187.0,0.099999994,3.0,0.0,1774383281000,0.11,180.0,211692723836864,3.0,0,,,
Fix,GPS,40.8914924785,29.3795041088,187.0,0.06,3.0,0.0,1774383282000,0.1,180.0,211693717683248,3.0,0,,,
Fix,GPS,40.8914921014,29.3795046955,187.0,0.03,3.0,0.0,1774383283000,0.1,180.0,211694731411978,3.0,0,,,
Fix,GPS,40.8914917242,29.3795053661,187.0,0.01,3.0,0.0,1774383284000,0.13,180.0,211695728404285,3.0,0,,,
Fix,GPS,40.8914922690,29.3795056175,187.0,0.0,3.0,,1774383285000,0.13,,211696729473054,3.0,0,,,
Fix,GPS,40.8914929396,29.3795052823,187.0,0.089999996,3.0,0.0,1774383286000,0.12,180.0,211697717061361,3.0,0,,,
Fix,GPS,40.8914934425,29.3795060366,187.0,0.01,3.0,0.0,1774383287000,0.12,180.0,211698737965552,3.0,0,,,
Fix,GPS,40.8914940292,29.3795064557,187.0,0.02,3.0,0.0,1774383288000,0.11,180.0,211699730846244,3.0,0,,,
Fix,GPS,40.8914937777,29.3795072939,187.0,0.03,3.0,0.0,1774383289000,0.11,180.0,211700736681051,3.0,0,,,
Fix,GPS,40.8914944902,29.3795088027,187.0,0.049999997,3.0,0.0,1774383290000,0.11,180.0,211701724394204,3.0,0,,,
Fix,GPS,40.8914959570,29.3795103952,187.0,0.07,3.0,0.0,1774383291000,0.11,180.0,211702698930780,3.0,0,,,
Fix,GPS,40.8914955379,29.3795122392,187.0,0.04,3.0,0.0,1774383292000,0.12,180.0,211703706713126,3.0,0,,,
Fix,GPS,40.8914955799,29.3795121554,187.0,0.02,3.0,0.0,1774383293000,0.13,180.0,211704696030433,3.0,0,,,
Fix,GPS,40.8914961666,29.3795118202,187.0,0.02,3.0,0.0,1774383294000,0.11,180.0,211705717593893,3.0,0,,,
Fix,GPS,40.8914958313,29.3795128260,187.0,0.02,3.0,0.0,1774383295000,0.12,180.0,211706723809662,3.0,0,,,
Fix,GPS,40.8914952446,29.3795127422,187.0,0.0,3.0,,1774383296000,0.13,,211707710225584,3.0,0,,,
Fix,GPS,40.8914953703,29.3795120716,187.0,0.0,3.0,,1774383297000,0.13,,211708731124776,3.0,0,,,
Fix,GPS,40.8914956637,29.3795120716,187.0,0.0,3.0,,1774383298000,0.13,,211709720012006,3.0,0,,,
Fix,GPS,40.8914954122,29.3795122392,187.0,0.02,3.0,0.0,1774383299000,0.11,180.0,211710716841659,3.0,0,,,
Fix,GPS,40.8914960409,29.3795134127,188.0,0.08,3.0,0.0,1774383300000,0.12,180.0,211711719919697,3.0,0,,,
Fix,GPS,40.8914959151,29.3795147538,188.0,0.08,3.0,0.0,1774383301000,0.13,180.0,211712734989965,3.0,0,,,
Fix,GPS,40.8914959570,29.3795149215,188.0,0.03,3.0,0.0,1774383302000,0.13,180.0,211713724537234,3.0,0,,,
Fix,GPS,40.8914951608,29.3795150891,188.0,0.01,3.0,0.0,1774383303000,0.13,180.0,211714727460464,3.0,0,,,
Fix,GPS,40.8914959151,29.3795145024,188.0,0.11,3.0,0.0,1774383304000,0.13,180.0,211715717505079,3.0,0,,,
Fix,GPS,40.8914952027,29.3795139156,188.0,0.11,3.0,0.0,1774383305000,0.13,180.0,211716726621501,3.0,0,,,
Fix,GPS,40.8914953284,29.3795137480,188.0,0.04,2.5,0.0,1774383306000,0.13,180.0,211717717385616,3.0,0,,,
Fix,GPS,40.8914927300,29.3795143347,188.0,0.02,3.0,0.0,1774383307000,0.11,180.0,211718732309269,3.0,0,,,
Fix,GPS,40.8914936520,29.3795142509,188.0,0.07,3.0,0.0,1774383308000,0.12,180.0,211719718940499,3.0,0,,,
Fix,GPS,40.8914933586,29.3795139156,188.0,0.03,3.0,0.0,1774383309000,0.13,180.0,211720726867229,3.0,0,,,
Fix,GPS,40.8914931072,29.3795139156,188.0,0.0,2.5,,1774383310000,0.01,,211721725851882,3.0,0,,,
Fix,GPS,40.8914931072,29.3795139156,188.0,0.0,2.5,,1774383311000,0.01,,211722727537458,3.0,0,,,
Fix,GPS,40.8914931072,29.3795139156,188.0,0.0,2.5,,1774383312000,0.01,,211723691118919,3.0,0,,,
Fix,GPS,40.8914931072,29.3795139156,188.0,0.0,2.5,,1774383313000,0.01,,211724701405726,3.0,0,,,
Fix,GPS,40.8914931072,29.3795139156,188.0,0.0,2.0,,1774383314000,0.12,,211725690415802,2.0,0,,,
Fix,GPS,40.8914931072,29.3795139156,188.0,0.0,2.5,,1774383315000,0.13,,211726720841532,2.0,0,,,
Fix,GPS,40.8914931072,29.3795139156,188.0,0.0,2.0,,1774383316000,0.13,,211727721551916,2.0,0,,,
Fix,GPS,40.8914931072,29.3795139156,188.0,0.0,2.0,,1774383317000,0.13,,211728727513031,2.0,0,,,
Fix,GPS,40.8914931072,29.3795139156,188.0,0.0,2.5,,1774383318000,0.01,,211729705041838,2.0,0,,,
Fix,GPS,40.8914931072,29.3795139156,188.0,0.0,2.5,,1774383319000,0.03,,211730719529991,2.0,0,,,
Fix,GPS,40.8914931072,29.3795139156,188.0,0.0,2.0,,1774383320000,0.01,,211731710715759,2.0,0,,,
Fix,GPS,40.8914931072,29.3795139156,188.0,0.0,2.5,,1774383321000,0.01,,211732715131643,2.0,0,,,
Fix,GPS,40.8914931072,29.3795139156,188.0,0.0,2.5,,1774383322000,0.01,,211733726500066,2.0,0,,,
Fix,GPS,40.8914931072,29.3795139156,188.0,0.0,2.5,,1774383323000,0.01,,211734727093142,2.0,0,,,
Fix,GPS,40.8914931072,29.3795139156,188.0,0.0,2.0,,1774383324000,0.02,,211735726070218,2.0,0,,,
Fix,GPS,40.8914931072,29.3795139156,188.0,0.0,2.5,,1774383325000,0.04,,211736730788256,3.0,0,,,
Fix,GPS,40.8914931072,29.3795139156,188.0,0.0,2.5,,1774383326000,0.01,,211737733664294,2.0,0,,,
Fix,GPS,40.8914931072,29.3795139156,188.0,0.0,2.5,,1774383327000,0.12,,211738721692101,2.0,0,,,
Fix,GPS,40.8914931072,29.3795139156,188.0,0.0,2.5,,1774383328000,0.13,,211739714401831,2.0,0,,,
Fix,GPS,40.8914931072,29.3795139156,188.0,0.0,2.5,,1774383329000,0.01,,211740728532253,3.0,0,,,
Fix,GPS,40.8914931072,29.3795139156,188.0,0.0,3.0,,1774383330000,0.01,,211741737008637,3.0,0,,,
Fix,GPS,40.8914931072,29.3795139156,188.0,0.0,2.5,,1774383331000,0.01,,211742723335636,3.0,0,,,
Fix,GPS,40.8914931072,29.3795139156,188.0,0.0,2.5,,1774383332000,0.12,,211743725581520,2.0,0,,,
Fix,GPS,40.8914931072,29.3795139156,188.0,0.0,2.5,,1774383333000,0.13,,211744727460981,2.0,0,,,
Fix,GPS,40.8914931072,29.3795139156,188.0,0.0,2.5,,1774383334000,0.13,,211745730570096,2.0,0,,,
Fix,GPS,40.8914931072,29.3795139156,188.0,0.0,2.5,,1774383335000,0.04,,211746722234249,2.0,0,,,
Fix,GPS,40.8914931072,29.3795139156,188.0,0.0,3.0,,1774383336000,0.04,,211747735603056,3.0,0,,,
Fix,GPS,40.8914931072,29.3795139156,188.0,0.0,3.0,,1774383337000,0.02,,211748734867593,3.0,0,,,
Fix,GPS,40.8914931072,29.3795139156,188.0,0.0,2.5,,1774383338000,0.01,,211749726270824,3.0,0,,,
Fix,GPS,40.8914931072,29.3795139156,188.0,0.0,2.5,,1774383339000,0.01,,211750741444323,2.0,0,,,
Fix,GPS,40.8914931072,29.3795139156,188.0,0.0,2.5,,1774383340000,0.02,,211751740293284,3.0,0,,,
Fix,GPS,40.8914931072,29.3795139156,188.0,0.0,3.0,,1774383341000,0.04,,211752729692091,3.0,0,,,
Fix,GPS,40.8914931072,29.3795139156,188.0,0.0,2.5,,1774383342000,0.02,,211753734362628,2.0,0,,,
Fix,GPS,40.8914931072,29.3795139156,188.0,0.0,2.5,,1774383343000,0.01,,211754725032820,3.0,0,,,
Fix,GPS,40.8914931072,29.3795139156,188.0,0.0,3.0,,1774383344000,0.01,,211755694148550,3.0,0,,,
Fix,GPS,40.8914931072,29.3795139156,188.0,0.0,2.0,,1774383345000,0.01,,211756703021742,2.0,0,,,
Fix,GPS,40.8914931072,29.3795139156,188.0,0.0,2.0,,1774383346000,0.12,,211757715992241,2.0,0,,,
Fix,GPS,40.8914931072,29.3795139156,188.0,0.0,2.5,,1774383347000,0.01,,211758701960894,2.0,0,,,
Fix,GPS,40.8914931072,29.3795139156,188.0,0.0,2.5,,1774383348000,0.02,,211759707835163,2.0,0,,,
Fix,GPS,40.8914902573,29.3795173522,187.0,0.52,2.5,161.0,1774383349000,0.66,27.3,211760717704585,2.0,0,,,
Fix,GPS,40.8914913470,29.3795168493,188.0,0.0,2.5,,1774383350000,0.01,,211761718887430,2.0,0,,,
Fix,GPS,40.8914913470,29.3795168493,188.0,0.0,3.0,,1774383351000,0.01,,211762718953199,3.0,0,,,
Fix,GPS,40.8914905088,29.3795178551,187.0,0.41,3.0,171.0,1774383352000,0.87,42.5,211763717728544,3.0,0,,,
Fix,GPS,40.8914914727,29.3795175198,188.0,0.0,3.0,,1774383353000,0.03,,211764723496659,3.0,0,,,
Fix,GPS,40.8914914727,29.3795175198,188.0,0.0,3.0,,1774383354000,0.01,,211765708338466,3.0,0,,,
Fix,GPS,40.8914914727,29.3795175198,188.0,0.0,3.0,,1774383355000,0.01,,211766706717965,3.0,0,,,
Fix,GPS,40.8914914727,29.3795175198,188.0,0.0,3.0,,1774383356000,0.03,,211767699648234,3.0,0,,,
Fix,GPS,40.8914933586,29.3795166817,188.0,0.55,3.0,333.2,1774383357000,0.78,37.9,211768691245541,3.0,0,,,
Fix,GPS,40.8914957056,29.3795171846,188.0,0.34,3.5,355.5,1774383358000,0.36,22.0,211769700681040,3.0,0,,,
Fix,GPS,40.8914968371,29.3795183580,188.0,0.17,4.0,49.0,1774383359000,0.37,66.8,211770723683193,3.0,0,,,
Fix,GPS,40.8914969210,29.3795189448,188.0,0.0,3.5,,1774383360000,0.15,,211771720938654,3.0,0,,,
Fix,GPS,40.8914969210,29.3795189448,188.0,0.0,4.0,,1774383361000,0.04,,211772724509807,3.0,0,,,
Fix,GPS,40.8914969210,29.3795189448,188.0,0.0,3.5,,1774383362000,0.04,,211773702348883,3.0,0,,,
Fix,GPS,40.8914969210,29.3795189448,188.0,0.0,3.5,,1774383363000,0.02,,211774701867690,3.0,0,,,
Fix,GPS,40.8914969210,29.3795189448,188.0,0.0,3.5,,1774383364000,0.12,,211775714290651,3.0,0,,,
Fix,GPS,40.8914969210,29.3795189448,188.0,0.0,3.5,,1774383365000,0.03,,211776715547535,3.0,0,,,
Fix,GPS,40.8914969210,29.3795189448,188.0,0.0,4.0,,1774383366000,0.05,,211777720425957,3.0,0,,,
Fix,GPS,40.8914969210,29.3795189448,188.0,0.0,3.5,,1774383367000,0.02,,211778716808149,3.0,0,,,
Fix,GPS,40.8914969210,29.3795189448,188.0,0.0,3.5,,1774383368000,0.02,,211779700466456,3.0,0,,,
Fix,GPS,40.8914969210,29.3795189448,188.0,0.0,3.5,,1774383369000,0.02,,211780727002494,3.0,0,,,
Fix,GPS,40.8914969210,29.3795189448,188.0,0.0,3.0,,1774383370000,0.12,,211781720866262,3.0,0,,,
Fix,GPS,40.8914969210,29.3795189448,188.0,0.0,4.0,,1774383371000,0.03,,211782730641146,3.0,0,,,
Fix,GPS,40.8914969210,29.3795189448,188.0,0.0,3.0,,1774383372000,0.01,,211783717623761,3.0,0,,,
Fix,GPS,40.8914969210,29.3795189448,188.0,0.0,3.5,,1774383373000,0.01,,211784721094991,3.0,0,,,
Fix,GPS,40.8914969210,29.3795189448,188.0,0.0,3.5,,1774383374000,0.02,,211785723738913,3.0,0,,,
Fix,GPS,40.8914969210,29.3795189448,188.0,0.0,4.0,,1774383375000,0.01,,211786692483836,3.0,0,,,
Fix,GPS,40.8914969210,29.3795189448,188.0,0.0,4.0,,1774383376000,0.02,,211787718967681,4.0,0,,,
Fix,GPS,40.8914969210,29.3795189448,188.0,0.0,3.5,,1774383377000,0.03,,211788725143103,3.0,0,,,
Fix,GPS,40.8914969210,29.3795189448,188.0,0.0,3.5,,1774383378000,0.02,,211789718647256,3.0,0,,,
Fix,GPS,40.8914969210,29.3795189448,188.0,0.0,3.5,,1774383379000,0.03,,211790727014025,3.0,0,,,
Fix,GPS,40.8914969210,29.3795189448,188.0,0.0,3.5,,1774383380000,0.01,,211791711890294,3.0,0,,,
Fix,GPS,40.8914969210,29.3795189448,188.0,0.0,4.0,,1774383381000,0.03,,211792727293254,3.0,0,,,
Fix,GPS,40.8914969210,29.3795189448,188.0,0.0,3.5,,1774383382000,0.08,,211793726780177,3.0,0,,,
Fix,GPS,40.8914969210,29.3795189448,188.0,0.0,4.0,,1774383383000,0.05,,211794706716214,3.0,0,,,
Fix,GPS,40.8914969210,29.3795189448,188.0,0.0,4.0,,1774383384000,0.03,,211795704063944,3.0,0,,,
Fix,GPS,40.8914969210,29.3795189448,188.0,0.0,4.0,,1774383385000,0.01,,211796720911905,3.0,0,,,
Fix,GPS,40.8914969210,29.3795189448,188.0,0.0,3.5,,1774383386000,0.01,,211797714049789,3.0,0,,,
Fix,GPS,40.8914969210,29.3795189448,188.0,0.0,3.5,,1774383387000,0.01,,211798722635904,3.0,0,,,
Fix,GPS,40.8914969210,29.3795189448,188.0,0.0,3.5,,1774383388000,0.02,,211799711937403,3.0,0,,,
Fix,GPS,40.8914969210,29.3795189448,188.0,0.0,3.5,,1774383389000,0.01,,211800732521787,3.0,0,,,
Fix,GPS,40.8914969210,29.3795189448,188.0,0.0,4.0,,1774383390000,0.01,,211801726808094,3.0,0,,,
Fix,GPS,40.8914969210,29.3795189448,188.0,0.0,4.0,,1774383391000,0.03,,211802725780516,3.0,0,,,
Fix,GPS,40.8914969210,29.3795189448,188.0,0.0,3.5,,1774383392000,0.06,,211803717158208,3.0,0,,,
Fix,GPS,40.8914969210,29.3795189448,188.0,0.0,3.5,,1774383393000,0.12,,211804723788861,3.0,0,,,
Fix,GPS,40.8914969210,29.3795189448,188.0,0.0,3.5,,1774383394000,0.13,,211805726455899,3.0,0,,,
Fix,GPS,40.8914969210,29.3795189448,188.0,0.0,4.0,,1774383395000,0.13,,211806723732360,3.0,0,,,
Fix,GPS,40.8914969210,29.3795189448,188.0,0.0,3.5,,1774383396000,0.13,,211807736529282,3.0,0,,,
Fix,GPS,40.8914969210,29.3795189448,188.0,0.0,4.5,,1774383397000,0.01,,211808722058974,4.0,0,,,
Fix,GPS,40.8914969210,29.3795189448,188.0,0.0,4.0,,1774383398000,0.03,,211809729944396,4.0,0,,,
Fix,GPS,40.8914969210,29.3795189448,188.0,0.0,4.0,,1774383399000,0.01,,211810727945741,4.0,0,,,
Fix,GPS,40.8914969210,29.3795189448,188.0,0.0,4.0,,1774383400000,0.02,,211811726507048,3.0,0,,,
Fix,GPS,40.8914969210,29.3795189448,188.0,0.0,4.5,,1774383401000,0.03,,211812722946432,4.0,0,,,
Fix,GPS,40.8914969210,29.3795189448,188.0,0.0,4.5,,1774383402000,0.04,,211813733316855,4.0,0,,,
Fix,GPS,40.8914969210,29.3795189448,188.0,0.0,4.0,,1774383403000,0.01,,211814719036739,4.0,0,,,
Fix,GPS,40.8914969210,29.3795189448,188.0,0.0,4.0,,1774383404000,0.01,,211815742401353,4.0,0,,,
Fix,GPS,40.8914969210,29.3795189448,188.0,0.0,4.5,,1774383405000,0.02,,211816699419353,4.0,0,,,
Fix,GPS,40.8914969210,29.3795189448,188.0,0.0,3.5,,1774383406000,0.01,,211817699027621,3.0,0,,,
Fix,GPS,40.8914969210,29.3795189448,188.0,0.0,3.5,,1774383407000,0.12,,211818699265620,3.0,0,,,
Fix,GPS,40.8914969210,29.3795189448,188.0,0.0,4.0,,1774383408000,0.13,,211819714604427,4.0,0,,,
Fix,GPS,40.8914969210,29.3795189448,188.0,0.0,3.5,,1774383409000,0.13,,211820718271196,3.0,0,,,
Fix,GPS,40.8914969210,29.3795189448,188.0,0.0,3.5,,1774383410000,0.13,,211821707678618,3.0,0,,,
Fix,GPS,40.8914969210,29.3795189448,188.0,0.0,3.5,,1774383411000,0.13,,211822704478156,3.0,0,,,
Fix,GPS,40.8914969210,29.3795189448,188.0,0.0,4.0,,1774383412000,0.13,,211823726396732,3.0,0,,,
Fix,GPS,40.8914969210,29.3795189448,188.0,0.0,4.0,,1774383413000,0.02,,211824732937501,3.0,0,,,
Fix,GPS,40.8914969210,29.3795189448,188.0,0.0,3.5,,1774383414000,0.02,,211825713395731,3.0,0,,,
Fix,GPS,40.8914969210,29.3795189448,188.0,0.0,4.0,,1774383415000,0.03,,211826732752461,3.0,0,,,
Fix,GPS,40.8914969210,29.3795189448,188.0,0.0,4.0,,1774383416000,0.01,,211827711043806,3.0,0,,,
Fix,GPS,40.8914969210,29.3795189448,188.0,0.0,3.5,,1774383417000,0.02,,211828731954382,3.0,0,,,
Fix,GPS,40.8914969210,29.3795189448,188.0,0.0,3.5,,1774383418000,0.03,,211829728498574,3.0,0,,,
Fix,GPS,40.8914969210,29.3795189448,188.0,0.0,3.5,,1774383419000,0.02,,211830708418189,3.0,0,,,
Fix,GPS,40.8914969210,29.3795189448,188.0,0.0,3.5,,1774383420000,0.01,,211831722756496,3.0,0,,,
Fix,GPS,40.8914969210,29.3795189448,188.0,0.0,3.5,,1774383421000,0.01,,211832721890033,3.0,0,,,
Fix,GPS,40.8914969210,29.3795189448,188.0,0.0,3.5,,1774383422000,0.12,,211833716112379,3.0,0,,,
Fix,GPS,40.8914969210,29.3795189448,188.0,0.0,4.0,,1774383423000,0.13,,211834723344301,3.0,0,,,
Fix,GPS,40.8914969210,29.3795189448,188.0,0.0,3.5,,1774383424000,0.13,,211835719979954,3.0,0,,,
Fix,GPS,40.8914969210,29.3795179389,188.0,0.07,3.5,0.0,1774383425000,0.41,180.0,211836733708992,3.0,0,,,
Fix,GPS,40.8914960409,29.3795165978,188.0,0.31,3.5,189.5,1774383426000,1.17,84.2,211837703906491,3.0,0,,,
Fix,GPS,40.8914915565,29.3795160949,187.0,0.099999994,4.0,0.0,1774383427000,1.61,180.0,211838716150491,3.0,0,,,
Fix,GPS,40.8914931491,29.3795180228,187.0,0.17,4.5,75.0,1774383428000,0.84,175.1,211839718063375,3.0,0,,,
Fix,GPS,40.8914955379,29.3795217108,187.0,0.69,5.0,20.0,1774383429000,0.48,22.8,211840718722335,4.0,0,,,
Fix,GPS,40.8914984297,29.3795210402,187.0,0.53999996,5.0,14.5,1774383430000,0.33,16.1,211841729419219,4.0,0,,,
Fix,GPS,40.8915016567,29.3795222975,187.0,0.22999999,4.5,35.2,1774383431000,0.57,81.3,211842718336372,3.0,0,,,
Fix,GPS,40.8915085299,29.3795212917,187.0,0.57,5.5,347.9,1774383432000,0.45,16.8,211843723074602,4.0,0,,,
Fix,GPS,40.8915078174,29.3795212917,187.0,0.0,5.5,,1774383433000,0.15,,211844720188986,4.0,0,,,
Fix,GPS,40.8915078174,29.3795212917,187.0,0.0,6.0,,1774383434000,0.13,,211845711715563,5.0,0,,,
Fix,GPS,40.8915078174,29.3795212917,187.0,0.0,5.0,,1774383435000,0.13,,211846716984254,4.0,0,,,
Fix,GPS,40.8915078174,29.3795212917,187.0,0.0,5.5,,1774383436000,0.13,,211847721062369,4.0,0,,,
Fix,GPS,40.8915078174,29.3795212917,187.0,0.0,5.5,,1774383437000,0.13,,211848724317214,4.0,0,,,
Fix,GPS,40.8915078174,29.3795212917,187.0,0.0,6.0,,1774383438000,0.13,,211849716421367,4.0,0,,,
Fix,GPS,40.8915078174,29.3795212917,187.0,0.0,5.0,,1774383439000,0.13,,211850714572790,4.0,0,,,
Fix,GPS,40.8915078174,29.3795212917,187.0,0.0,5.5,,1774383440000,0.13,,211851726412520,4.0,0,,,
Fix,GPS,40.8915078174,29.3795212917,187.0,0.0,5.5,,1774383441000,0.13,,211852699928596,4.0,0,,,
Fix,GPS,40.8915078174,29.3795212917,187.0,0.0,6.0,,1774383442000,0.13,,211853700940941,4.0,0,,,
Fix,GPS,40.8915078174,29.3795212917,187.0,0.0,5.5,,1774383443000,0.13,,211854718307402,4.0,0,,,
Fix,GPS,40.8915078174,29.3795212917,187.0,0.0,5.5,,1774383444000,0.13,,211855717642363,4.0,0,,,
Fix,GPS,40.8915078174,29.3795212917,187.0,0.0,6.0,,1774383445000,0.13,,211856727215709,5.0,0,,,
Fix,GPS,40.8915078174,29.3795212917,187.0,0.0,5.5,,1774383446000,0.13,,211857729650054,4.0,0,,,
Fix,GPS,40.8915078174,29.3795212917,187.0,0.0,5.5,,1774383447000,0.13,,211858719040707,4.0,0,,,
Fix,GPS,40.8915078174,29.3795212917,187.0,0.0,5.5,,1774383448000,0.13,,211859721855399,4.0,0,,,
Fix,GPS,40.8915078174,29.3795212917,187.0,0.0,5.5,,1774383449000,0.13,,211860722737321,4.0,0,,,
Fix,GPS,40.8915078174,29.3795212917,187.0,0.0,6.0,,1774383450000,0.13,,211861722955436,4.0,0,,,
Fix,GPS,40.8915078174,29.3795212917,187.0,0.0,6.0,,1774383451000,0.13,,211862732807358,5.0,0,,,
Fix,GPS,40.8915078174,29.3795212917,187.0,0.0,6.0,,1774383452000,0.13,,211863725463511,4.0,0,,,
Fix,GPS,40.8915078174,29.3795212917,187.0,0.0,6.5,,1774383453000,0.13,,211864722737203,5.0,0,,,
Fix,GPS,40.8915078174,29.3795212917,187.0,0.0,6.0,,1774383454000,0.13,,211865722416356,5.0,0,,,
Fix,GPS,40.8915078174,29.3795212917,187.0,0.0,5.0,,1774383455000,0.13,,211866717742355,4.0,0,,,
Fix,GPS,40.8915078174,29.3795212917,187.0,0.0,5.5,,1774383456000,0.13,,211867721725701,4.0,0,,,
Fix,GPS,40.8915078174,29.3795212917,187.0,0.0,5.0,,1774383457000,0.13,,211868716902354,4.0,0,,,
Fix,GPS,40.8915078174,29.3795212917,187.0,0.0,5.0,,1774383458000,0.13,,211869723926545,4.0,0,,,
Fix,GPS,40.8915078174,29.3795212917,187.0,0.0,5.5,,1774383459000,0.13,,211870729990622,4.0,0,,,
Fix,GPS,40.8915078174,29.3795212917,187.0,0.0,5.5,,1774383460000,0.13,,211871696232313,4.0,0,,,
Fix,GPS,40.8915078174,29.3795212917,187.0,0.0,6.0,,1774383461000,0.13,,211872720593312,5.0,0,,,
Fix,GPS,40.8915078174,29.3795212917,187.0,0.0,5.5,,1774383462000,0.13,,211873727803389,4.0,0,,,
Fix,GPS,40.8915078174,29.3795212917,187.0,0.0,6.0,,1774383463000,0.13,,211874722410042,4.0,0,,,
Fix,GPS,40.8915078174,29.3795212917,187.0,0.0,5.0,,1774383464000,0.13,,211875730513426,4.0,0,,,
Fix,GPS,40.8915078174,29.3795212917,187.0,0.0,5.5,,1774383465000,0.13,,211876719087348,4.0,0,,,
Fix,GPS,40.8915078174,29.3795212917,187.0,0.0,6.0,,1774383466000,0.13,,211877722203347,4.0,0,,,
Fix,GPS,40.8915078174,29.3795212917,187.0,0.0,5.5,,1774383467000,0.13,,211878724467616,4.0,0,,,
Fix,GPS,40.8915078174,29.3795212917,187.0,0.0,5.5,,1774383468000,0.13,,211879734332461,4.0,0,,,
Fix,GPS,40.8915078174,29.3795212917,187.0,0.0,5.0,,1774383469000,0.13,,211880752117114,4.0,0,,,
Fix,GPS,40.8915078174,29.3795212917,187.0,0.0,6.0,,1774383470000,0.13,,211881723745575,4.0,0,,,
Fix,GPS,40.8915078174,29.3795212917,187.0,0.0,6.0,,1774383471000,0.13,,211882726630728,4.0,0,,,
Fix,GPS,40.8915078174,29.3795212917,187.0,0.0,5.5,,1774383472000,0.13,,211883735079228,4.0,0,,,
Fix,GPS,40.8915078174,29.3795212917,187.0,0.0,6.0,,1774383473000,0.13,,211884725159227,4.0,0,,,
Fix,GPS,40.8915078174,29.3795212917,187.0,0.0,5.5,,1774383474000,0.13,,211885735922149,4.0,0,,,
Fix,GPS,40.8915078174,29.3795212917,187.0,0.0,5.5,,1774383475000,0.13,,211886741879687,4.0,0,,,
Fix,GPS,40.8915078174,29.3795212917,187.0,0.0,5.5,,1774383476000,0.13,,211887722529571,4.0,0,,,
Fix,GPS,40.8915078174,29.3795212917,187.0,0.0,6.5,,1774383477000,0.13,,211888720462647,5.0,0,,,
Fix,GPS,40.8915078174,29.3795212917,187.0,0.0,6.0,,1774383478000,0.13,,211889727865185,4.0,0,,,
Fix,GPS,40.8915078174,29.3795212917,187.0,0.0,6.0,,1774383479000,0.13,,211890722494607,4.0,0,,,
Fix,GPS,40.8915078174,29.3795212917,187.0,0.0,5.5,,1774383480000,0.13,,211891721674453,4.0,0,,,
Fix,GPS,40.8915078174,29.3795212917,187.0,0.0,5.5,,1774383481000,0.13,,211892708399221,4.0,0,,,
Fix,GPS,40.8915078174,29.3795212917,187.0,0.0,5.5,,1774383482000,0.13,,211893725578451,4.0,0,,,
Fix,GPS,40.8915078174,29.3795212917,187.0,0.0,6.0,,1774383483000,0.13,,211894729592758,4.0,0,,,
Fix,GPS,40.8915078174,29.3795212917,187.0,0.0,5.5,,1774383484000,0.13,,211895725649950,4.0,0,,,
Fix,GPS,40.8915078174,29.3795212917,187.0,0.0,5.5,,1774383485000,0.13,,211896718176180,4.0,0,,,
Fix,GPS,40.8915078174,29.3795212917,187.0,0.0,5.0,,1774383486000,0.13,,211897728768218,4.0,0,,,
Fix,GPS,40.8915078174,29.3795212917,187.0,0.0,5.5,,1774383487000,0.13,,211898739525217,4.0,0,,,
Fix,GPS,40.8915078174,29.3795212917,187.0,0.0,5.5,,1774383488000,0.13,,211899739973255,4.0,0,,,
Fix,GPS,40.8915078174,29.3795212917,187.0,0.0,5.5,,1774383489000,0.13,,211900724702792,4.0,0,,,
Fix,GPS,40.8915078174,29.3795212917,187.0,0.0,6.0,,1774383490000,0.13,,211901732347061,4.0,0,,,
Fix,GPS,40.8915078174,29.3795212917,187.0,0.0,5.5,,1774383491000,0.13,,211902728729176,4.0,0,,,
Fix,GPS,40.8915078174,29.3795212917,187.0,0.0,5.5,,1774383492000,0.13,,211903737682213,4.0,0,,,
Fix,GPS,40.8915078174,29.3795212917,187.0,0.0,5.0,,1774383493000,0.13,,211904715118597,4.0,0,,,
Fix,GPS,40.8915078174,29.3795212917,187.0,0.0,5.5,,1774383494000,0.01,,211905714744750,4.0,0,,,
Fix,GPS,40.8915078174,29.3795212917,187.0,0.0,5.5,,1774383495000,0.02,,211906710738404,4.0,0,,,
Fix,GPS,40.8915078174,29.3795212917,187.0,0.0,5.0,,1774383496000,0.01,,211907714406441,4.0,0,,,
Fix,GPS,40.8915078174,29.3795212917,187.0,0.0,5.0,,1774383497000,0.01,,211908718344902,4.0,0,,,
Fix,GPS,40.8915078174,29.3795212917,187.0,0.0,5.5,,1774383498000,0.01,,211909720099209,4.0,0,,,
Fix,GPS,40.8915078174,29.3795212917,187.0,0.0,5.0,,1774383499000,0.03,,211910733721247,4.0,0,,,
Fix,GPS,40.8915078174,29.3795212917,187.0,0.0,5.5,,1774383500000,0.01,,211911728638208,4.0,0,,,
Fix,GPS,40.8915078174,29.3795212917,187.0,0.0,5.5,,1774383501000,0.02,,211912724038438,4.0,0,,,
Fix,GPS,40.8915078174,29.3795212917,187.0,0.0,5.5,,1774383502000,0.03,,211913742400245,4.0,0,,,
Fix,GPS,40.8915078174,29.3795212917,187.0,0.0,5.5,,1774383503000,0.03,,211914718506013,4.0,0,,,
Fix,GPS,40.8915078174,29.3795212917,187.0,0.0,5.5,,1774383504000,0.01,,211915731037397,4.0,0,,,
Fix,GPS,40.8915078174,29.3795212917,187.0,0.0,5.5,,1774383505000,0.12,,211916722698512,4.0,0,,,
Fix,GPS,40.8915078174,29.3795212917,187.0,0.0,5.0,,1774383506000,0.13,,211917729717280,4.0,0,,,
Fix,GPS,40.8915078174,29.3795212917,187.0,0.0,5.5,,1774383507000,0.05,,211918720822818,4.0,0,,,
Fix,GPS,40.8915078174,29.3795212917,187.0,0.0,5.5,,1774383508000,0.03,,211919728285240,4.0,0,,,
Fix,GPS,40.8915078174,29.3795212917,187.0,0.0,5.5,,1774383509000,0.01,,211920725601124,4.0,0,,,
Fix,GPS,40.8915078174,29.3795212917,187.0,0.0,6.0,,1774383510000,0.01,,211921734287739,4.0,0,,,
Fix,GPS,40.8915078174,29.3795212917,187.0,0.0,5.5,,1774383511000,0.02,,211922730035238,4.0,0,,,
Fix,GPS,40.8915078174,29.3795212917,187.0,0.0,5.5,,1774383512000,0.02,,211923720133276,4.0,0,,,
Fix,GPS,40.8915078174,29.3795212917,187.0,0.0,5.5,,1774383513000,0.02,,211924733537660,4.0,0,,,
Fix,GPS,40.8915078174,29.3795212917,187.0,0.0,5.0,,1774383514000,0.01,,211925729062775,4.0,0,,,
Fix,GPS,40.8915078174,29.3795212917,187.0,0.0,5.5,,1774383515000,0.01,,211926733890928,4.0,0,,,
Fix,GPS,40.8915078174,29.3795212917,187.0,0.0,5.5,,1774383516000,0.02,,211927730917465,4.0,0,,,
Fix,GPS,40.8915078174,29.3795212917,187.0,0.0,5.5,,1774383517000,0.01,,211928722331772,4.0,0,,,
Fix,GPS,40.8915078174,29.3795212917,187.0,0.0,5.5,,1774383518000,0.02,,211929717065849,4.0,0,,,
Fix,GPS,40.8915078174,29.3795212917,187.0,0.0,5.5,,1774383519000,0.04,,211930728212540,4.0,0,,,
Fix,GPS,40.8915078174,29.3795212917,187.0,0.0,5.5,,1774383520000,0.02,,211931732638193,4.0,0,,,
Fix,GPS,40.8915078174,29.3795212917,187.0,0.0,6.0,,1774383521000,0.01,,211932735612577,5.0,0,,,
Fix,GPS,40.8915078174,29.3795212917,187.0,0.0,5.5,,1774383522000,0.03,,211933731919807,4.0,0,,,
Fix,GPS,40.8915078174,29.3795212917,187.0,0.0,6.0,,1774383523000,0.12,,211934731574730,5.0,0,,,
Fix,GPS,40.8915078174,29.3795212917,187.0,0.0,5.5,,1774383524000,0.01,,211935729409460,4.0,0,,,
Fix,GPS,40.8915078174,29.3795212917,187.0,0.0,5.5,,1774383525000,0.04,,211936736645421,4.0,0,,,
Fix,GPS,40.8915078174,29.3795212917,187.0,0.0,5.5,,1774383526000,0.01,,211937740887074,4.0,0,,,
Fix,GPS,40.8915078174,29.3795212917,187.0,0.0,5.5,,1774383527000,0.02,,211938723485727,4.0,0,,,
Fix,GPS,40.8915078174,29.3795212917,187.0,0.0,5.0,,1774383528000,0.03,,211939724270726,4.0,0,,,
Fix,GPS,40.8915078174,29.3795212917,187.0,0.0,5.0,,1774383529000,0.03,,211940720461072,4.0,0,,,
Fix,GPS,40.8915078174,29.3795212917,187.0,0.0,5.0,,1774383530000,0.01,,211941740857109,4.0,0,,,
Fix,GPS,40.8915078174,29.3795212917,187.0,0.0,6.0,,1774383531000,0.05,,211942731392570,5.0,0,,,
Fix,GPS,40.8915078174,29.3795212917,187.0,0.0,5.0,,1774383532000,0.03,,211943730249339,4.0,0,,,
Fix,GPS,40.8915078174,29.3795212917,187.0,0.0,5.0,,1774383533000,0.01,,211944724409030,4.0,0,,,
Fix,GPS,40.8915078174,29.3795212917,187.0,0.0,6.0,,1774383534000,0.02,,211945730720414,5.0,0,,,
Fix,GPS,40.8915078174,29.3795212917,187.0,0.0,6.5,,1774383535000,0.02,,211946716350260,5.0,0,,,
Fix,GPS,40.8915078174,29.3795212917,187.0,0.0,5.5,,1774383536000,0.02,,211947723409220,4.0,0,,,
Fix,GPS,40.8915078174,29.3795212917,187.0,0.0,5.5,,1774383537000,0.02,,211948723351835,4.0,0,,,
Fix,GPS,40.8915078174,29.3795212917,187.0,0.0,5.0,,1774383538000,0.02,,211949725499027,4.0,0,,,
Fix,GPS,40.8915078174,29.3795212917,187.0,0.0,5.5,,1774383539000,0.04,,211950723261141,4.0,0,,,
Fix,GPS,40.8915078174,29.3795212917,187.0,0.0,5.5,,1774383540000,0.01,,211951727394948,4.0,0,,,
Fix,GPS,40.8915078174,29.3795212917,187.0,0.0,6.0,,1774383541000,0.02,,211952724289409,5.0,0,,,
Fix,GPS,40.8915078174,29.3795212917,187.0,0.0,5.5,,1774383542000,0.04,,211953728447485,4.0,0,,,
Fix,GPS,40.8915078174,29.3795212917,187.0,0.0,5.0,,1774383543000,0.02,,211954724460331,4.0,0,,,
Fix,GPS,40.8915078174,29.3795212917,187.0,0.0,5.5,,1774383544000,0.02,,211955727849099,4.0,0,,,
Fix,GPS,40.8915078174,29.3795212917,187.0,0.0,5.0,,1774383545000,0.01,,211956725193945,4.0,0,,,
Fix,GPS,40.8915078174,29.3795212917,187.0,0.0,5.5,,1774383546000,0.01,,211957728391252,4.0,0,,,
Fix,GPS,40.8915078174,29.3795212917,187.0,0.0,5.0,,1774383547000,0.01,,211958727237789,4.0,0,,,
Fix,GPS,40.8915078174,29.3795212917,187.0,0.0,5.0,,1774383548000,0.02,,211959726011135,4.0,0,,,
Fix,GPS,40.8915078174,29.3795212917,187.0,0.0,5.0,,1774383549000,0.01,,211960727367942,4.0,0,,,
Fix,GPS,40.8915078174,29.3795212917,187.0,0.0,5.0,,1774383550000,0.02,,211961731447826,4.0,0,,,
Fix,GPS,40.8915078174,29.3795212917,187.0,0.0,5.0,,1774383551000,0.01,,211962731114171,4.0,0,,,
Fix,GPS,40.8915078174,29.3795212917,187.0,0.0,5.0,,1774383552000,0.05,,211963728971863,4.0,0,,,
Fix,GPS,40.8915078174,29.3795212917,187.0,0.0,5.0,,1774383553000,0.03,,211964741000401,4.0,0,,,
Fix,GPS,40.8915078174,29.3795212917,187.0,0.0,5.5,,1774383554000,0.01,,211965717729361,4.0,0,,,
Fix,GPS,40.8915078174,29.3795212917,187.0,0.0,5.5,,1774383555000,0.01,,211966728033284,4.0,0,,,
Fix,GPS,40.8915078174,29.3795212917,187.0,0.0,5.0,,1774383556000,0.02,,211967702560898,4.0,0,,,
Fix,GPS,40.8915078174,29.3795212917,187.0,0.0,5.0,,1774383557000,0.01,,211968701616321,4.0,0,,,
Fix,GPS,40.8915078174,29.3795212917,187.0,0.0,5.0,,1774383558000,0.01,,211969703760243,4.0,0,,,
Fix,GPS,40.8915078174,29.3795212917,187.0,0.0,5.0,,1774383559000,0.01,,211970716273242,4.0,0,,,
Fix,GPS,40.8915078174,29.3795212917,187.0,0.0,5.0,,1774383560000,0.01,,211971710934588,4.0,0,,,
Fix,GPS,40.8915078174,29.3795212917,187.0,0.0,4.5,,1774383561000,0.01,,211972693681587,4.0,0,,,
Fix,GPS,40.8915078174,29.3795212917,187.0,0.0,4.5,,1774383562000,0.03,,211973703688163,4.0,0,,,
Fix,GPS,40.8915078174,29.3795212917,187.0,0.0,5.0,,1774383563000,0.04,,211974700619970,4.0,0,,,
Fix,GPS,40.8915078174,29.3795212917,187.0,0.0,5.0,,1774383564000,0.02,,211975734101739,4.0,0,,,
Fix,GPS,40.8915078174,29.3795212917,187.0,0.0,4.5,,1774383565000,0.01,,211976727492738,4.0,0,,,
Fix,GPS,40.8915078174,29.3795212917,187.0,0.0,5.0,,1774383566000,0.03,,211977730961968,4.0,0,,,
Fix,GPS,40.8915078174,29.3795212917,187.0,0.0,4.5,,1774383567000,0.01,,211978725522506,4.0,0,,,
Fix,GPS,40.8915078174,29.3795212917,187.0,0.0,5.0,,1774383568000,0.03,,211979715918697,4.0,0,,,
Fix,GPS,40.8915078174,29.3795212917,187.0,0.0,5.0,,1774383569000,0.03,,211980719263851,4.0,0,,,
Fix,GPS,40.8915078174,29.3795212917,187.0,0.0,4.5,,1774383570000,0.01,,211981736606119,4.0,0,,,
Fix,GPS,40.8915078174,29.3795212917,187.0,0.0,5.5,,1774383571000,0.03,,211982729670811,4.0,0,,,
Fix,GPS,40.8915078174,29.3795212917,187.0,0.0,4.0,,1774383572000,0.01,,211983723262502,3.0,0,,,
Fix,GPS,40.8915078174,29.3795212917,187.0,0.0,4.5,,1774383573000,0.03,,211984736373771,4.0,0,,,
Fix,GPS,40.8915078174,29.3795212917,187.0,0.0,5.0,,1774383574000,0.01,,211985731743347,4.0,0,,,
Fix,GPS,40.8915078174,29.3795212917,187.0,0.0,5.0,,1774383575000,0.01,,211986730367731,4.0,0,,,
Fix,GPS,40.8915078174,29.3795212917,187.0,0.0,5.0,,1774383576000,0.01,,211987710083923,4.0,0,,,
Fix,GPS,40.8915078174,29.3795212917,187.0,0.0,5.5,,1774383577000,0.04,,211988717120230,4.0,0,,,
Fix,GPS,40.8915078174,29.3795212917,187.0,0.0,5.0,,1774383578000,0.02,,211989722475652,4.0,0,,,
Fix,GPS,40.8915078174,29.3795212917,187.0,0.0,5.0,,1774383579000,0.01,,211990732509728,4.0,0,,,
Fix,GPS,40.8915078174,29.3795212917,187.0,0.0,5.5,,1774383580000,0.12,,211991723865650,4.0,0,,,
Fix,GPS,40.8915078174,29.3795212917,187.0,0.0,5.0,,1774383581000,0.13,,211992731649227,4.0,0,,,
Fix,GPS,40.8915078174,29.3795212917,187.0,0.0,5.0,,1774383582000,0.02,,211993725026572,4.0,0,,,
Fix,GPS,40.8915078174,29.3795212917,187.0,0.0,5.0,,1774383583000,0.02,,211994704025648,4.0,0,,,
Fix,GPS,40.8915078174,29.3795212917,187.0,0.0,4.5,,1774383584000,0.03,,211995724314263,4.0,0,,,
Fix,GPS,40.8915078174,29.3795212917,187.0,0.0,4.5,,1774383585000,0.01,,211996720717801,3.0,0,,,
Fix,GPS,40.8915078174,29.3795212917,187.0,0.0,5.0,,1774383586000,0.01,,211997711464954,4.0,0,,,
Fix,GPS,40.8915078174,29.3795212917,187.0,0.0,5.0,,1774383587000,0.01,,211998722704569,4.0,0,,,
Fix,GPS,40.8915078174,29.3795212917,187.0,0.0,4.5,,1774383588000,0.02,,211999712208375,4.0,0,,,
Fix,GPS,40.8915078174,29.3795212917,187.0,0.0,4.5,,1774383589000,0.01,,212000727535259,4.0,0,,,
Fix,GPS,40.8915078174,29.3795212917,187.0,0.0,4.5,,1774383590000,0.04,,212001722105682,4.0,0,,,
Fix,GPS,40.8915078174,29.3795212917,187.0,0.0,5.0,,1774383591000,0.01,,212002715370220,4.0,0,,,
Fix,GPS,40.8915078174,29.3795212917,187.0,0.0,5.0,,1774383592000,0.02,,212003731083411,4.0,0,,,
Fix,GPS,40.8915078174,29.3795212917,187.0,0.0,5.0,,1774383593000,0.02,,212004717973257,4.0,0,,,
Fix,GPS,40.8915078174,29.3795212917,187.0,0.0,4.5,,1774383594000,0.04,,212005736495756,4.0,0,,,
Fix,GPS,40.8915078174,29.3795212917,187.0,0.0,4.5,,1774383595000,0.03,,212006723779524,4.0,0,,,
Fix,GPS,40.8915078174,29.3795212917,187.0,0.0,4.5,,1774383596000,0.02,,212007732329870,4.0,0,,,
Fix,GPS,40.8915078174,29.3795212917,187.0,0.0,4.5,,1774383597000,0.02,,212008726128292,4.0,0,,,
Fix,GPS,40.8915078174,29.3795212917,187.0,0.0,4.5,,1774383598000,0.02,,212009723728638,4.0,0,,,
Fix,GPS,40.8915078174,29.3795212917,187.0,0.0,5.0,,1774383599000,0.01,,212010724082829,4.0,0,,,
Fix,GPS,40.8915078174,29.3795212917,187.0,0.0,5.0,,1774383600000,0.01,,212011709993252,4.0,0,,,
Fix,GPS,40.8915078174,29.3795212917,187.0,0.0,5.5,,1774383601000,0.01,,212012720974866,4.0,0,,,
Fix,GPS,40.8915078174,29.3795212917,187.0,0.0,5.5,,1774383602000,0.02,,212013737158904,4.0,0,,,
Fix,GPS,40.8915078174,29.3795212917,187.0,0.0,5.0,,1774383603000,0.01,,212014722731365,4.0,0,,,
Fix,GPS,40.8915078174,29.3795212917,187.0,0.0,4.5,,1774383604000,0.01,,212015718777056,4.0,0,,,
Fix,GPS,40.8915078174,29.3795212917,187.0,0.0,4.5,,1774383605000,0.01,,212016723689248,4.0,0,,,
Fix,GPS,40.8915078174,29.3795212917,187.0,0.0,5.0,,1774383606000,0.01,,212017730418286,4.0,0,,,
Fix,GPS,40.8915078174,29.3795212917,187.0,0.0,4.5,,1774383607000,0.03,,212018736109939,3.0,0,,,
Fix,GPS,40.8915078174,29.3795212917,187.0,0.0,4.5,,1774383608629,0.03,,212020366883168,3.0,0,,,
Fix,GPS,40.8915078174,29.3795212917,187.0,0.0,4.5,,1774383609645,0.03,,212021383591898,3.0,0,,,
Fix,GPS,40.8915078174,29.3795212917,187.0,0.0,4.5,,1774383610660,0.03,,212022399369321,3.0,0,,,
Fix,GPS,40.8915078174,29.3795212917,187.0,0.0,4.5,,1774383611674,0.03,,212023413459166,3.0,0,,,
Fix,GPS,40.8915078174,29.3795212917,187.0,0.0,4.5,,1774383612691,0.03,,212024431444781,3.0,0,,,
Fix,GPS,40.8915078174,29.3795212917,187.0,0.0,4.5,,1774383613709,0.03,,212025450095934,3.0,0,,,
Fix,GPS,40.8915078174,29.3795212917,187.0,0.0,4.5,,1774383614726,0.03,,212026467558087,3.0,0,,,
Fix,GPS,40.8915078174,29.3795212917,187.0,0.0,4.5,,1774383615736,0.03,,212027477953240,3.0,0,,,
Fix,GPS,40.8915078174,29.3795212917,187.0,0.0,4.5,,1774383616750,0.03,,212028492852009,3.0,0,,,
Fix,GPS,40.8915078174,29.3795212917,187.0,0.0,4.5,,1774383617762,0.03,,212029505743354,3.0,0,,,
Fix,GPS,40.8915078174,29.3795212917,187.0,0.0,4.5,,1774383618771,0.03,,212030515723084,3.0,0,,,
Fix,GPS,40.8915078174,29.3795212917,187.0,0.0,4.5,,1774383619781,0.03,,212031526018314,3.0,0,,,
Fix,GPS,40.8915078174,29.3795212917,187.0,0.0,4.5,,1774383620794,0.03,,212032539049121,3.0,0,,,
Fix,GPS,40.8915078174,29.3795212917,187.0,0.0,4.5,,1774383621805,0.03,,212033550685274,3.0,0,,,
Fix,GPS,40.8915078174,29.3795212917,187.0,0.0,4.5,,1774383622823,0.03,,212034568805274,3.0,0,,,
Fix,GPS,40.8915078174,29.3795212917,187.0,0.0,4.5,,1774383623833,0.03,,212035579595119,3.0,0,,,
Fix,GPS,40.8915078174,29.3795212917,187.0,0.0,4.5,,1774383624857,0.03,,212036603694618,3.0,0,,,
Fix,GPS,40.8915078174,29.3795212917,187.0,0.0,4.5,,1774383625866,0.03,,212037613527348,3.0,0,,,
Fix,GPS,40.8915078174,29.3795212917,187.0,0.0,4.5,,1774383626880,0.03,,212038628317578,3.0,0,,,
Fix,GPS,40.8915078174,29.3795212917,187.0,0.0,4.5,,1774383627896,0.03,,212039644379770,3.0,0,,,
Fix,GPS,40.8915078174,29.3795212917,187.0,0.0,4.5,,1774383628907,0.03,,212040656054885,3.0,0,,,
Fix,GPS,40.8915078174,29.3795212917,187.0,0.0,4.5,,1774383629914,0.03,,212041663838461,3.0,0,,,
Fix,GPS,40.8915078174,29.3795212917,187.0,0.0,4.5,,1774383630927,0.03,,212042676862460,3.0,0,,,
Fix,GPS,40.8915078174,29.3795212917,187.0,0.0,4.5,,1774383631942,0.03,,212043692806152,3.0,0,,,
Fix,GPS,40.8915078174,29.3795212917,187.0,0.0,4.5,,1774383632958,0.03,,212044709618113,3.0,0,,,
Fix,GPS,40.8915078174,29.3795212917,187.0,0.0,4.5,,1774383633971,0.03,,212045723019496,3.0,0,,,
Fix,GPS,40.8915078174,29.3795212917,187.0,0.0,4.5,,1774383634987,0.03,,212046739116842,3.0,0,,,
Fix,GPS,40.8915078174,29.3795212917,187.0,0.0,4.5,,1774383636001,0.03,,212047753912187,3.0,0,,,
Fix,GPS,40.8915078174,29.3795212917,187.0,0.0,4.5,,1774383637010,0.03,,212048763800110,3.0,0,,,
Fix,GPS,40.8915078174,29.3795212917,187.0,0.0,4.5,,1774383638025,0.03,,212049779738070,3.0,0,,,
Fix,GPS,40.8915078174,29.3795212917,187.0,0.0,4.5,,1774383639037,0.03,,212050792188377,3.0,0,,,
Fix,GPS,40.8915078174,29.3795212917,187.0,0.0,4.5,,1774383640059,0.03,,212051814337684,3.0,0,,,
Fix,GPS,40.8915078174,29.3795212917,187.0,0.0,4.5,,1774383641072,0.03,,212052828045991,3.0,0,,,
Fix,GPS,40.8915078174,29.3795212917,187.0,0.0,4.5,,1774383642080,0.03,,212053837026260,3.0,0,,,
Fix,GPS,40.8915078174,29.3795212917,187.0,0.0,4.5,,1774383643085,0.03,,212054842318375,3.0,0,,,
Fix,GPS,40.8915078174,29.3795212917,187.0,0.0,4.5,,1774383644104,0.03,,212055862248758,3.0,0,,,
Fix,GPS,40.8915078174,29.3795212917,187.0,0.0,4.5,,1774383645110,0.03,,212056868271065,3.0,0,,,
Fix,GPS,40.8915078174,29.3795212917,187.0,0.0,4.5,,1774383646120,0.03,,212057879209795,3.0,0,,,
Fix,GPS,40.8915078174,29.3795212917,187.0,0.0,4.5,,1774383647132,0.03,,212058891307025,3.0,0,,,
Fix,GPS,40.8915078174,29.3795212917,187.0,0.0,4.5,,1774383648144,0.03,,212059903958448,3.0,0,,,
Fix,GPS,40.8915078174,29.3795212917,187.0,0.0,4.5,,1774383649159,0.03,,212060919545524,3.0,0,,,
Fix,GPS,40.8915078174,29.3795212917,187.0,0.0,4.5,,1774383650175,0.03,,212061936316793,3.0,0,,,
Fix,GPS,40.8915078174,29.3795212917,187.0,0.0,4.5,,1774383651187,0.03,,212062948654330,3.0,0,,,
Fix,GPS,40.8915078174,29.3795212917,187.0,0.0,4.5,,1774383652205,0.03,,212063966775368,3.0,0,,,
Fix,GPS,40.8915078174,29.3795212917,187.0,0.0,4.5,,1774383653215,0.03,,212064977531406,3.0,0,,,
Fix,GPS,40.8915078174,29.3795212917,187.0,0.0,4.5,,1774383654228,0.03,,212065990770828,3.0,0,,,
Fix,GPS,40.8915078174,29.3795212917,187.0,0.0,4.5,,1774383655243,0.03,,212067006531135,3.0,0,,,
Fix,GPS,40.8915078174,29.3795212917,187.0,0.0,4.5,,1774383656256,0.03,,212068019923519,3.0,0,,,
Fix,GPS,40.8915078174,29.3795212917,187.0,0.0,4.5,,1774383657264,0.03,,212069028873749,3.0,0,,,
Fix,GPS,40.8915078174,29.3795212917,187.0,0.0,4.5,,1774383658269,0.03,,212070034762979,3.0,0,,,
Fix,GPS,40.8915078174,29.3795212917,187.0,0.0,4.5,,1774383659279,0.03,,212071045733978,3.0,0,,,
Fix,GPS,40.8915078174,29.3795212917,187.0,0.0,4.5,,1774383660292,0.03,,212072059655401,3.0,0,,,
Fix,GPS,40.8915078174,29.3795212917,187.0,0.0,4.5,,1774383661305,0.03,,212073072936015,3.0,0,,,
Fix,GPS,40.8915078174,29.3795212917,187.0,0.0,4.5,,1774383662319,0.03,,212074087236322,3.0,0,,,
Fix,GPS,40.8915078174,29.3795212917,187.0,0.0,4.5,,1774383663329,0.03,,212075098249398,3.0,0,,,
Fix,GPS,40.8915078174,29.3795212917,187.0,0.0,4.5,,1774383664343,0.03,,212076112970436,3.0,0,,,
Fix,GPS,40.8915078174,29.3795212917,187.0,0.0,4.5,,1774383665355,0.03,,212077125421936,3.0,0,,,
Fix,GPS,40.8915078174,29.3795212917,187.0,0.0,4.5,,1774383666368,0.03,,212078139300550,3.0,0,,,
Fix,GPS,40.8915078174,29.3795212917,187.0,0.0,4.5,,1774383667380,0.03,,212079151542011,3.0,0,,,
Fix,GPS,40.8915078174,29.3795212917,187.0,0.0,4.5,,1774383668393,0.03,,212080165021472,3.0,0,,,
Fix,GPS,40.8915078174,29.3795212917,187.0,0.0,4.5,,1774383669406,0.03,,212081178810202,3.0,0,,,
Fix,GPS,40.8915078174,29.3795212917,187.0,0.0,4.5,,1774383670420,0.03,,212082192964547,3.0,0,,,
Fix,GPS,40.8915078174,29.3795212917,187.0,0.0,4.5,,1774383671432,0.03,,212083205826585,3.0,0,,,
Fix,GPS,40.8915078174,29.3795212917,187.0,0.0,4.5,,1774383672445,0.03,,212084219262546,3.0,0,,,
Fix,GPS,40.8915078174,29.3795212917,187.0,0.0,4.5,,1774383673461,0.03,,212085235433545,3.0,0,,,
Fix,GPS,40.8915078174,29.3795212917,187.0,0.0,4.5,,1774383674475,0.03,,212086249960429,3.0,0,,,
Fix,GPS,40.8915078174,29.3795212917,187.0,0.0,4.5,,1774383675489,0.03,,212087264693851,3.0,0,,,
Fix,GPS,40.8915078174,29.3795212917,187.0,0.0,4.5,,1774383676503,0.03,,212088278927043,3.0,0,,,
Fix,GPS,40.8915078174,29.3795212917,187.0,0.0,4.5,,1774383677517,0.03,,212089293937773,3.0,0,,,
Fix,GPS,40.8915078174,29.3795212917,187.0,0.0,4.5,,1774383678540,0.03,,212090317748388,3.0,0,,,
Fix,GPS,40.8915078174,29.3795212917,187.0,0.0,4.5,,1774383679553,0.03,,212091331065502,3.0,0,,,
Fix,GPS,40.8915078174,29.3795212917,187.0,0.0,4.5,,1774383680569,0.03,,212092347683232,3.0,0,,,
Fix,GPS,40.8915078174,29.3795212917,187.0,0.0,4.5,,1774383681585,0.03,,212093363731193,3.0,0,,,
Fix,GPS,40.8915078174,29.3795212917,187.0,0.0,4.5,,1774383682600,0.03,,212094378797115,3.0,0,,,
Fix,GPS,40.8915078174,29.3795212917,187.0,0.0,4.5,,1774383683616,0.03,,212095395410269,3.0,0,,,
Fix,GPS,40.8915078174,29.3795212917,187.0,0.0,4.5,,1774383684626,0.03,,212096405872768,3.0,0,,,
Fix,GPS,40.8915078174,29.3795212917,187.0,0.0,4.5,,1774383685638,0.03,,212097418391806,3.0,0,,,
Fix,GPS,40.8915078174,29.3795212917,187.0,0.0,4.5,,1774383686654,0.03,,212098435025651,3.0,0,,,
Fix,GPS,40.8915078174,29.3795212917,187.0,0.0,4.5,,1774383687665,0.03,,212099446806766,3.0,0,,,
Fix,GPS,40.8915078174,29.3795212917,187.0,0.0,4.5,,1774383688678,0.03,,212100459893611,3.0,0,,,
Fix,GPS,40.8915078174,29.3795212917,187.0,0.0,4.5,,1774383689692,0.03,,212101474565764,3.0,0,,,
Fix,GPS,40.8915078174,29.3795212917,187.0,0.0,4.5,,1774383690704,0.03,,212102487436033,3.0,0,,,
Fix,GPS,40.8915078174,29.3795212917,187.0,0.0,4.5,,1774383691713,0.03,,212103496466955,3.0,0,,,
Fix,GPS,40.8915078174,29.3795212917,187.0,0.0,4.5,,1774383692728,0.03,,212104511506647,3.0,0,,,
Fix,GPS,40.8915078174,29.3795212917,187.0,0.0,4.5,,1774383693741,0.03,,212105525137108,3.0,0,,,
Fix,GPS,40.8915078174,29.3795212917,187.0,0.0,4.5,,1774383694752,0.03,,212106536997030,3.0,0,,,
Fix,GPS,40.8915078174,29.3795212917,187.0,0.0,4.5,,1774383695771,0.03,,212107556735606,3.0,0,,,
Fix,GPS,40.8915078174,29.3795212917,187.0,0.0,4.5,,1774383696783,0.03,,212108568942798,3.0,0,,,
Fix,GPS,40.8915078174,29.3795212917,187.0,0.0,4.5,,1774383697800,0.03,,212109586000912,3.0,0,,,
Fix,GPS,40.8915078174,29.3795212917,187.0,0.0,4.5,,1774383698812,0.03,,212110598438873,3.0,0,,,
Fix,GPS,40.8915078174,29.3795212917,187.0,0.0,4.5,,1774383699829,0.03,,212111615919103,3.0,0,,,
Fix,GPS,40.8915078174,29.3795212917,187.0,0.0,4.5,,1774383700841,0.03,,212112628894102,3.0,0,,,
Fix,GPS,40.8915078174,29.3795212917,187.0,0.0,4.5,,1774383701853,0.03,,212113641697909,3.0,0,,,
Fix,GPS,40.8915078174,29.3795212917,187.0,0.0,4.5,,1774383702870,0.03,,212114659151063,3.0,0,,,
Fix,GPS,40.8915078174,29.3795212917,187.0,0.0,4.5,,1774383703886,0.03,,212115676092216,3.0,0,,,
Fix,GPS,40.8915078174,29.3795212917,187.0,0.0,4.5,,1774383704901,0.03,,212116691152100,3.0,0,,,
Fix,GPS,40.8915078174,29.3795212917,187.0,0.0,4.5,,1774383705912,0.03,,212117702293945,3.0,0,,,
Fix,GPS,40.8915078174,29.3795212917,187.0,0.0,4.5,,1774383706919,0.03,,212118709629290,3.0,0,,,
Fix,GPS,40.8915078174,29.3795212917,187.0,0.0,4.5,,1774383707932,0.03,,212119723096944,3.0,0,,,
Fix,GPS,40.8915078174,29.3795212917,187.0,0.0,4.5,,1774383708945,0.03,,212120737059058,3.0,0,,,
Fix,GPS,40.8915078174,29.3795212917,187.0,0.0,4.5,,1774383709959,0.03,,212121751381211,3.0,0,,,
Fix,GPS,40.8915078174,29.3795212917,187.0,0.0,4.5,,1774383710973,0.03,,212122765801326,3.0,0,,,
Fix,GPS,40.8915078174,29.3795212917,187.0,0.0,4.5,,1774383711986,0.03,,212123779453979,3.0,0,,,
Fix,GPS,40.8915078174,29.3795212917,187.0,0.0,4.5,,1774383712997,0.03,,212124790547824,3.0,0,,,
Fix,GPS,40.8915078174,29.3795212917,187.0,0.0,4.5,,1774383714013,0.03,,212125807474324,3.0,0,,,
Fix,GPS,40.8915078174,29.3795212917,187.0,0.0,4.5,,1774383715034,0.03,,212126828990092,3.0,0,,,
Fix,GPS,40.8915078174,29.3795212917,187.0,0.0,4.5,,1774383716046,0.03,,212127841791707,3.0,0,,,
Fix,GPS,40.8915078174,29.3795212917,187.0,0.0,4.5,,1774383717057,0.03,,212128853605245,3.0,0,,,
Fix,GPS,40.8915078174,29.3795212917,187.0,0.0,4.5,,1774383718070,0.03,,212129866676705,3.0,0,,,
Fix,GPS,40.8915078174,29.3795212917,187.0,0.0,4.5,,1774383719080,0.03,,212130876898166,3.0,0,,,
Fix,GPS,40.8915078174,29.3795212917,187.0,0.0,4.5,,1774383720091,0.03,,212131888858166,3.0,0,,,
Fix,GPS,40.8915078174,29.3795212917,187.0,0.0,4.5,,1774383721107,0.03,,212132905012434,3.0,0,,,
Fix,GPS,40.8915078174,29.3795212917,187.0,0.0,4.5,,1774383722119,0.03,,212133917925703,3.0,0,,,
Fix,GPS,40.8915078174,29.3795212917,187.0,0.0,4.5,,1774383723132,0.03,,212134931079394,3.0,0,,,
Fix,GPS,40.8915078174,29.3795212917,187.0,0.0,4.5,,1774383724143,0.03,,212135943064124,3.0,0,,,
Fix,GPS,40.8915078174,29.3795212917,187.0,0.0,4.5,,1774383725155,0.03,,212136955589623,3.0,0,,,
Fix,GPS,40.8915078174,29.3795212917,187.0,0.0,4.5,,1774383726166,0.03,,212137966887007,3.0,0,,,
Fix,GPS,40.8915078174,29.3795212917,187.0,0.0,4.5,,1774383727186,0.03,,212138987881622,3.0,0,,,
Fix,GPS,40.8915078174,29.3795212917,187.0,0.0,4.5,,1774383728196,0.03,,212139998429660,3.0,0,,,
Fix,GPS,40.8915078174,29.3795212917,187.0,0.0,4.5,,1774383729208,0.03,,212141010554159,3.0,0,,,
Fix,GPS,40.8915078174,29.3795212917,187.0,0.0,4.5,,1774383730221,0.03,,212142023722081,3.0,0,,,
Fix,GPS,40.8915078174,29.3795212917,187.0,0.0,4.5,,1774383731235,0.03,,212143038513311,3.0,0,,,
Fix,GPS,40.8915078174,29.3795212917,187.0,0.0,4.5,,1774383732255,0.03,,212144059414003,3.0,0,,,
Fix,GPS,40.8915078174,29.3795212917,187.0,0.0,4.5,,1774383733270,0.03,,212145074677079,3.0,0,,,
Fix,GPS,40.8915078174,29.3795212917,187.0,0.0,4.5,,1774383734282,0.03,,212146087288694,3.0,0,,,
Fix,GPS,40.8915078174,29.3795212917,187.0,0.0,4.5,,1774383735295,0.03,,212147100365385,3.0,0,,,
Fix,GPS,40.8915078174,29.3795212917,187.0,0.0,4.5,,1774383736312,0.03,,212148118271423,3.0,0,,,
Fix,GPS,40.8915078174,29.3795212917,187.0,0.0,4.5,,1774383737326,0.03,,212149132780653,3.0,0,,,
Fix,GPS,40.8915078174,29.3795212917,187.0,0.0,4.5,,1774383738338,0.03,,212150145026653,3.0,0,,,
Fix,GPS,40.8915078174,29.3795212917,187.0,0.0,4.5,,1774383739356,0.03,,212151163856152,3.0,0,,,
Fix,GPS,40.8915078174,29.3795212917,187.0,0.0,4.5,,1774383740370,0.03,,212152178480805,3.0,0,,,
Fix,GPS,40.8915078174,29.3795212917,187.0,0.0,4.5,,1774383741390,0.03,,212153198641150,3.0,0,,,
Fix,GPS,40.8915078174,29.3795212917,187.0,0.0,4.5,,1774383742407,0.03,,212154216294996,3.0,0,,,
Fix,GPS,40.8915078174,29.3795212917,187.0,0.0,4.5,,1774383743420,0.03,,212155230113918,3.0,0,,,
Fix,GPS,40.8915078174,29.3795212917,187.0,0.0,4.5,,1774383744433,0.03,,212156244093148,3.0,0,,,
Fix,GPS,40.8915078174,29.3795212917,187.0,0.0,4.5,,1774383745449,0.03,,212157260800455,3.0,0,,,
Fix,GPS,40.8915078174,29.3795212917,187.0,0.0,4.5,,1774383746463,0.03,,212158274858608,3.0,0,,,
Fix,GPS,40.8915078174,29.3795212917,187.0,0.0,4.5,,1774383747477,0.03,,212159289527338,3.0,0,,,
Fix,GPS,40.8915078174,29.3795212917,187.0,0.0,4.5,,1774383748486,0.03,,212160299225338,3.0,0,,,
Fix,GPS,40.8915078174,29.3795212917,187.0,0.0,4.5,,1774383749495,0.03,,212161308546645,3.0,0,,,
Fix,GPS,40.8915078174,29.3795212917,187.0,0.0,4.5,,1774383750516,0.03,,212162329960182,3.0,0,,,
Fix,GPS,40.8915078174,29.3795212917,187.0,0.0,4.5,,1774383751529,0.03,,212163343893451,3.0,0,,,
Fix,GPS,40.8915078174,29.3795212917,187.0,0.0,4.5,,1774383752539,0.03,,212164354207296,3.0,0,,,
Fix,GPS,40.8915078174,29.3795212917,187.0,0.0,4.5,,1774383753552,0.03,,212165368191911,3.0,0,,,
Fix,GPS,40.8915078174,29.3795212917,187.0,0.0,4.5,,1774383754569,0.03,,212166386033949,3.0,0,,,
Fix,GPS,40.8915078174,29.3795212917,187.0,0.0,4.5,,1774383755582,0.03,,212167399963602,3.0,0,,,
Fix,GPS,40.8915078174,29.3795212917,187.0,0.0,4.5,,1774383756601,0.03,,212168419963601,3.0,0,,,
Fix,GPS,40.8915078174,29.3795212917,187.0,0.0,4.5,,1774383757613,0.03,,212169432962831,3.0,0,,,
Fix,GPS,40.8915078174,29.3795212917,187.0,0.0,4.5,,1774383758640,0.03,,212170460361100,3.0,0,,,
Fix,GPS,40.8915078174,29.3795212917,187.0,0.0,4.5,,1774383759650,0.03,,212171470583830,3.0,0,,,
Fix,GPS,40.8915078174,29.3795212917,187.0,0.0,4.5,,1774383760661,0.03,,212172481854867,3.0,0,,,
Fix,GPS,40.8915078174,29.3795212917,187.0,0.0,4.5,,1774383761670,0.03,,212173491471828,3.0,0,,,
Fix,GPS,40.8915078174,29.3795212917,187.0,0.0,4.5,,1774383762682,0.03,,212174503963174,3.0,0,,,
Fix,GPS,40.8915078174,29.3795212917,187.0,0.0,4.5,,1774383763693,0.03,,212175515715865,3.0,0,,,
Fix,GPS,40.8915078174,29.3795212917,187.0,0.0,4.5,,1774383764705,0.03,,212176528398595,3.0,0,,,
Fix,GPS,40.8915078174,29.3795212917,187.0,0.0,4.5,,1774383765713,0.03,,212177536797441,3.0,0,,,
Fix,GPS,40.8915078174,29.3795212917,187.0,0.0,4.5,,1774383766728,0.03,,212178552284748,3.0,0,,,
Fix,GPS,40.8915078174,29.3795212917,187.0,0.0,4.5,,1774383767740,0.03,,212179564357093,3.0,0,,,
Fix,GPS,40.8915078174,29.3795212917,187.0,0.0,4.5,,1774383768750,0.03,,212180574830169,3.0,0,,,
Fix,GPS,40.8915078174,29.3795212917,187.0,0.0,4.5,,1774383769764,0.03,,212181589531207,3.0,0,,,
Fix,GPS,40.8915078174,29.3795212917,187.0,0.0,4.5,,1774383770777,0.03,,212182602636014,3.0,0,,,
Fix,GPS,40.8915078174,29.3795212917,187.0,0.0,4.5,,1774383771786,0.03,,212183612293090,3.0,0,,,
Fix,GPS,40.8915078174,29.3795212917,187.0,0.0,4.5,,1774383772795,0.03,,212184622000282,3.0,0,,,
Fix,GPS,40.8915078174,29.3795212917,187.0,0.0,4.5,,1774383773812,0.03,,212185639534896,3.0,0,,,
Fix,GPS,40.8915078174,29.3795212917,187.0,0.0,4.5,,1774383774825,0.03,,212186652625819,3.0,0,,,
Fix,GPS,40.8915078174,29.3795212917,187.0,0.0,4.5,,1774383775844,0.03,,212187671766087,3.0,0,,,
Fix,GPS,40.8915078174,29.3795212917,187.0,0.0,4.5,,1774383776852,0.03,,212188680732971,3.0,0,,,
Fix,GPS,40.8915078174,29.3795212917,187.0,0.0,4.5,,1774383777858,0.03,,212189686751663,3.0,0,,,
Fix,GPS,40.8915078174,29.3795212917,187.0,0.0,4.5,,1774383778866,0.03,,212190695131470,3.0,0,,,
Fix,GPS,40.8915078174,29.3795212917,187.0,0.0,4.5,,1774383779877,0.03,,212191707060469,3.0,0,,,
Fix,GPS,40.8915078174,29.3795212917,187.0,0.0,4.5,,1774383780890,0.03,,212192720295199,3.0,0,,,
Fix,GPS,40.8915078174,29.3795212917,187.0,0.0,4.5,,1774383781906,0.03,,212193736522429,3.0,0,,,
Fix,GPS,40.8915078174,29.3795212917,187.0,0.0,4.5,,1774383782924,0.03,,212194754858390,3.0,0,,,
Fix,GPS,40.8915078174,29.3795212917,187.0,0.0,4.5,,1774383783942,0.03,,212195773643504,3.0,0,,,
Fix,GPS,40.8915078174,29.3795212917,187.0,0.0,4.5,,1774383784955,0.03,,212196786892658,3.0,0,,,
Fix,GPS,40.8915078174,29.3795212917,187.0,0.0,4.5,,1774383785969,0.03,,212197801192157,3.0,0,,,
Fix,GPS,40.8915078174,29.3795212917,187.0,0.0,4.5,,1774383786985,0.03,,212198817943272,3.0,0,,,
Fix,GPS,40.8915078174,29.3795212917,187.0,0.0,4.5,,1774383787998,0.03,,212199831098040,3.0,0,,,
Fix,GPS,40.8915078174,29.3795212917,187.0,0.0,4.5,,1774383789009,0.03,,212200842889616,3.0,0,,,
Fix,GPS,40.8915078174,29.3795212917,187.0,0.0,4.5,,1774383790018,0.03,,212201852596500,3.0,0,,,
Fix,GPS,40.8915078174,29.3795212917,187.0,0.0,4.5,,1774383791027,0.03,,212202862165846,3.0,0,,,
Fix,GPS,40.8915078174,29.3795212917,187.0,0.0,4.5,,1774383792032,0.03,,212203867401883,3.0,0,,,
Fix,GPS,40.8915078174,29.3795212917,187.0,0.0,4.5,,1774383793038,0.03,,212204874267767,3.0,0,,,
Fix,GPS,40.8915078174,29.3795212917,187.0,0.0,4.5,,1774383794045,0.03,,212205882103613,3.0,0,,,
Fix,GPS,40.8915078174,29.3795212917,187.0,0.0,4.5,,1774383795050,0.03,,212206887230881,3.0,0,,,
Fix,GPS,40.8915078174,29.3795212917,187.0,0.0,4.5,,1774383796053,0.03,,212207890495880,3.0,0,,,
Fix,GPS,40.8915078174,29.3795212917,187.0,0.0,4.5,,1774383797058,0.03,,212208895505649,3.0,0,,,
Fix,GPS,40.8915078174,29.3795212917,187.0,0.0,4.5,,1774383798062,0.03,,212209900218379,3.0,0,,,
Fix,GPS,40.8915078174,29.3795212917,187.0,0.0,4.5,,1774383799066,0.03,,212210904613994,3.0,0,,,
Fix,GPS,40.8915078174,29.3795212917,187.0,0.0,4.5,,1774383800068,0.03,,212211907395531,3.0,0,,,
Fix,GPS,40.8915078174,29.3795212917,187.0,0.0,4.5,,1774383801079,0.03,,212212918943415,3.0,0,,,
Fix,GPS,40.8915078174,29.3795212917,187.0,0.0,4.5,,1774383802090,0.03,,212213930338838,3.0,0,,,
Fix,GPS,40.8915078174,29.3795212917,187.0,0.0,4.5,,1774383803111,0.03,,212214952051837,3.0,0,,,
Fix,GPS,40.8915078174,29.3795212917,187.0,0.0,4.5,,1774383804122,0.03,,212215963222605,3.0,0,,,
Fix,GPS,40.8915078174,29.3795212917,187.0,0.0,4.5,,1774383805134,0.03,,212216975775989,3.0,0,,,
Fix,GPS,40.8915078174,29.3795212917,187.0,0.0,4.5,,1774383806147,0.03,,212217988977066,3.0,0,,,
Fix,GPS,40.8915078174,29.3795212917,187.0,0.0,4.5,,1774383807166,0.03,,212219008390334,3.0,0,,,
Fix,GPS,40.8915078174,29.3795212917,187.0,0.0,4.5,,1774383808177,0.03,,212220020151872,3.0,0,,,
Fix,GPS,40.8915078174,29.3795212917,187.0,0.0,4.5,,1774383809188,0.03,,212221031451602,3.0,0,,,
Fix,GPS,40.8915078174,29.3795212917,187.0,0.0,4.5,,1774383810204,0.03,,212222048058370,3.0,0,,,
Fix,GPS,40.8915078174,29.3795212917,187.0,0.0,4.5,,1774383811218,0.03,,212223062903600,3.0,0,,,
Fix,GPS,40.8915078174,29.3795212917,187.0,0.0,4.5,,1774383812229,0.03,,212224074466138,3.0,0,,,
Fix,GPS,40.8915078174,29.3795212917,187.0,0.0,4.5,,1774383813238,0.03,,212225084337637,3.0,0,,,
Fix,GPS,40.8915078174,29.3795212917,187.0,0.0,4.5,,1774383814242,0.03,,212226089110983,3.0,0,,,
Fix,GPS,40.8915078174,29.3795212917,187.0,0.0,4.5,,1774383815248,0.03,,212227095622674,3.0,0,,,
Fix,GPS,40.8915078174,29.3795212917,187.0,0.0,4.5,,1774383816264,0.03,,212228112044174,3.0,0,,,
