Fix,GPS,40.8931470662,29.3753120676,178.0,0.0,10.0,,1774382529000,0.02,,210940697532248,12.0,0,,,
Fix,GPS,40.8931470662,29.3753120676,178.0,0.0,9.0,,1774382530000,0.05,,210941723180132,11.0,0,,,
Fix,GPS,40.8931470662,29.3753120676,178.0,0.0,9.0,,1774382531000,0.03,,210942717565093,11.0,0,,,
Fix,GPS,40.8931612317,29.3753102235,179.0,0.52,6.0,45.7,1774382532000,0.28,14.7,210943718422862,7.0,0,,,
Fix,GPS,40.8931584237,29.3753045239,172.0,0.42,5.5,203.1,1774382533000,0.9,41.2,210944733639322,6.0,0,,,
Fix,GPS,40.8931543585,29.3753074575,172.0,0.57,6.5,145.2,1774382534000,0.6,23.1,210945720828591,7.0,0,,,
Fix,GPS,40.8931411570,29.3753238861,171.0,0.94,5.5,148.0,1774382535000,0.99,24.7,210946737686821,7.0,0,,,
Fix,GPS,40.8931342000,29.3753186055,171.0,0.59,5.0,161.8,1774382536000,0.59,18.5,210947726134051,6.0,0,,,
Fix,GPS,40.8931343257,29.3753264844,171.0,0.44,5.0,146.6,1774382537000,0.46,19.0,210948735103512,6.0,0,,,
Fix,GPS,40.8931382233,29.3753360398,170.0,0.65,4.5,139.2,1774382538000,0.38,11.3,210949711638703,5.0,0,,,
Fix,GPS,40.8931402769,29.3753419910,171.0,0.59,5.0,110.4,1774382539000,1.13,54.8,210950716883626,5.0,0,,,
Fix,GPS,40.8931385586,29.3753512949,171.0,0.52,4.5,105.3,1774382540000,0.35,16.1,210951725947202,5.0,0,,,
Fix,GPS,40.8931388520,29.3753583357,170.0,0.42999998,4.5,93.2,1774382541000,0.66,136.0,210952725535317,5.0,0,,,
Fix,GPS,40.8931406541,29.3753675558,169.0,0.88,4.5,84.2,1774382542000,1.01,25.2,210953708564970,5.0,0,,,
Fix,GPS,40.8931366308,29.3753698189,169.0,0.04,4.5,89.8,1774382543000,0.89,31.5,210954718745661,5.0,0,,,
Fix,GPS,40.8931339066,29.3753713276,168.0,0.14999999,4.5,89.8,1774382544000,0.32,43.0,210955721098045,5.0,0,,,
Fix,GPS,40.8931338647,29.3753766082,167.0,0.71,4.0,89.8,1774382545000,0.6,56.7,210956709458275,4.0,0,,,
Fix,GPS,40.8931239741,29.3753859121,166.0,0.74,4.0,127.1,1774382546000,0.68,24.6,210957726087852,4.0,0,,,
Fix,GPS,40.8931158856,29.3753866665,166.0,0.56,4.0,129.0,1774382547000,0.48,15.0,210958715290389,4.0,0,,,
Fix,GPS,40.8931097249,29.3754030112,165.0,0.85999995,4.0,114.4,1774382548000,0.48,12.5,210959720441927,4.0,0,,,
Fix,GPS,40.8931067493,29.3754117284,165.0,0.7,4.0,123.3,1774382549000,0.38,10.2,210960742519503,4.0,0,,,
Fix,GPS,40.8931010077,29.3754205294,165.0,0.68,4.0,129.2,1774382550000,0.27,8.0,210961735624810,4.0,0,,,
Fix,GPS,40.8930957271,29.3754255585,165.0,0.88,4.0,135.6,1774382551000,0.27,6.0,210962722404502,4.0,0,,,
Fix,GPS,40.8930883929,29.3754352815,166.0,0.95,4.0,138.5,1774382552000,0.2,4.5,210963716492501,4.0,0,,,
Fix,GPS,40.8930789214,29.3754410651,167.0,0.96999997,3.5,143.8,1774382553000,0.19,4.1,210964737857270,4.0,0,,,
Fix,GPS,40.8930748142,29.3754482735,167.0,0.59999996,3.5,145.6,1774382554000,0.54,7.9,210965735311577,4.0,0,,,
Fix,GPS,40.8930668514,29.3754576612,167.0,0.83,3.5,135.0,1774382555000,0.31,7.7,210966729097345,3.0,0,,,
Fix,GPS,40.8930597687,29.3754671328,167.0,0.85999995,3.5,137.8,1774382556000,0.22,5.4,210967732094652,3.0,0,,,
Fix,GPS,40.8930527279,29.3754723296,167.0,0.59,3.5,134.3,1774382557000,0.25,7.5,210968741565344,3.0,0,,,
Fix,GPS,40.8930458128,29.3754770234,167.0,0.93,3.5,140.9,1774382558000,0.28,6.1,210969737901074,3.0,0,,,
Fix,GPS,40.8930375148,29.3754827231,168.0,1.14,3.5,145.2,1774382559000,0.31,5.6,210970734091727,3.0,0,,,
Fix,GPS,40.8930305578,29.3754881714,168.0,1.12,3.5,147.2,1774382560000,0.25,4.8,210971730016765,3.0,0,,,
Fix,GPS,40.8930231817,29.3754938710,168.0,0.7,3.5,144.6,1774382561000,0.28,7.1,210972749022495,3.0,0,,,
Fix,GPS,40.8930136682,29.3754990678,168.0,1.02,3.5,140.6,1774382562000,0.57,9.9,210973738516648,3.0,0,,,
Fix,GPS,40.8930062084,29.3755032588,168.0,0.71,3.5,128.7,1774382563000,0.29,8.5,210974708189724,3.0,0,,,
Fix,GPS,40.8930028975,29.3755079526,168.0,0.32999998,3.5,123.9,1774382564000,0.49,12.5,210975710453185,3.0,0,,,
Fix,GPS,40.8929934260,29.3755090423,168.0,0.84,3.5,145.5,1774382565000,0.38,9.2,210976735590915,3.0,0,,,
Fix,GPS,40.8929866785,29.3755100481,168.0,0.85999995,3.5,160.5,1774382566000,0.28,5.9,210977736671145,3.0,0,,,
Fix,GPS,40.8929784223,29.3755137362,168.0,0.53,3.5,165.5,1774382567000,0.37,8.4,210978740326375,3.0,0,,,
Fix,GPS,40.8929688251,29.3755035941,168.0,0.82,3.5,177.9,1774382568000,0.35,7.9,210979728359490,3.0,0,,,
Fix,GPS,40.8929594373,29.3755027559,167.0,0.90999997,3.5,179.6,1774382569000,0.26,4.9,210980731030220,3.0,0,,,
Fix,GPS,40.8929501334,29.3754967209,167.0,0.72999996,3.5,176.5,1774382570000,0.24,4.7,210981723249373,3.0,0,,,
Fix,GPS,40.8929388598,29.3754968885,168.0,0.65,3.5,172.2,1774382571000,0.18,4.8,210982734148564,3.0,0,,,
Fix,GPS,40.8929329086,29.3755005766,168.0,0.84,3.5,163.7,1774382572000,0.25,5.7,210983723407333,3.0,0,,,
Fix,GPS,40.8929236047,29.3755072821,168.0,0.98999995,3.5,157.9,1774382573000,0.21,4.8,210984730790986,3.0,0,,,
Fix,GPS,40.8929164382,29.3755109701,168.0,0.96,3.5,162.0,1774382574000,0.24,5.1,210985717998755,3.0,0,,,
Fix,GPS,40.8929054579,29.3755117245,169.0,0.9,3.5,161.6,1774382575000,0.21,4.9,210986742100023,3.0,0,,,
Fix,GPS,40.8928993391,29.3755188491,168.0,1.1899999,3.5,156.5,1774382576000,0.26,4.5,210987731349061,3.0,0,,,
Fix,GPS,40.8928894484,29.3755256385,168.0,1.1,3.0,162.9,1774382577000,0.25,4.6,210988736657522,3.0,0,,,
Fix,GPS,40.8928779233,29.3755266443,168.0,0.93,3.0,172.3,1774382578000,0.22,4.1,210989735955406,3.0,0,,,
Fix,GPS,40.8928705472,29.3755320925,168.0,1.17,3.0,168.9,1774382579000,0.27,4.5,210990719000559,2.0,0,,,
Fix,GPS,40.8928603632,29.3755372893,169.0,1.1,3.5,165.3,1774382580000,0.14,2.8,210991730619520,3.0,0,,,
Fix,GPS,40.8928525681,29.3755440786,169.0,1.11,3.5,163.0,1774382581000,0.2,3.7,210992718193057,3.0,0,,,
Fix,GPS,40.8928420488,29.3755450007,169.0,0.95,3.5,158.0,1774382582000,0.2,3.4,210993729915518,3.0,0,,,
Fix,GPS,40.8928361814,29.3755492754,170.0,0.91999996,3.5,161.7,1774382583000,0.15,3.2,210994731881556,3.0,0,,,
Fix,GPS,40.8928283444,29.3755563162,171.0,0.82,3.5,163.6,1774382584000,0.17,3.6,210995727569017,3.0,0,,,
Fix,GPS,40.8928215131,29.3755580764,171.0,0.56,3.0,165.6,1774382585000,0.23,5.8,210996738809170,3.0,0,,,
Fix,GPS,40.8928142209,29.3755604234,171.0,0.69,3.5,165.0,1774382586000,0.15,4.6,210997722794400,3.0,0,,,
Fix,GPS,40.8928091917,29.3755632732,170.0,0.82,3.5,161.2,1774382587000,0.15,4.3,210998736265515,3.0,0,,,
Fix,GPS,40.8927996363,29.3755688053,170.0,0.79999995,3.5,162.7,1774382588000,0.13,3.5,210999741972514,3.0,0,,,
Fix,GPS,40.8927920088,29.3755716551,170.0,0.71,3.5,159.8,1774382589000,0.17,4.3,211000725422936,3.0,0,,,
Fix,GPS,40.8927852614,29.3755747564,171.0,0.93,3.5,165.3,1774382590000,0.19,3.4,211001713525512,3.0,0,,,
Fix,GPS,40.8927761670,29.3755750079,171.0,0.9,3.5,165.6,1774382591000,0.14,3.8,211002715299858,3.0,0,,,
Fix,GPS,40.8927688329,29.3755747564,171.0,0.78999996,3.5,163.3,1774382592000,0.16,3.9,211003751639665,3.0,0,,,
Fix,GPS,40.8927573496,29.3755779415,171.0,1.06,3.5,157.7,1774382593000,0.19,3.4,211004723019164,3.0,0,,,
Fix,GPS,40.8927492611,29.3755851500,171.0,0.96999997,3.5,160.1,1774382594000,0.18,3.7,211005739869356,3.0,0,,,
Fix,GPS,40.8927384485,29.3755885027,172.0,0.94,3.5,164.3,1774382595000,0.13,2.9,211006724805163,3.0,0,,,
Fix,GPS,40.8927311981,29.3755874131,172.0,0.68,3.5,165.1,1774382596000,0.16,4.0,211007731159470,3.0,0,,,
Fix,GPS,40.8927240735,29.3755908497,171.0,0.84,3.5,164.3,1774382597000,0.15,3.8,211008732300854,3.0,0,,,
Fix,GPS,40.8927184576,29.3755920231,171.0,0.88,3.5,168.2,1774382598000,0.14,3.0,211009721266545,3.0,0,,,
Fix,GPS,40.8927105786,29.3755915202,171.0,0.66999996,3.5,166.7,1774382599000,0.24,5.0,211010745186737,3.0,0,,,
Fix,GPS,40.8927054657,29.3755963817,172.0,0.85999995,3.5,159.4,1774382600000,0.14,3.5,211011718953505,3.0,0,,,
Fix,GPS,40.8927004365,29.3756011594,172.0,0.81,3.5,153.8,1774382601000,0.16,3.8,211012720957428,3.0,0,,,
Fix,GPS,40.8926941920,29.3756092899,171.0,0.78,3.5,152.2,1774382602000,0.16,3.9,211013735077196,3.0,0,,,
Fix,GPS,40.8926895820,29.3756171688,172.0,0.62,3.5,146.6,1774382603000,0.18,4.8,211014729861888,3.0,0,,,
Fix,GPS,40.8926830860,29.3756232038,171.0,0.9,3.5,141.7,1774382604000,0.18,4.3,211015726793502,3.0,0,,,
Fix,GPS,40.8926744945,29.3756277300,170.0,0.71999997,3.5,141.9,1774382605000,0.2,5.0,211016744958232,3.0,0,,,
Fix,GPS,40.8926666155,29.3756322563,170.0,0.65999997,3.0,145.2,1774382606000,0.15,4.6,211017729579886,3.0,0,,,
Fix,GPS,40.8926625922,29.3756361958,170.0,0.94,3.5,157.3,1774382607000,0.16,3.3,211018722575039,3.0,0,,,
Fix,GPS,40.8926530369,29.3756384589,170.0,0.9,3.5,158.2,1774382608000,0.16,3.3,211019732732423,3.0,0,,,
Fix,GPS,40.8926436910,29.3756436557,170.0,0.85999995,3.5,155.1,1774382609000,0.21,4.6,211020726731614,3.0,0,,,
Fix,GPS,40.8926386200,29.3756518699,169.0,0.72999996,3.5,153.8,1774382610000,0.16,4.3,211021727336267,3.0,0,,,
Fix,GPS,40.8926283941,29.3756550550,169.0,0.97999996,3.5,158.5,1774382611000,0.18,3.6,211022731986190,3.0,0,,,
Fix,GPS,40.8926204313,29.3756586593,169.0,0.84999996,3.5,165.1,1774382612000,0.15,3.4,211023744116150,3.0,0,,,
Fix,GPS,40.8926140610,29.3756620120,169.0,0.68,3.5,162.3,1774382613000,0.2,4.6,211024727688881,3.0,0,,,
Fix,GPS,40.8926059306,29.3756641075,168.0,0.83,3.5,156.0,1774382614000,0.19,3.9,211025732006457,3.0,0,,,
Fix,GPS,40.8925975487,29.3756709807,168.0,0.89,3.5,146.0,1774382615000,0.29,5.6,211026743582956,3.0,0,,,
Fix,GPS,40.8925873227,29.3756722379,168.0,0.94,3.5,144.6,1774382616000,0.16,3.7,211027747686071,3.0,0,,,
Fix,GPS,40.8925876161,29.3756785244,167.0,0.96,3.5,145.1,1774382617000,0.21,3.9,211028732443378,3.0,0,,,
Fix,GPS,40.8925844310,29.3756825477,167.0,0.85999995,3.5,153.7,1774382618000,0.18,4.5,211029727922800,3.0,0,,,
Fix,GPS,40.8925781865,29.3756879121,167.0,0.90999997,3.5,159.1,1774382619000,0.22,4.6,211030712390761,3.0,0,,,
Fix,GPS,40.8925685054,29.3756910972,168.0,0.88,3.5,165.2,1774382620000,0.18,4.0,211031740632068,4.0,0,,,
Fix,GPS,40.8925587405,29.3756925222,167.0,1.1,3.5,175.4,1774382621000,0.3,4.0,211032722806106,3.0,0,,,
Fix,GPS,40.8925521187,29.3756905943,167.0,1.05,3.5,176.1,1774382622000,0.14,2.9,211033717173490,3.0,0,,,
Fix,GPS,40.8925427729,29.3756921869,167.0,0.96,3.5,174.4,1774382623000,0.24,4.8,211034754133027,4.0,0,,,
Fix,GPS,40.8925351873,29.3756975513,166.0,1.01,4.0,167.0,1774382624000,0.16,3.0,211035746269911,4.0,0,,,
Fix,GPS,40.8925272664,29.3757014908,167.0,0.84999996,3.5,165.1,1774382625000,0.23,4.1,211036729870680,3.0,0,,,
Fix,GPS,40.8925163699,29.3757037539,167.0,0.94,3.5,164.4,1774382626000,0.23,4.6,211037732672333,4.0,0,,,
Fix,GPS,40.8925110893,29.3757104594,167.0,0.95,3.5,162.5,1774382627000,0.2,4.2,211038708790371,4.0,0,,,
Fix,GPS,40.8925063116,29.3757168297,168.0,0.62,3.5,160.8,1774382628000,0.39,7.3,211039708535601,3.0,0,,,
Fix,GPS,40.8924977621,29.3757226132,167.0,0.97999996,3.5,165.8,1774382629000,0.67,8.7,211040738273561,3.0,0,,,
Fix,GPS,40.8924918110,29.3757257145,167.0,0.38,4.0,166.7,1774382630000,0.81,13.2,211041736587445,4.0,0,,,
Fix,GPS,40.8924866980,29.3757273909,166.0,0.32,4.0,167.6,1774382631000,0.71,18.3,211042706236560,4.0,0,,,
Fix,GPS,40.8924798248,29.3757263850,164.0,1.28,4.5,192.1,1774382632000,0.8,12.3,211043729698559,4.0,0,,,
Fix,GPS,40.8924702695,29.3757253792,162.0,0.96,4.0,201.0,1774382633000,0.36,5.0,211044747069482,4.0,0,,,
Fix,GPS,40.8924651984,29.3757234514,161.0,0.63,4.0,211.9,1774382634000,0.23,5.5,211045697504750,4.0,0,,,
Fix,GPS,40.8924594568,29.3757220265,161.0,1.06,4.0,200.2,1774382635000,0.35,6.8,211046739041288,4.0,0,,,
Fix,GPS,40.8924514102,29.3757242896,161.0,0.94,4.5,177.4,1774382636000,0.16,3.5,211047723730287,4.0,0,,,
Fix,GPS,40.8924434893,29.3757329229,161.0,0.95,4.0,176.0,1774382637000,0.3,5.3,211048732892248,4.0,0,,,
Fix,GPS,40.8924287371,29.3757460825,160.0,0.88,4.0,169.1,1774382639000,0.31,6.6,211050732700939,4.0,0,,,
Fix,GPS,40.8924216544,29.3757567275,161.0,1.0,3.5,169.3,1774382640000,0.39,7.1,211051744921207,3.0,0,,,
Fix,GPS,40.8924144041,29.3757597450,161.0,0.78,4.0,158.3,1774382641000,0.29,7.3,211052728283130,4.0,0,,,
Fix,GPS,40.8924119733,29.3757703900,161.0,0.79999995,3.5,150.4,1774382642000,0.44,9.2,211053726994706,4.0,0,,,
Fix,GPS,40.8924052259,29.3757768441,160.0,0.65,4.0,154.2,1774382643000,0.25,7.2,211054725957667,4.0,0,,,
Fix,GPS,40.8923960477,29.3757786881,160.0,0.9,3.5,160.4,1774382644000,0.31,5.6,211055728589128,4.0,0,,,
Fix,GPS,40.8923885878,29.3757817894,160.0,0.72999996,4.0,158.5,1774382645000,0.22,5.2,211056738622588,4.0,0,,,
Fix,GPS,40.8923784038,29.3757856451,160.0,0.7,3.0,159.0,1774382646000,0.41,8.0,211057731306472,3.0,0,,,
Fix,GPS,40.8923714049,29.3757900037,161.0,0.63,3.5,142.8,1774382647000,0.23,7.6,211058713533049,4.0,0,,,
Fix,GPS,40.8923654957,29.3757993076,161.0,1.04,3.5,139.3,1774382648000,0.37,7.7,211059709844971,3.0,0,,,
Fix,GPS,40.8923570300,29.3758088630,162.0,0.79999995,4.0,144.5,1774382649000,0.28,7.9,211060703846586,4.0,0,,,
Fix,GPS,40.8923517494,29.3758129701,162.0,0.75,3.5,143.8,1774382650000,0.28,7.1,211061723639854,3.0,0,,,
Fix,GPS,40.8923426131,29.3758186698,162.0,0.87,3.5,154.6,1774382651000,0.2,4.6,211062729936584,3.0,0,,,
Fix,GPS,40.8923371229,29.3758234475,162.0,0.63,3.5,155.2,1774382652000,0.37,7.6,211063738921545,3.0,0,,,
Fix,GPS,40.8923289506,29.3758288957,163.0,0.9,3.0,157.7,1774382653000,0.37,7.7,211064738568737,3.0,0,,,
Fix,GPS,40.8923181379,29.3758346792,163.0,0.95,3.5,158.7,1774382654000,0.26,5.1,211065736596697,4.0,0,,,
Fix,GPS,40.8923098817,29.3758373614,163.0,1.23,3.5,168.1,1774382655000,0.29,4.4,211066732869197,4.0,0,,,
Fix,GPS,40.8923008293,29.3758372776,163.0,0.84,3.5,176.8,1774382656000,0.29,5.6,211067734678965,4.0,0,,,
Fix,GPS,40.8922895556,29.3758363556,163.0,0.83,3.0,176.7,1774382657000,0.4,8.2,211068729107811,3.0,0,,,
Fix,GPS,40.8922820957,29.3758424744,163.0,1.0699999,3.5,163.1,1774382658000,0.24,5.2,211069736420502,3.0,0,,,
Fix,GPS,40.8922715345,29.3758438993,163.0,0.68,3.5,157.2,1774382659000,0.39,7.9,211070730603078,4.0,0,,,
Fix,GPS,40.8922635298,29.3758441508,163.0,0.84999996,3.5,150.6,1774382660000,0.45,10.0,211071727704347,3.0,0,,,
Fix,GPS,40.8922546450,29.3758500181,163.0,1.1,3.0,149.6,1774382661000,0.54,10.9,211072742380423,3.0,0,,,
Fix,GPS,40.8922440838,29.3758545443,163.0,0.91999996,3.5,150.5,1774382662000,0.41,9.7,211073725374461,3.0,0,,,
Fix,GPS,40.8922350733,29.3758627586,163.0,0.91999996,3.5,157.2,1774382663000,0.23,5.5,211074754535768,3.0,0,,,
Fix,GPS,40.8922247216,29.3758667819,163.0,0.94,3.0,160.1,1774382664000,0.18,3.7,211075732217113,3.0,0,,,
Fix,GPS,40.8922179742,29.3758723978,163.0,1.06,3.5,170.4,1774382665000,0.21,3.7,211076741937228,3.0,0,,,
Fix,GPS,40.8922078321,29.3758730683,163.0,0.96999997,3.5,175.5,1774382666000,0.35,6.1,211077721367650,3.0,0,,,
Fix,GPS,40.8921996178,29.3758731522,163.0,1.05,3.0,178.4,1774382667000,0.32,6.5,211078723984611,3.0,0,,,
Fix,GPS,40.8921911102,29.3758752476,162.0,1.27,3.5,163.8,1774382668000,0.26,4.9,211079732468303,3.0,0,,,
Fix,GPS,40.8921846142,29.3758821208,163.0,0.74,3.5,157.5,1774382669000,0.39,7.3,211080739509956,3.0,0,,,
Fix,GPS,40.8921779506,29.3758850545,162.0,0.81,3.0,156.5,1774382670000,0.25,6.4,211081731331032,3.0,0,,,
Fix,GPS,40.8921686467,29.3758858088,162.0,0.95,3.0,163.2,1774382671000,0.25,4.5,211082733054801,3.0,0,,,
Fix,GPS,40.8921576664,29.3758931011,162.0,1.1899999,3.0,156.0,1774382672000,0.31,5.0,211083739280223,3.0,0,,,
Fix,GPS,40.8921474824,29.3758998904,162.0,1.1,3.5,142.7,1774382673000,0.28,5.0,211084729898953,3.0,0,,,
Fix,GPS,40.8921362506,29.3759059254,162.0,0.96,3.0,133.5,1774382674000,0.28,5.8,211085752222337,3.0,0,,,
Fix,GPS,40.8921316406,29.3759175763,162.0,0.9,3.0,130.4,1774382675000,0.19,4.1,211086727050721,3.0,0,,,
Fix,GPS,40.8921225043,29.3759247009,162.0,0.94,3.0,128.8,1774382676000,0.21,4.2,211087733910566,3.0,0,,,
Fix,GPS,40.8921151701,29.3759355973,163.0,1.36,3.0,118.3,1774382677000,0.31,5.1,211088714217950,3.0,0,,,
Fix,GPS,40.8921111049,29.3759507686,164.0,1.02,3.0,105.5,1774382678000,0.27,6.0,211089724570180,3.0,0,,,
Fix,GPS,40.8921069978,29.3759596534,165.0,0.88,3.0,95.9,1774382679000,0.51,9.2,211090741490718,3.0,0,,,
Fix,GPS,40.8921030583,29.3759729806,164.0,1.06,3.0,102.8,1774382680000,0.47,9.9,211091725889871,3.0,0,,,
Fix,GPS,40.8920950955,29.3759826198,164.0,1.0799999,3.0,110.8,1774382681000,0.4,9.6,211092733947986,3.0,0,,,
Fix,GPS,40.8920886414,29.3759949412,164.0,1.09,3.0,123.1,1774382682000,0.19,4.3,211093735417639,3.0,0,,,
Fix,GPS,40.8920880547,29.3760021497,163.0,0.74,3.0,124.8,1774382683000,0.25,6.3,211094738143215,3.0,0,,,
Fix,GPS,40.8920833189,29.3760082684,162.0,1.06,3.0,131.5,1774382684000,0.22,5.5,211095739970714,3.0,0,,,
Fix,GPS,40.8920774097,29.3760128785,162.0,0.84,3.5,138.5,1774382685000,0.25,5.8,211096743971098,3.0,0,,,
Fix,GPS,40.8920681477,29.3760168180,162.0,0.96999997,3.0,138.5,1774382686000,0.25,5.3,211097728072905,3.0,0,,,
Fix,GPS,40.8920616936,29.3760255352,163.0,0.91999996,3.0,127.1,1774382687000,0.23,5.2,211098743855828,3.0,0,,,
Fix,GPS,40.8920574188,29.3760333303,163.0,1.0799999,3.0,121.4,1774382688000,0.2,4.7,211099739092288,3.0,0,,,
Fix,GPS,40.8920514258,29.3760440592,163.0,0.88,3.0,120.6,1774382689000,0.22,5.1,211100737591980,3.0,0,,,
Fix,GPS,40.8920479054,29.3760537822,163.0,0.91999996,3.0,124.3,1774382690000,0.2,4.7,211101728575595,3.0,0,,,
Fix,GPS,40.8920426248,29.3760661036,163.0,0.91999996,3.0,124.8,1774382691000,0.2,4.5,211102736605094,3.0,0,,,
Fix,GPS,40.8920403617,29.3760780059,163.0,1.09,3.0,115.2,1774382692000,0.29,6.0,211103708607016,3.0,0,,,
Fix,GPS,40.8920355001,29.3760918360,163.0,0.94,3.0,105.7,1774382693000,0.26,6.4,211104729469862,3.0,0,,,
Fix,GPS,40.8920289623,29.3760970328,164.0,0.83,3.0,109.1,1774382694000,0.25,6.5,211105724511015,3.0,0,,,
Fix,GPS,40.8920256933,29.3761055823,164.0,0.75,3.0,100.0,1774382695000,0.35,8.8,211106730805514,3.0,0,,,
Fix,GPS,40.8920243522,29.3761146348,165.0,1.06,2.5,104.6,1774382696000,0.32,8.4,211107732127206,3.0,0,,,
Fix,GPS,40.8920163894,29.3761303928,165.0,0.98999995,3.0,110.2,1774382697000,0.19,4.7,211108734233859,3.0,0,,,
Fix,GPS,40.8920136234,29.3761386909,164.0,0.68,3.0,107.1,1774382698000,0.32,7.6,211109733875551,3.0,0,,,
Fix,GPS,40.8920121985,29.3761479110,164.0,0.89,3.0,99.1,1774382699000,0.26,7.4,211110741191242,3.0,0,,,
Fix,GPS,40.8920114441,29.3761579692,164.0,0.84,3.0,96.1,1774382700000,0.21,6.4,211111731815934,3.0,0,,,
Fix,GPS,40.8920101030,29.3761703745,164.0,0.89,3.0,97.0,1774382701000,0.19,4.8,211112730874779,3.0,0,,,
Fix,GPS,40.8920117794,29.3761768285,164.0,0.83,3.0,82.3,1774382702000,0.32,6.2,211113722284971,3.0,0,,,
Fix,GPS,40.8920132881,29.3761848751,164.0,1.04,2.5,97.7,1774382703000,0.27,6.3,211114730783162,3.0,0,,,
Fix,GPS,40.8920095162,29.3761963584,164.0,0.98999995,3.0,101.7,1774382704000,0.22,5.8,211115738885585,3.0,0,,,
Fix,GPS,40.8920058701,29.3762054108,164.0,0.96,3.0,103.3,1774382705000,0.24,5.9,211116751627507,3.0,0,,,
Fix,GPS,40.8920029784,29.3762168940,164.0,0.75,3.0,96.5,1774382706000,0.3,8.0,211117727354968,3.0,0,,,
Fix,GPS,40.8920054510,29.3762280419,164.0,0.74,3.0,84.8,1774382707000,0.3,9.6,211118739718006,3.0,0,,,
Fix,GPS,40.8920052834,29.3762391061,164.0,0.94,3.0,78.3,1774382708000,0.24,6.5,211119744572082,3.0,0,,,
Fix,GPS,40.8920026431,29.3762508407,164.0,0.89,3.0,81.5,1774382709000,0.2,5.2,211120739693543,3.0,0,,,
Fix,GPS,40.8920016373,29.3762665149,164.0,0.7,2.5,82.1,1774382710000,0.23,5.9,211121726513350,2.0,0,,,
Fix,GPS,40.8920010924,29.3762771599,164.0,0.84999996,3.0,80.8,1774382711000,0.31,6.7,211122716143426,3.0,0,,,
Fix,GPS,40.8920032298,29.3762904033,165.0,0.83,3.0,79.2,1774382712000,0.27,7.8,211123743527617,3.0,0,,,
Fix,GPS,40.8920033555,29.3763032276,164.0,0.96999997,3.0,69.5,1774382713000,0.28,7.8,211124735512501,3.0,0,,,
Fix,GPS,40.8920072950,29.3763079215,164.0,1.03,3.5,49.2,1774382714000,0.34,7.2,211125737144885,3.0,0,,,
Fix,GPS,40.8920117794,29.3763171416,164.0,1.1,3.0,48.2,1774382715000,0.3,6.7,211126733178538,3.0,0,,,
Fix,GPS,40.8920166409,29.3763304688,164.0,1.04,3.0,58.4,1774382716000,0.27,6.3,211127735552538,3.0,0,,,
Fix,GPS,40.8920182753,29.3763406947,165.0,0.91999996,3.0,54.5,1774382717000,0.36,7.9,211128731294883,3.0,0,,,
Fix,GPS,40.8920173952,29.3763525132,164.0,1.28,3.0,73.0,1774382718000,0.41,9.0,211129730487075,3.0,0,,,
Fix,GPS,40.8920132043,29.3763705343,164.0,1.51,3.0,89.0,1774382719000,0.42,8.8,211130723511036,2.0,0,,,
Fix,GPS,40.8920148807,29.3763848674,164.0,0.93,3.5,92.2,1774382720000,0.58,11.7,211131718532342,3.0,0,,,
Fix,GPS,40.8920183592,29.3763918243,165.0,0.61,3.0,89.1,1774382721000,0.47,14.2,211132726950034,2.0,0,,,
Fix,GPS,40.8920207899,29.3764000386,165.0,0.74,3.0,45.5,1774382722000,0.33,10.2,211133719595495,3.0,0,,,
Fix,GPS,40.8920270344,29.3764081690,165.0,0.85999995,3.0,57.9,1774382723000,0.29,8.7,211134722227033,3.0,0,,,
Fix,GPS,40.8920301357,29.3764202390,165.0,0.90999997,3.0,56.7,1774382724000,0.45,10.4,211135714655955,2.0,0,,,
Fix,GPS,40.8920304710,29.3764337339,165.0,0.95,3.5,49.8,1774382725000,0.28,7.3,211136714145070,3.0,0,,,
Fix,GPS,40.8920337399,29.3764437921,165.0,0.82,3.5,57.2,1774382726000,0.27,8.0,211137730912954,3.0,0,,,
Fix,GPS,40.8920333209,29.3764547724,165.0,1.31,3.0,61.9,1774382727000,0.29,5.9,211138735516876,3.0,0,,,
Fix,GPS,40.8920339914,29.3764695246,166.0,1.05,3.5,71.3,1774382728000,0.32,7.1,211139739941644,3.0,0,,,
Fix,GPS,40.8920346620,29.3764850311,167.0,1.02,3.5,84.2,1774382729000,0.21,6.9,211140716722375,3.0,0,,,
Fix,GPS,40.8920374280,29.3764959276,167.0,1.09,3.5,74.0,1774382730000,0.41,8.2,211141714446566,3.0,0,,,
Fix,GPS,40.8920430858,29.3765033036,167.0,1.1,3.5,72.2,1774382731000,0.33,8.7,211142727924681,3.0,0,,,
Fix,GPS,40.8920498332,29.3765121885,167.0,0.84999996,3.5,61.1,1774382732000,0.38,9.7,211143729474295,3.0,0,,,
Fix,GPS,40.8920554072,29.3765227497,167.0,1.03,3.0,52.1,1774382733000,0.35,8.7,211144721474102,2.0,0,,,
Fix,GPS,40.8920641663,29.3765299581,168.0,1.04,3.5,46.9,1774382734000,0.24,6.0,211145723057525,3.0,0,,,
Fix,GPS,40.8920720033,29.3765400164,168.0,1.06,3.5,45.2,1774382735000,0.25,5.4,211146732448716,3.0,0,,,
Fix,GPS,40.8920809720,29.3765473925,168.0,1.0699999,3.5,46.7,1774382736000,0.34,7.1,211147728330639,3.0,0,,,
Fix,GPS,40.8920865040,29.3765533436,168.0,0.96999997,3.5,38.2,1774382737000,0.26,6.6,211148730033369,3.0,0,,,
Fix,GPS,40.8920936706,29.3765617255,168.0,1.18,3.0,42.0,1774382738000,0.26,5.3,211149715592868,2.0,0,,,
Fix,GPS,40.8921034774,29.3765722029,168.0,1.28,3.0,35.6,1774382739000,0.23,4.4,211150732491098,3.0,0,,,
Fix,GPS,40.8921145834,29.3765765615,168.0,1.04,3.0,37.4,1774382740000,0.36,6.5,211151730018251,3.0,0,,,
Fix,GPS,40.8921216661,29.3765841052,168.0,1.0699999,3.0,45.3,1774382741000,0.26,5.6,211152723435981,2.0,0,,,
Fix,GPS,40.8921314310,29.3765961751,168.0,1.22,3.0,37.5,1774382742000,0.36,6.5,211153736973673,3.0,0,,,
Fix,GPS,40.8921401901,29.3765987735,168.0,1.04,3.5,24.1,1774382743000,0.3,6.8,211154726893211,3.0,0,,,
Fix,GPS,40.8921458898,29.3765982706,168.0,0.71,3.0,21.6,1774382744000,0.25,7.5,211155728720248,2.0,0,,,
Fix,GPS,40.8921541041,29.3766012043,168.0,0.97999996,3.0,9.3,1774382745000,0.27,6.4,211156731086748,3.0,0,,,
Fix,GPS,40.8921662159,29.3766024616,168.0,1.18,3.0,20.7,1774382746000,0.23,4.2,211157716018055,3.0,0,,,
Fix,GPS,40.8921735082,29.3766049761,167.0,0.96,3.0,21.5,1774382747000,0.21,4.6,211158717793554,3.0,0,,,
Fix,GPS,40.8921805490,29.3766120169,168.0,0.78999996,3.0,21.9,1774382748000,0.22,4.9,211159735218592,2.0,0,,,
Fix,GPS,40.8921901463,29.3766165432,168.0,0.88,3.0,21.1,1774382749000,0.27,5.7,211160740439245,2.0,0,,,
Fix,GPS,40.8921969356,29.3766266014,168.0,0.96999997,2.5,25.9,1774382750000,0.25,5.1,211161716136859,2.0,0,,,
Fix,GPS,40.8922033058,29.3766274396,168.0,0.69,3.0,21.1,1774382751000,0.25,5.3,211162722570013,3.0,0,,,
Fix,GPS,40.8922084607,29.3766307086,168.0,0.65999997,3.0,15.1,1774382752000,0.2,5.2,211163732045473,2.0,0,,,
Fix,GPS,40.8922178484,29.3766327202,168.0,1.01,3.0,14.1,1774382753000,0.24,4.1,211164711079742,3.0,0,,,
Fix,GPS,40.8922267333,29.3766374141,168.0,0.93,3.0,12.3,1774382754000,0.76,7.8,211165706914664,3.0,0,,,
Fix,GPS,40.8922394738,29.3766384199,168.0,1.6999999,3.0,7.3,1774382755000,0.39,4.2,211166706727394,2.0,0,,,
Fix,GPS,40.8922537230,29.3766405154,168.0,1.4599999,3.5,7.2,1774382756000,0.59,6.4,211167702201163,3.0,0,,,
Fix,GPS,40.8922670921,29.3766385037,167.0,1.38,4.5,1.5,1774382757000,0.55,8.3,211168710779854,4.0,0,,,
Fix,GPS,40.8922699420,29.3766405154,167.0,0.37,5.0,358.0,1774382758000,0.58,12.8,211169711861161,4.0,0,,,
Fix,GPS,40.8922707802,29.3766394258,167.0,0.22999999,4.0,354.6,1774382759000,0.68,18.1,211170714293315,3.0,0,,,
Fix,GPS,40.8922787430,29.3766364921,167.0,0.58,4.0,353.5,1774382760000,0.82,20.1,211171721479275,3.0,0,,,
Fix,GPS,40.8922937885,29.3766365759,167.0,1.39,4.0,355.5,1774382761000,0.34,6.4,211172718839929,3.0,0,,,
Fix,GPS,40.8923016675,29.3766380847,168.0,0.98999995,4.5,359.0,1774382762000,0.41,8.1,211173720153851,4.0,0,,,
Fix,GPS,40.8923087083,29.3766421080,169.0,0.72999996,3.5,7.9,1774382763000,0.5,11.0,211174713166466,3.0,0,,,
Fix,GPS,40.8923154976,29.3766473886,168.0,1.0799999,4.0,36.7,1774382764000,0.22,4.7,211175712358157,3.0,0,,,
Fix,GPS,40.8923279867,29.3766608834,168.0,1.54,4.0,56.6,1774382765000,0.33,5.4,211176718042464,3.0,0,,,
Fix,GPS,40.8923288668,29.3766704388,167.0,1.03,3.5,85.0,1774382766000,0.4,6.8,211177731027540,3.0,0,,,
Fix,GPS,40.8923273161,29.3766828440,167.0,0.91999996,3.5,97.8,1774382767000,0.3,7.0,211178736297963,3.0,0,,,
Fix,GPS,40.8923267294,29.3766909745,167.0,1.29,2.5,93.8,1774382768000,0.3,5.7,211179727895808,2.0,0,,,
Fix,GPS,40.8923268970,29.3767059781,167.0,1.06,3.5,97.0,1774382769000,0.32,7.0,211180713141500,3.0,0,,,
Fix,GPS,40.8923304593,29.3767150305,167.0,0.82,3.5,88.7,1774382770000,0.35,8.7,211181709537884,3.0,0,,,
Fix,GPS,40.8923321776,29.3767259270,167.0,1.1899999,3.0,82.4,1774382771000,0.37,7.8,211182715138575,3.0,0,,,
Fix,GPS,40.8923351951,29.3767408468,168.0,0.94,3.0,80.9,1774382772000,0.37,8.1,211183737595382,3.0,0,,,
Fix,GPS,40.8923400147,29.3767523300,168.0,1.0799999,3.0,73.5,1774382773000,0.27,5.5,211184728791651,3.0,0,,,
Fix,GPS,40.8923451276,29.3767666630,169.0,1.41,3.5,70.1,1774382774000,0.45,7.1,211185725093612,3.0,0,,,
Fix,GPS,40.8923503663,29.3767743744,169.0,0.88,3.5,58.6,1774382775000,0.33,7.4,211186733921342,3.0,0,,,
Fix,GPS,40.8923540544,29.3767819181,169.0,0.63,3.0,62.2,1774382776000,0.34,8.8,211187735572725,2.0,0,,,
Fix,GPS,40.8923574071,29.3767899647,169.0,1.04,3.0,68.3,1774382777000,0.45,8.4,211188730755686,3.0,0,,,
Fix,GPS,40.8923626039,29.3768016994,169.0,0.83,3.5,58.1,1774382778000,0.33,8.3,211189716371570,3.0,0,,,
Fix,GPS,40.8923667111,29.3768137693,168.0,0.68,3.0,62.0,1774382779000,0.42,10.7,211190717678800,3.0,0,,,
Fix,GPS,40.8923672559,29.3768228218,168.0,0.88,3.5,73.0,1774382780000,0.35,10.9,211191768451030,3.0,0,,,
Fix,GPS,40.8923693933,29.3768281862,169.0,0.59999996,3.0,73.2,1774382781000,0.3,10.1,211192738896607,3.0,0,,,
Fix,GPS,40.8923711954,29.3768360652,169.0,0.53999996,3.5,76.8,1774382782000,0.3,10.3,211193724982837,3.0,0,,,
Fix,GPS,40.8923710277,29.3768444471,169.0,0.75,4.0,87.2,1774382783000,0.3,10.1,211194736644605,3.0,0,,,
Fix,GPS,40.8923695609,29.3768565170,169.0,0.61,3.5,93.2,1774382784000,0.21,8.2,211195707458066,3.0,0,,,
Fix,GPS,40.8923703991,29.3768634740,169.0,0.65,3.5,94.6,1774382785000,0.52,11.1,211196710916027,3.0,0,,,
Fix,GPS,40.8923745062,29.3768725265,169.0,0.65,3.5,74.3,1774382786000,0.23,7.6,211197713770026,3.0,0,,,
Fix,GPS,40.8923776494,29.3768788129,169.0,0.11,3.5,71.9,1774382787000,0.3,10.8,211198714455910,3.0,0,,,
Fix,GPS,40.8923740033,29.3768757116,168.0,0.19999999,3.5,69.2,1774382788000,0.36,14.8,211199723687563,3.0,0,,,
Fix,GPS,40.8923759731,29.3768774718,168.0,0.84999996,3.0,89.6,1774382789000,0.33,6.5,211200710467832,3.0,0,,,
Fix,GPS,40.8923758892,29.3768871948,168.0,0.59999996,3.5,92.3,1774382790000,0.61,9.5,211201722758023,3.0,0,,,
Fix,GPS,40.8923795354,29.3768938165,168.0,0.59999996,3.5,81.3,1774382791000,0.34,10.3,211202732782869,3.0,0,,,
Fix,GPS,40.8923896356,29.3769074790,167.0,1.8299999,3.5,37.8,1774382792000,0.4,5.6,211203721673906,3.0,0,,,
Fix,GPS,40.8923995262,29.3769217283,167.0,0.65,4.0,37.4,1774382793000,0.34,7.9,211204718155636,3.0,0,,,
Fix,GPS,40.8923982689,29.3769337144,167.0,0.97999996,3.5,57.2,1774382794000,0.39,8.3,211205731615559,3.0,0,,,
Fix,GPS,40.8924000291,29.3769499753,167.0,1.04,3.5,89.0,1774382795000,0.25,6.2,211206707527366,3.0,0,,,
Fix,GPS,40.8923984366,29.3769620452,167.0,0.71,4.0,99.5,1774382796000,0.23,5.9,211207707810327,3.0,0,,,
Fix,GPS,40.8924001548,29.3769767135,167.0,1.5899999,3.0,84.8,1774382797000,0.37,4.6,211208702772095,3.0,0,,,
Fix,GPS,40.8924021665,29.3769923877,167.0,0.81,4.0,83.4,1774382798000,0.4,7.2,211209733669517,3.0,0,,,
Fix,GPS,40.8924035076,29.3769994285,167.0,0.82,3.5,86.4,1774382799000,0.46,10.0,211210717916632,3.0,0,,,
Fix,GPS,40.8924041362,29.3770073075,167.0,1.25,3.5,105.2,1774382800000,0.33,7.1,211211710240747,3.0,0,,,
Fix,GPS,40.8924019989,29.3770205509,167.0,0.78,4.0,112.6,1774382801000,0.32,8.7,211212705575438,3.0,0,,,
Fix,GPS,40.8924047649,29.3770297710,167.0,1.09,3.5,93.6,1774382802000,0.32,6.8,211213715709438,3.0,0,,,
Fix,GPS,40.8924070699,29.3770440202,168.0,0.94,4.0,87.6,1774382803000,0.4,8.0,211214723948283,3.0,0,,,
Fix,GPS,40.8924054774,29.3770568445,168.0,0.53,3.5,89.1,1774382804000,0.28,8.9,211215727978667,3.0,0,,,
Fix,GPS,40.8924048068,29.3770678248,168.0,1.12,3.5,88.5,1774382805000,0.34,7.0,211216706510166,3.0,0,,,
Fix,GPS,40.8924060641,29.3770783860,168.0,0.94,4.0,85.3,1774382806000,0.26,5.8,211217708754050,3.0,0,,,
Fix,GPS,40.8924066927,29.3770873547,167.0,0.57,3.5,80.4,1774382807000,0.35,8.6,211218729129319,3.0,0,,,
Fix,GPS,40.8924075309,29.3770945631,168.0,0.90999997,3.0,72.3,1774382808000,0.43,9.6,211219730853318,3.0,0,,,
Fix,GPS,40.8924110513,29.3771029450,168.0,0.5,3.5,75.5,1774382809000,0.31,10.1,211220717911933,3.0,0,,,
Fix,GPS,40.8924113028,29.3771109078,168.0,0.52,3.5,81.1,1774382810000,0.29,10.8,211221722685624,3.0,0,,,
Fix,GPS,40.8924103808,29.3771182839,168.0,0.61,3.5,77.8,1774382811000,0.22,9.5,211222718624777,3.0,0,,,
Fix,GPS,40.8924131468,29.3771253247,168.0,0.22999999,4.0,77.2,1774382812000,0.25,13.4,211223709419738,3.0,0,,,
Fix,GPS,40.8924136916,29.3771346286,167.0,0.87,3.5,80.3,1774382813000,0.3,9.7,211224704563891,3.0,0,,,
Fix,GPS,40.8924176730,29.3771462794,168.0,0.81,3.5,85.6,1774382814000,0.18,5.4,211225729089737,3.0,0,,,
Fix,GPS,40.8924196009,29.3771511409,168.0,0.55,4.0,78.6,1774382815000,0.22,6.6,211226706880236,3.0,0,,,
Fix,GPS,40.8924218221,29.3771626242,167.0,0.69,3.5,75.3,1774382816000,0.24,6.6,211227730604774,3.0,0,,,
Fix,GPS,40.8924232470,29.3771732692,167.0,0.65999997,3.5,82.4,1774382817000,0.2,6.9,211228725467850,3.0,0,,,
Fix,GPS,40.8924260968,29.3771829084,167.0,0.62,3.5,74.8,1774382818000,0.23,8.3,211229710171965,3.0,0,,,
Fix,GPS,40.8924276056,29.3771923799,168.0,0.83,3.0,74.7,1774382819000,0.47,10.3,211230723658426,3.0,0,,,
Fix,GPS,40.8924289048,29.3772008456,168.0,0.63,3.5,79.1,1774382820000,0.35,10.8,211231715610733,3.0,0,,,
Fix,GPS,40.8924208581,29.3772121612,168.0,0.77,3.0,87.1,1774382821000,0.39,10.1,211232728996539,3.0,0,,,
Fix,GPS,40.8924189722,29.3772208784,169.0,0.75,3.5,91.1,1774382822000,0.44,10.3,211233724411270,3.0,0,,,
Fix,GPS,40.8924166253,29.3772316072,168.0,0.75,3.5,93.7,1774382823000,0.18,6.2,211234727103230,3.0,0,,,
Fix,GPS,40.8924172120,29.3772451859,168.0,1.03,3.5,78.8,1774382824000,0.4,6.6,211235734362999,3.0,0,,,
Fix,GPS,40.8924205648,29.3772580102,169.0,0.66999996,4.0,78.7,1774382825000,0.23,7.3,211236731415806,3.0,0,,,
Fix,GPS,40.8924196847,29.3772677332,169.0,0.87,3.5,81.7,1774382826000,0.26,7.7,211237708713574,3.0,0,,,
Fix,GPS,40.8924186369,29.3772807252,169.0,0.96,3.5,72.0,1774382827000,0.23,5.8,211238728015497,3.0,0,,,
Fix,GPS,40.8924197266,29.3772901967,169.0,0.79999995,3.5,77.8,1774382828000,0.3,6.6,211239737064804,3.0,0,,,
Fix,GPS,40.8924190141,29.3773037754,169.0,0.95,3.0,87.4,1774382829000,0.32,6.6,211240728212265,3.0,0,,,
Fix,GPS,40.8924198523,29.3773165997,170.0,0.96,3.5,90.0,1774382830000,0.27,5.0,211241740967033,3.0,0,,,
Fix,GPS,40.8924194332,29.3773272447,170.0,0.78999996,3.5,82.3,1774382831000,0.24,5.9,211242731130225,3.0,0,,,
Fix,GPS,40.8924193494,29.3773379736,169.0,0.71,3.5,88.6,1774382832000,0.4,7.8,211243741790955,3.0,0,,,
Fix,GPS,40.8924217802,29.3773457687,169.0,0.59,3.5,84.3,1774382833000,0.25,9.2,211244723714454,3.0,0,,,
Fix,GPS,40.8924221573,29.3773530610,169.0,0.65999997,3.5,83.8,1774382834000,0.33,10.1,211245738701761,3.0,0,,,
Fix,GPS,40.8924217382,29.3773616105,169.0,0.76,3.0,84.4,1774382835000,0.23,5.2,211246716785568,3.0,0,,,
Fix,GPS,40.8924224088,29.3773713335,170.0,0.55,3.5,87.6,1774382836000,0.28,7.5,211247730552260,3.0,0,,,
Fix,GPS,40.8924218221,29.3773817271,170.0,0.75,3.5,88.2,1774382837000,0.24,7.3,211248746747259,3.0,0,,,
Fix,GPS,40.8924209420,29.3773925398,170.0,0.7,3.5,85.8,1774382838000,0.25,6.6,211249740086335,3.0,0,,,
Fix,GPS,40.8924203971,29.3774005864,170.0,0.64,3.0,94.4,1774382839000,0.29,7.6,211250723050027,3.0,0,,,
Fix,GPS,40.8924196847,29.3774077110,170.0,0.71,3.5,92.0,1774382840000,0.28,8.5,211251712474641,3.0,0,,,
Fix,GPS,40.8924226183,29.3774176855,170.0,0.81,3.5,88.5,1774382841000,0.24,5.5,211252724163871,3.0,0,,,
Fix,GPS,40.8924240852,29.3774281628,170.0,0.32999998,3.5,87.9,1774382842000,0.31,9.2,211253703668371,3.0,0,,,
Fix,GPS,40.8924235404,29.3774362933,170.0,0.88,3.5,94.3,1774382843000,0.31,7.7,211254729698716,3.0,0,,,
Fix,GPS,40.8924221154,29.3774458487,171.0,0.72999996,3.5,102.6,1774382844000,0.27,8.0,211255744209292,3.0,0,,,
Fix,GPS,40.8924216544,29.3774561584,171.0,0.57,3.5,104.0,1774382845000,0.24,7.9,211256726062215,3.0,0,,,
Fix,GPS,40.8924230374,29.3774661329,171.0,0.65,3.5,86.6,1774382846000,0.31,8.5,211257728824829,3.0,0,,,
Fix,GPS,40.8924260549,29.3774759397,171.0,0.5,3.5,84.1,1774382847000,0.28,9.9,211258721577290,3.0,0,,,
Fix,GPS,40.8924256358,29.3774868362,171.0,0.42999998,3.5,80.7,1774382848000,0.2,13.3,211259732839674,3.0,0,,,
Fix,GPS,40.8924289467,29.3774956372,171.0,0.68,3.0,90.4,1774382849000,0.25,7.0,211260729738750,3.0,0,,,
Fix,GPS,40.8924292820,29.3775057793,171.0,0.63,3.5,87.6,1774382850000,0.26,7.2,211261736256480,3.0,0,,,
Fix,GPS,40.8924290724,29.3775155861,171.0,0.69,3.5,84.9,1774382851000,0.31,6.7,211262736907133,3.0,0,,,
Fix,GPS,40.8924320899,29.3775264826,171.0,0.78,3.5,79.2,1774382852000,0.21,5.8,211263714994748,3.0,0,,,
Fix,GPS,40.8924329700,29.3775370438,171.0,0.62,3.5,78.6,1774382853000,0.24,6.2,211264725852055,3.0,0,,,
Fix,GPS,40.8924313355,29.3775486946,172.0,0.81,3.5,88.2,1774382854000,0.2,6.1,211265727540900,3.0,0,,,
Fix,GPS,40.8924303297,29.3775590882,171.0,1.01,3.5,96.4,1774382855000,0.28,5.0,211266745275592,3.0,0,,,
Fix,GPS,40.8924300782,29.3775719125,171.0,0.91999996,3.5,96.7,1774382856000,0.19,4.1,211267727357822,3.0,0,,,
Fix,GPS,40.8924305392,29.3775851559,172.0,0.77,3.5,89.6,1774382857000,0.26,5.5,211268748293629,3.0,0,,,
Fix,GPS,40.8924327604,29.3775966391,172.0,0.69,3.0,87.0,1774382858000,0.2,5.2,211269748401475,3.0,0,,,
Fix,GPS,40.8924340596,29.3776074518,172.0,0.88,3.0,81.2,1774382859000,0.3,6.7,211270735429935,3.0,0,,,
Fix,GPS,40.8924343111,29.3776212819,172.0,1.0799999,3.5,82.9,1774382860000,0.22,5.2,211271726636742,3.0,0,,,
Fix,GPS,40.8924331795,29.3776289932,172.0,0.69,3.5,85.8,1774382861000,0.25,6.3,211272734644472,3.0,0,,,
Fix,GPS,40.8924325509,29.3776393868,172.0,0.5,3.0,87.9,1774382862000,0.21,7.3,211273724939049,3.0,0,,,
Fix,GPS,40.8924327185,29.3776527978,172.0,1.3399999,3.5,82.7,1774382863000,0.32,4.8,211274716182086,3.0,0,,,
Fix,GPS,40.8924324252,29.3776724953,172.0,1.2099999,3.5,83.3,1774382864000,0.2,3.7,211275724973124,3.0,0,,,
Fix,GPS,40.8924338920,29.3776856549,172.0,1.1,3.5,83.6,1774382865000,0.19,3.8,211276733771508,3.0,0,,,
Fix,GPS,40.8924347302,29.3776961323,172.0,1.03,3.5,85.8,1774382866000,0.18,4.0,211277731939200,3.0,0,,,
Fix,GPS,40.8924337244,29.3777116388,172.0,0.93,3.0,87.0,1774382867000,0.23,4.6,211278720988814,3.0,0,,,
Fix,GPS,40.8924349817,29.3777213618,172.0,1.0799999,3.0,87.3,1774382868000,0.23,3.9,211279751049890,3.0,0,,,
Fix,GPS,40.8924348559,29.3777320068,172.0,1.11,3.0,87.5,1774382869000,0.21,3.7,211280738159890,2.0,0,,,
Fix,GPS,40.8924343111,29.3777486868,172.0,0.90999997,3.0,74.8,1774382870000,0.3,5.9,211281726764081,3.0,0,,,
Fix,GPS,40.8924354427,29.3777600024,172.0,0.71,3.0,73.4,1774382871000,0.3,8.0,211282731394504,3.0,0,,,
Fix,GPS,40.8924332634,29.3777705636,172.0,0.89,3.0,72.6,1774382872000,0.25,6.5,211283729618465,3.0,0,,,
Fix,GPS,40.8924354846,29.3777803704,171.0,0.71,3.0,78.9,1774382873000,0.19,5.9,211284721636272,3.0,0,,,
Fix,GPS,40.8924392564,29.3777860701,172.0,0.77,3.0,72.5,1774382874000,0.24,6.7,211285732180771,3.0,0,,,
Fix,GPS,40.8924408490,29.3777966313,171.0,1.06,3.0,86.1,1774382875000,0.27,7.0,211286746669309,2.0,0,,,
Fix,GPS,40.8924375800,29.3778116349,172.0,0.78,3.0,100.4,1774382876000,0.25,7.8,211287727513192,3.0,0,,,
Fix,GPS,40.8924383763,29.3778232019,172.0,0.90999997,3.0,89.7,1774382877000,0.28,7.8,211288721594461,3.0,0,,,
Fix,GPS,40.8924419805,29.3778349366,172.0,0.91999996,3.0,80.1,1774382878000,0.22,5.4,211289738218537,3.0,0,,,
Fix,GPS,40.8924412681,29.3778473418,172.0,0.65,3.0,78.7,1774382879000,0.21,6.3,211290727133921,3.0,0,,,
Fix,GPS,40.8924425254,29.3778553046,172.0,1.18,3.0,75.5,1774382880000,0.25,4.2,211291733390805,3.0,0,,,
Fix,GPS,40.8924452495,29.3778678775,173.0,0.85999995,3.0,85.9,1774382881000,0.24,4.6,211292724451843,3.0,0,,,
Fix,GPS,40.8924461296,29.3778775167,173.0,0.55,3.0,85.1,1774382882000,0.22,5.9,211293720219688,3.0,0,,,
Fix,GPS,40.8924485184,29.3778845575,173.0,0.96,3.0,72.1,1774382883000,0.24,5.3,211294727725187,2.0,0,,,
Fix,GPS,40.8924496081,29.3778957054,174.0,0.89,2.5,88.1,1774382884000,0.26,5.4,211295721185494,2.0,0,,,
Fix,GPS,40.8924503205,29.3779030815,174.0,0.72999996,3.0,97.4,1774382885000,0.23,6.5,211296726999571,2.0,0,,,
Fix,GPS,40.8924512425,29.3779138103,173.0,1.05,3.0,79.3,1774382886000,0.26,5.3,211297730089108,2.0,0,,,
Fix,GPS,40.8924554754,29.3779227789,173.0,0.71,3.0,78.9,1774382887000,0.23,5.5,211298722634108,3.0,0,,,
Fix,GPS,40.8924558945,29.3779321667,173.0,0.65,3.0,76.9,1774382888000,0.2,6.4,211299719614261,3.0,0,,,
Fix,GPS,40.8924584510,29.3779450748,174.0,1.25,3.0,82.3,1774382889000,0.29,4.3,211300730924606,3.0,0,,,
Fix,GPS,40.8924589539,29.3779626768,174.0,0.89,3.0,81.4,1774382890000,0.19,4.3,211301733708375,3.0,0,,,
Fix,GPS,40.8924595825,29.3779765069,174.0,0.76,2.5,84.0,1774382891000,0.15,4.0,211302739971797,2.0,0,,,
Fix,GPS,40.8924594149,29.3779910076,174.0,1.1,3.0,86.7,1774382892000,0.24,5.0,211303740828873,3.0,0,,,
Fix,GPS,40.8924598340,29.3780020718,175.0,0.83,3.0,93.5,1774382893000,0.29,7.3,211304727227565,3.0,0,,,
Fix,GPS,40.8924574452,29.3780134711,174.0,0.84999996,3.0,101.3,1774382894000,0.19,5.6,211305731499180,3.0,0,,,
Fix,GPS,40.8924576547,29.3780252896,175.0,1.29,3.0,108.7,1774382895000,0.28,3.9,211306725063679,2.0,0,,,
Fix,GPS,40.8924528770,29.3780420534,175.0,1.02,3.0,103.5,1774382896000,0.2,4.1,211307725735332,3.0,0,,,
Fix,GPS,40.8924473869,29.3780554645,176.0,0.81,3.0,93.2,1774382897000,0.18,5.1,211308722480677,3.0,0,,,
Fix,GPS,40.8924507396,29.3780700490,176.0,1.2099999,3.0,83.6,1774382898000,0.25,4.9,211309730937869,3.0,0,,,
Fix,GPS,40.8924518293,29.3780782633,176.0,0.82,3.0,77.5,1774382899000,0.24,6.3,211310734483061,3.0,0,,,
Fix,GPS,40.8924524579,29.3780887406,176.0,0.69,3.0,80.8,1774382900000,0.19,6.2,211311727102175,3.0,0,,,
Fix,GPS,40.8924517035,29.3781003915,177.0,1.26,3.0,96.5,1774382901000,0.26,4.4,211312725564213,3.0,0,,,
Fix,GPS,40.8924495243,29.3781138863,177.0,0.88,3.0,100.0,1774382902000,0.23,5.8,211313729942751,3.0,0,,,
Fix,GPS,40.8924467582,29.3781201728,177.0,0.52,3.0,95.3,1774382903000,0.25,8.0,211314734535865,3.0,0,,,
Fix,GPS,40.8924457105,29.3781298958,177.0,1.02,3.0,94.4,1774382904000,0.33,7.6,211315724236326,3.0,0,,,
Fix,GPS,40.8924450818,29.3781432230,178.0,0.91999996,3.5,88.9,1774382905000,0.32,7.9,211316721101479,3.0,0,,,
Fix,GPS,40.8924469259,29.3781507667,177.0,0.77,3.0,84.3,1774382906000,0.22,7.1,211317727892979,3.0,0,,,
Fix,GPS,40.8924475964,29.3781619146,178.0,0.88,3.0,81.6,1774382907000,0.24,5.7,211318728952055,2.0,0,,,
Fix,GPS,40.8924463391,29.3781713862,178.0,0.81,3.0,85.5,1774382908000,0.22,6.0,211319724807400,3.0,0,,,
Fix,GPS,40.8924480155,29.3781806063,178.0,0.75,3.0,75.0,1774382909000,0.22,7.1,211320730143323,2.0,0,,,
Fix,GPS,40.8924443275,29.3781919219,178.0,1.3399999,3.0,102.3,1774382910000,0.38,7.5,211321728732168,2.0,0,,,
Fix,GPS,40.8924412262,29.3782101106,178.0,0.74,3.5,101.6,1774382911000,0.26,7.5,211322726569206,3.0,0,,,
Fix,GPS,40.8924419386,29.3782166485,179.0,0.68,3.0,93.1,1774382912000,0.24,6.8,211323733965628,3.0,0,,,
Fix,GPS,40.8924439922,29.3782289699,179.0,0.95,3.0,80.8,1774382913000,0.23,5.5,211324736921628,3.0,0,,,
Fix,GPS,40.8924452076,29.3782410398,178.0,0.85999995,3.0,79.6,1774382914000,0.2,5.3,211325732662781,2.0,0,,,
Fix,GPS,40.8924469678,29.3782536127,179.0,0.81,3.0,78.4,1774382915000,0.23,6.1,211326724453972,2.0,0,,,
Fix,GPS,40.8924436569,29.3782666046,178.0,1.38,3.0,99.7,1774382916000,0.4,7.4,211327736240779,3.0,0,,,
Fix,GPS,40.8924408490,29.3782829493,178.0,0.77,3.5,101.1,1774382917000,0.25,8.5,211328717751009,3.0,0,,,
Fix,GPS,40.8924404718,29.3782925885,178.0,0.64,3.0,87.2,1774382918000,0.26,8.7,211329723569778,3.0,0,,,
Fix,GPS,40.8924383763,29.3783032335,179.0,0.90999997,3.0,100.1,1774382919000,0.35,8.2,211330727443046,3.0,0,,,
Fix,GPS,40.8924355684,29.3783166446,179.0,0.83,3.0,98.8,1774382920000,0.3,9.2,211331726247161,3.0,0,,,
Fix,GPS,40.8924341435,29.3783271220,178.0,0.87,3.0,98.8,1774382921000,0.25,8.0,211332717573583,3.0,0,,,
Fix,GPS,40.8924372448,29.3783425447,178.0,1.15,3.0,81.8,1774382922000,0.27,5.6,211333726496006,3.0,0,,,
Fix,GPS,40.8924389211,29.3783536926,179.0,0.68,3.5,76.4,1774382923000,0.29,7.3,211334717835774,3.0,0,,,
Fix,GPS,40.8924430283,29.3783628289,178.0,0.79999995,3.5,88.1,1774382924000,0.23,7.2,211335697170620,3.0,0,,,
Fix,GPS,40.8924433216,29.3783752341,179.0,1.3299999,3.0,79.4,1774382925000,0.24,4.1,211336730029965,3.0,0,,,
Fix,GPS,40.8924465487,29.3783880584,179.0,0.96,3.5,77.6,1774382926000,0.23,5.1,211337709876657,3.0,0,,,
Fix,GPS,40.8924506139,29.3783996254,179.0,0.55,3.0,71.8,1774382927000,0.26,7.4,211338713292310,3.0,0,,,
Fix,GPS,40.8924526256,29.3784070853,179.0,0.9,3.0,75.6,1774382928000,0.24,5.9,211339725729309,3.0,0,,,
Fix,GPS,40.8924535895,29.3784200773,179.0,0.91999996,3.5,83.4,1774382929000,0.18,5.3,211340715243924,3.0,0,,,
Fix,GPS,40.8924561460,29.3784299679,179.0,0.68,3.0,80.7,1774382930000,0.23,7.1,211341741628923,3.0,0,,,
Fix,GPS,40.8924561460,29.3784386851,179.0,0.95,3.5,94.5,1774382931000,0.28,8.1,211342722607692,3.0,0,,,
Fix,GPS,40.8924556011,29.3784463964,179.0,0.83,3.0,103.2,1774382932000,0.29,8.8,211343721073075,2.0,0,,,
Fix,GPS,40.8924560621,29.3784576282,179.0,0.9,3.0,107.2,1774382933000,0.2,6.4,211344721069921,2.0,0,,,
Fix,GPS,40.8924581157,29.3784701172,180.0,0.75,3.5,88.1,1774382934000,0.22,6.8,211345727765689,3.0,0,,,
Fix,GPS,40.8924636897,29.3784788344,180.0,0.76,3.0,67.4,1774382935000,0.25,6.9,211346711474035,2.0,0,,,
Fix,GPS,40.8924641088,29.3784869649,179.0,0.56,3.0,58.7,1774382936000,0.84,10.8,211347704778803,2.0,0,,,
Fix,GPS,40.8924645279,29.3784980290,179.0,1.15,3.0,59.0,1774382937000,0.45,10.1,211348725826841,2.0,0,,,
Fix,GPS,40.8924667072,29.3785116076,180.0,0.94,3.5,63.4,1774382938000,0.39,10.0,211349692729340,3.0,0,,,
Fix,GPS,40.8924693894,29.3785166368,180.0,0.19999999,3.5,60.3,1774382939000,0.78,14.2,211350710077340,3.0,0,,,
Fix,GPS,40.8924682578,29.3785238452,179.0,0.35,3.5,57.2,1774382940000,0.64,19.4,211351713919185,3.0,0,,,
Fix,GPS,40.8924684674,29.3785342388,179.0,0.78,3.5,72.9,1774382941000,0.45,17.0,211352698310300,3.0,0,,,
Fix,GPS,40.8924676292,29.3785472307,179.0,0.98999995,3.5,80.4,1774382942000,0.87,18.6,211353714569068,3.0,0,,,
Fix,GPS,40.8924708143,29.3785591330,179.0,0.94,3.5,45.8,1774382943000,0.36,9.7,211354707626452,3.0,0,,,
Fix,GPS,40.8924737899,29.3785675988,179.0,0.82,4.0,64.8,1774382944000,0.32,9.3,211355695262336,3.0,0,,,
Fix,GPS,40.8924715687,29.3785803393,179.0,0.56,3.5,73.3,1774382945000,0.45,12.2,211356715327797,3.0,0,,,
Fix,GPS,40.8924714429,29.3785929959,179.0,0.93,3.5,78.4,1774382946000,0.54,13.9,211357703016642,3.0,0,,,
Fix,GPS,40.8924733289,29.3786037248,179.0,1.04,3.5,83.6,1774382947000,0.46,11.0,211358716759296,3.0,0,,,
Fix,GPS,40.8924726164,29.3786204048,179.0,0.88,4.5,89.9,1774382948000,0.38,11.5,211359701961256,3.0,0,,,
Fix,GPS,40.8924718201,29.3786339834,179.0,0.96999997,4.0,87.3,1774382949000,0.42,11.3,211360695209833,3.0,0,,,
Fix,GPS,40.8924749214,29.3786428683,179.0,1.39,3.0,72.5,1774382950000,0.47,9.9,211361692015024,2.0,0,,,
Fix,GPS,40.8924737060,29.3786594644,180.0,0.93,4.0,97.0,1774382951000,0.47,10.9,211362697693254,3.0,0,,,
Fix,GPS,40.8924651146,29.3786657508,180.0,0.87,4.0,103.6,1774382952000,0.33,9.6,211363713460830,3.0,0,,,
Fix,GPS,40.8924540924,29.3786787428,180.0,2.1499999,3.5,130.1,1774382953000,0.49,6.7,211364715699484,2.0,0,,,
Fix,GPS,40.8924513683,29.3786931597,180.0,0.85999995,4.0,116.7,1774382954000,0.42,8.7,211365711882483,3.0,0,,,
Fix,GPS,40.8924525836,29.3787063193,180.0,0.88,3.5,91.9,1774382955000,0.27,8.0,211366728784367,3.0,0,,,
Fix,GPS,40.8924544277,29.3787226640,180.0,1.38,3.5,77.0,1774382956000,0.33,7.3,211367696658212,3.0,0,,,
Fix,GPS,40.8924550563,29.3787364941,181.0,0.45999998,4.0,68.2,1774382957000,0.34,11.2,211368696611519,3.0,0,,,
Fix,GPS,40.8924552239,29.3787431158,181.0,0.48999998,4.0,60.7,1774382958000,0.31,15.6,211369705625634,3.0,0,,,
Fix,GPS,40.8924564393,29.3787537608,180.0,0.9,4.0,82.3,1774382959000,0.51,15.2,211370708948710,3.0,0,,,
Fix,GPS,40.8924527094,29.3787600473,180.0,0.9,3.5,105.2,1774382960000,0.37,11.1,211371717823902,3.0,0,,,
Fix,GPS,40.8924529189,29.3787715305,180.0,0.48999998,4.0,110.1,1774382961000,0.32,14.9,211372718466209,3.0,0,,,
Fix,GPS,40.8924535057,29.3787818402,180.0,1.1899999,3.5,82.8,1774382962000,0.43,10.9,211373725602092,3.0,0,,,
Fix,GPS,40.8924579062,29.3787954189,180.0,0.74,4.0,62.8,1774382963000,0.26,8.6,211374720472399,3.0,0,,,
Fix,GPS,40.8924628096,29.3788071536,181.0,0.56,3.0,56.9,1774382964000,0.41,11.5,211375714172976,2.0,0,,,
Fix,GPS,40.8924683416,29.3788146973,182.0,0.69,4.0,44.3,1774382965000,0.36,11.1,211376722067283,3.0,0,,,
Fix,GPS,40.8924736641,29.3788185529,182.0,0.71999997,3.5,45.3,1774382966000,0.26,9.0,211377720954936,3.0,0,,,
Fix,GPS,40.8924780227,29.3788325507,183.0,1.01,4.0,51.7,1774382967000,0.45,10.7,211378731323858,3.0,0,,,
Fix,GPS,40.8924706886,29.3788507394,183.0,1.73,4.0,105.7,1774382968000,0.51,8.7,211379713058973,3.0,0,,,
Fix,GPS,40.8924584929,29.3788671680,183.0,1.11,4.0,123.0,1774382969000,0.36,8.5,211380703106280,3.0,0,,,
Fix,GPS,40.8924543858,29.3788836803,183.0,1.3399999,4.5,125.9,1774382970000,0.43,9.1,211381722421087,4.0,0,,,
Fix,GPS,40.8924537152,29.3788996059,183.0,1.04,4.5,92.1,1774382971000,0.42,9.2,211382724222278,3.0,0,,,
Fix,GPS,40.8924550563,29.3789075688,183.0,1.0,4.0,80.4,1774382972000,0.29,8.6,211383720757855,3.0,0,,,
Fix,GPS,40.8924564812,29.3789220694,182.0,1.18,4.0,73.3,1774382973000,0.34,7.7,211384720131008,3.0,0,,,
Fix,GPS,40.8924563136,29.3789357319,183.0,0.87,4.0,95.1,1774382974000,0.25,7.5,211385723453122,3.0,0,,,
Fix,GPS,40.8924542600,29.3789458741,183.0,0.81,3.5,91.4,1774382975000,0.27,8.6,211386724469737,3.0,0,,,
Fix,GPS,40.8924533799,29.3789600395,182.0,1.22,3.5,101.9,1774382976000,0.35,8.1,211387729190159,3.0,0,,,
Fix,GPS,40.8924498595,29.3789707683,182.0,0.83,3.5,103.7,1774382977000,0.31,8.8,211388724044659,3.0,0,,,
Fix,GPS,40.8924518712,29.3789813295,183.0,1.11,3.5,84.4,1774382978000,0.31,7.6,211389714472812,3.0,0,,,
Fix,GPS,40.8924555173,29.3789908849,182.0,0.91999996,3.5,79.1,1774382979000,0.2,6.1,211390709177542,3.0,0,,,
Fix,GPS,40.8924569003,29.3790013622,182.0,0.74,3.5,72.0,1774382980000,0.21,6.6,211391728417195,3.0,0,,,
Fix,GPS,40.8924574871,29.3790160306,182.0,1.4,3.0,77.2,1774382981000,0.33,6.6,211392725387963,3.0,0,,,
Fix,GPS,40.8924601274,29.3790291902,182.0,0.75,3.5,76.7,1774382982000,0.37,9.2,211393716049001,3.0,0,,,
Fix,GPS,40.8924620133,29.3790379912,182.0,0.64,3.5,73.7,1774382983000,0.29,10.9,211394756153654,3.0,0,,,
Fix,GPS,40.8924657432,29.3790465407,183.0,0.94,3.5,82.6,1774382984000,0.28,8.9,211395726771731,3.0,0,,,
Fix,GPS,40.8924655756,29.3790565990,183.0,0.53999996,3.5,88.7,1774382985000,0.3,10.5,211396737108961,3.0,0,,,
Fix,GPS,40.8924677549,29.3790634722,183.0,0.78,4.0,91.3,1774382986000,0.28,9.5,211397723866691,3.0,0,,,
Fix,GPS,40.8924676711,29.3790714350,183.0,0.83,4.0,93.1,1774382987000,0.27,8.8,211398728669959,3.0,0,,,
Fix,GPS,40.8924689703,29.3790795654,182.0,0.59,4.0,89.6,1774382988000,0.33,10.8,211399720384766,3.0,0,,,
Fix,GPS,40.8924752148,29.3790873606,183.0,0.66999996,3.5,79.4,1774382989000,0.23,6.6,211400717879112,3.0,0,,,
Fix,GPS,40.8924777713,29.3790960778,183.0,0.74,3.5,85.6,1774382990000,0.27,7.8,211401731908572,3.0,0,,,
Fix,GPS,40.8924770169,29.3791040406,183.0,0.65999997,3.5,101.0,1774382991000,0.27,7.3,211402722592456,3.0,0,,,
Fix,GPS,40.8924791124,29.3791165296,182.0,0.95,3.0,115.0,1774382992000,0.39,8.2,211403734882686,2.0,0,,,
Fix,GPS,40.8924743347,29.3791259173,183.0,1.02,3.0,128.1,1774382993000,0.47,9.7,211404723752532,3.0,0,,,
Fix,GPS,40.8924690541,29.3791288510,183.0,0.76,4.5,146.4,1774382994000,0.34,8.5,211405733541646,4.0,0,,,
Fix,GPS,40.8924658271,29.3791358918,183.0,0.95,3.0,152.2,1774382995000,0.27,5.7,211406732343184,3.0,0,,,
Fix,GPS,40.8924678387,29.3791358080,184.0,0.58,3.5,149.5,1774382996000,0.25,7.0,211407732609837,3.0,0,,,
Fix,GPS,40.8924654080,29.3791416753,184.0,0.84,3.5,154.2,1774382997000,0.24,5.4,211408736812183,3.0,0,,,
Fix,GPS,40.8924581995,29.3791524880,184.0,0.65,3.5,158.7,1774382998000,0.21,5.7,211409754541490,3.0,0,,,
Fix,GPS,40.8924539667,29.3791561760,184.0,0.71999997,3.5,153.9,1774382999000,0.23,6.0,211410730162451,3.0,0,,,
Fix,GPS,40.8924499853,29.3791624624,184.0,0.71999997,3.5,152.2,1774383000000,0.2,4.7,211411697946796,3.0,0,,,
Fix,GPS,40.8924470516,29.3791656476,184.0,0.55,3.5,151.4,1774383001000,0.21,5.8,211412723192718,3.0,0,,,
Fix,GPS,40.8924456267,29.3791676592,184.0,0.12,3.5,151.1,1774383002000,0.28,9.3,211413722276987,3.0,0,,,
Fix,GPS,40.8924444532,29.3791703414,185.0,0.62,3.5,153.3,1774383003000,0.37,8.2,211414728304948,3.0,0,,,
Fix,GPS,40.8924400946,29.3791718502,185.0,0.31,3.5,153.4,1774383004000,0.27,11.9,211415742714447,3.0,0,,,
Fix,GPS,40.8924379991,29.3791767117,186.0,0.39,3.5,149.7,1774383005000,0.23,15.0,211416738874754,3.0,0,,,
Fix,GPS,40.8924325928,29.3791810703,186.0,0.57,3.0,155.7,1774383006000,0.26,8.3,211417729393792,3.0,0,,,
Fix,GPS,40.8924263483,29.3791820761,185.0,0.47,3.5,156.1,1774383007000,0.24,11.3,211418731555560,3.0,0,,,
Fix,GPS,40.8924188884,29.3791809864,185.0,0.89,3.5,159.1,1774383008000,0.22,5.0,211419734191329,4.0,0,,,
Fix,GPS,40.8924105484,29.3791767955,185.0,0.98999995,3.5,171.5,1774383009000,0.23,4.6,211420720109251,3.0,0,,,
Fix,GPS,40.8923992328,29.3791752029,185.0,0.72999996,3.0,172.2,1774383010000,0.29,6.8,211421712585366,3.0,0,,,
Fix,GPS,40.8923918568,29.3791775499,185.0,0.85999995,3.0,166.4,1774383011000,0.2,4.9,211422718272365,3.0,0,,,
Fix,GPS,40.8923848160,29.3791775499,185.0,0.45999998,3.0,166.6,1774383012000,0.28,8.5,211423711604287,3.0,0,,,
Fix,GPS,40.8923801640,29.3791769631,186.0,0.57,3.5,165.5,1774383013000,0.2,7.1,211424729371902,3.0,0,,,
Fix,GPS,40.8923739614,29.3791799806,186.0,0.049999997,3.5,165.2,1774383014000,0.28,10.4,211425716095363,3.0,0,,,
Fix,GPS,40.8923724527,29.3791810703,187.0,0.19,3.5,165.0,1774383015000,0.21,13.6,211426738923516,3.0,0,,,
Fix,GPS,40.8923704410,29.3791830819,186.0,0.26999998,3.0,163.8,1774383016000,0.26,17.2,211427715233169,3.0,0,,,
Fix,GPS,40.8923675492,29.3791798968,186.0,0.12,3.0,163.6,1774383017000,0.31,20.0,211428725975476,3.0,0,,,
Fix,GPS,40.8923661662,29.3791834172,186.0,0.52,3.5,163.8,1774383018000,0.23,8.5,211429726711937,3.0,0,,,
Fix,GPS,40.8923611371,29.3791808188,187.0,0.41,3.5,164.2,1774383019000,0.4,11.4,211430720997782,3.0,0,,,
Fix,GPS,40.8923543477,29.3791879434,187.0,1.3299999,3.5,140.8,1774383020000,0.37,7.8,211431710864013,3.0,0,,,
Fix,GPS,40.8923542639,29.3791860156,187.0,0.0,3.5,,1774383021000,0.03,,211432717719320,3.0,0,,,
Fix,GPS,40.8923465107,29.3791770469,187.0,0.57,3.5,152.1,1774383022000,0.31,8.2,211433724389588,3.0,0,,,
Fix,GPS,40.8923396375,29.3791829143,187.0,0.84,3.5,159.7,1774383023000,0.28,6.1,211434722249741,3.0,0,,,
Fix,GPS,40.8923324710,29.3791894522,187.0,0.84999996,3.5,156.1,1774383024000,0.22,4.9,211435751842510,3.0,0,,,
Fix,GPS,40.8923246758,29.3791938107,187.0,0.93,3.5,160.6,1774383025000,0.2,4.5,211436726039932,3.0,0,,,
Fix,GPS,40.8923154138,29.3791974988,187.0,0.83,3.5,160.7,1774383026000,0.29,6.5,211437740226124,3.0,0,,,
Fix,GPS,40.8923062775,29.3792030308,187.0,0.65999997,3.0,160.8,1774383027000,0.32,8.2,211438731050777,3.0,0,,,
Fix,GPS,40.8922998235,29.3792062160,187.0,0.87,3.5,160.6,1774383028000,0.22,4.4,211439719679430,3.0,0,,,
Fix,GPS,40.8922908548,29.3792106584,187.0,0.76,3.0,158.8,1774383029000,0.23,4.9,211440725426698,3.0,0,,,
Fix,GPS,40.8922831435,29.3792119995,187.0,0.84999996,3.5,162.5,1774383030000,0.3,5.7,211441724354390,3.0,0,,,
Fix,GPS,40.8922763960,29.3792164419,187.0,0.93,3.0,160.2,1774383031000,0.26,5.4,211442736663428,3.0,0,,,
Fix,GPS,40.8922687266,29.3792201299,187.0,0.79999995,3.0,162.6,1774383032000,0.35,6.8,211443718945735,3.0,0,,,
Fix,GPS,40.8922603447,29.3792218063,188.0,0.78999996,3.0,164.5,1774383033000,0.19,4.7,211444720838811,3.0,0,,,
Fix,GPS,40.8922483167,29.3792266678,188.0,1.06,3.5,159.2,1774383034000,0.28,4.9,211445730141618,3.0,0,,,
Fix,GPS,40.8922378393,29.3792295177,188.0,0.84,3.0,162.7,1774383035000,0.29,6.2,211446724589502,3.0,0,,,
Fix,GPS,40.8922288287,29.3792306073,188.0,0.9,3.0,164.1,1774383036000,0.33,6.6,211447724264193,3.0,0,,,
Fix,GPS,40.8922212850,29.3792337086,188.0,0.87,3.0,161.8,1774383037000,0.2,4.2,211448725192116,3.0,0,,,
Fix,GPS,40.8922123164,29.3792404979,188.0,1.03,3.0,156.3,1774383038000,0.3,5.4,211449730418538,3.0,0,,,
Fix,GPS,40.8922060300,29.3792459462,188.0,0.76,3.0,151.0,1774383039000,0.19,4.6,211450723599114,3.0,0,,,
Fix,GPS,40.8921989473,29.3792467844,188.0,0.71,3.0,152.6,1774383040000,0.2,4.9,211451743219998,3.0,0,,,
Fix,GPS,40.8921900205,29.3792493828,188.0,1.23,2.5,158.2,1774383041000,0.3,4.4,211452730385651,3.0,0,,,
Fix,GPS,40.8921774477,29.3792534061,188.0,1.05,3.0,152.5,1774383042000,0.18,3.6,211453734497228,3.0,0,,,
Fix,GPS,40.8921715803,29.3792560045,189.0,0.87,3.0,154.9,1774383043000,0.18,4.1,211454733533688,3.0,0,,,
Fix,GPS,40.8921637852,29.3792559206,189.0,0.72999996,2.5,155.7,1774383044000,0.19,4.3,211455737133034,3.0,0,,,
Fix,GPS,40.8921538945,29.3792603631,189.0,1.13,3.0,164.0,1774383045000,0.27,4.3,211456732745033,3.0,0,,,
Fix,GPS,40.8921473986,29.3792606145,188.0,0.9,3.0,163.0,1774383046000,0.21,4.6,211457744862109,3.0,0,,,
Fix,GPS,40.8921372984,29.3792648893,189.0,0.9,2.5,164.1,1774383047000,0.2,3.7,211458726251686,2.0,0,,,
Fix,GPS,40.8921279944,29.3792652246,189.0,1.0,2.5,171.1,1774383048000,0.3,5.4,211459727035531,3.0,0,,,
Fix,GPS,40.8921193611,29.3792664818,189.0,1.05,3.0,167.3,1774383049000,0.18,3.8,211460736860876,3.0,0,,,
Fix,GPS,40.8921122784,29.3792669009,188.0,0.88,3.0,167.0,1774383050000,0.23,4.5,211461725512145,3.0,0,,,
Fix,GPS,40.8921069140,29.3792674039,188.0,0.71999997,2.5,161.4,1774383051000,0.19,4.3,211462732592452,3.0,0,,,
Fix,GPS,40.8921000827,29.3792718463,189.0,0.9,2.5,164.1,1774383052000,0.19,3.5,211463734332451,3.0,0,,,
Fix,GPS,40.8920914913,29.3792741932,188.0,0.85999995,3.0,166.2,1774383053000,0.16,3.2,211464735841297,3.0,0,,,
Fix,GPS,40.8920833608,29.3792784680,189.0,0.58,3.0,162.1,1774383054000,0.22,5.4,211465724054219,3.0,0,,,
Fix,GPS,40.8920763200,29.3792817369,189.0,0.95,2.5,155.6,1774383055000,0.22,4.6,211466725765834,3.0,0,,,
Fix,GPS,40.8920674771,29.3792843353,188.0,0.9,2.5,164.6,1774383056000,0.22,4.6,211467724354564,2.0,0,,,
Fix,GPS,40.8920582989,29.3792832457,189.0,0.79999995,3.0,168.6,1774383057000,0.18,3.7,211468722495986,3.0,0,,,
Fix,GPS,40.8920496656,29.3792878557,189.0,0.96999997,3.0,159.6,1774383058000,0.24,4.4,211469727903178,3.0,0,,,
Fix,GPS,40.8920432115,29.3792937230,189.0,0.97999996,2.5,163.4,1774383059000,0.26,4.9,211470721383023,2.0,0,,,
Fix,GPS,40.8920360031,29.3792928010,188.0,0.68,2.5,163.1,1774383060000,0.22,5.4,211471739476445,3.0,0,,,
Fix,GPS,40.8920287108,29.3792966567,188.0,0.65999997,2.5,156.7,1774383061000,0.2,5.7,211472709707368,2.0,0,,,
Fix,GPS,40.8920222148,29.3793002609,188.0,0.84999996,2.5,161.0,1774383062000,0.2,3.9,211473718864636,2.0,0,,,
Fix,GPS,40.8920134977,29.3793028593,188.0,0.72999996,2.5,163.6,1774383063000,0.28,6.1,211474754428559,3.0,0,,,
Fix,GPS,40.8920073370,29.3793049548,188.0,0.68,3.0,156.6,1774383064000,0.22,6.4,211475730065596,3.0,0,,,
Fix,GPS,40.8919979073,29.3793121632,188.0,1.0699999,2.5,155.7,1774383065000,0.23,4.6,211476723929711,2.0,0,,,
Fix,GPS,40.8919909503,29.3793204613,188.0,0.78999996,3.0,154.0,1774383066000,0.22,5.1,211477717154287,3.0,0,,,
Fix,GPS,40.8919846220,29.3793252390,187.0,0.61,2.5,154.1,1774383067000,0.27,7.0,211478731482517,3.0,0,,,
Fix,GPS,40.8919778746,29.3793283403,187.0,0.84999996,3.0,157.9,1774383068000,0.2,4.3,211479708540978,3.0,0,,,
Fix,GPS,40.8919707919,29.3793313578,187.0,0.89,3.0,164.2,1774383069000,0.19,3.9,211480744286170,3.0,0,,,
Fix,GPS,40.8919648407,29.3793360516,187.0,0.64,3.0,161.2,1774383070000,0.27,6.3,211481732103592,3.0,0,,,
Fix,GPS,40.8919562493,29.3793427572,187.0,0.87,3.0,157.7,1774383071000,0.21,5.3,211482737753053,3.0,0,,,
Fix,GPS,40.8919480769,29.3793463614,187.0,0.96,2.5,157.9,1774383072000,0.19,4.3,211483745168437,2.0,0,,,
Fix,GPS,40.8919421257,29.3793510552,187.0,0.83,3.0,164.4,1774383073000,0.27,6.0,211484734551513,3.0,0,,,
Fix,GPS,40.8919357974,29.3793558329,187.0,0.65999997,2.5,165.8,1774383074000,0.2,6.2,211485748296551,3.0,0,,,
Fix,GPS,40.8919252781,29.3793577608,188.0,1.09,3.0,171.8,1774383075000,0.25,4.2,211486734229050,3.0,0,,,
Fix,GPS,40.8919183630,29.3793589342,188.0,0.88,3.0,176.7,1774383076000,0.18,3.4,211487726208126,3.0,0,,,
Fix,GPS,40.8919098135,29.3793649692,188.0,0.72999996,3.0,167.1,1774383077000,0.23,5.3,211488744988087,3.0,0,,,
Fix,GPS,40.8919034014,29.3793705851,187.0,1.05,2.5,155.0,1774383078000,0.23,4.4,211489717555625,3.0,0,,,
Fix,GPS,40.8918997971,29.3793769553,187.0,0.9,3.0,156.8,1774383079000,0.26,5.2,211490715790663,3.0,0,,,
Fix,GPS,40.8918930916,29.3793804757,186.0,0.71,3.0,152.2,1774383080000,0.32,7.3,211491727493816,3.0,0,,,
Fix,GPS,40.8918865118,29.3793818168,186.0,0.41,3.0,149.1,1774383081000,0.33,11.5,211492720531815,3.0,0,,,
Fix,GPS,40.8918821532,29.3793873489,187.0,0.81,3.0,146.2,1774383082000,0.48,13.0,211493723113045,3.0,0,,,
Fix,GPS,40.8918780461,29.3793891929,186.0,0.39999998,3.0,143.0,1774383083000,0.63,17.8,211494730283621,3.0,0,,,
Fix,GPS,40.8918680297,29.3793908693,186.0,1.01,3.0,164.6,1774383084000,0.28,6.5,211495735294890,3.0,0,,,
Fix,GPS,40.8918614080,29.3793917075,186.0,0.45999998,3.0,167.0,1774383085000,0.33,9.8,211496726720235,3.0,0,,,
Fix,GPS,40.8918558341,29.3793946411,186.0,0.57,3.0,166.4,1774383086000,0.34,10.7,211497727219888,3.0,0,,,
Fix,GPS,40.8918461530,29.3793959823,186.0,0.98999995,3.0,168.4,1774383087000,0.28,5.7,211498731443657,3.0,0,,,
Fix,GPS,40.8918368071,29.3793972395,187.0,1.04,3.0,168.3,1774383088000,0.27,5.5,211499712567002,3.0,0,,,
Fix,GPS,40.8918270841,29.3794021010,187.0,0.76,3.5,161.2,1774383089000,0.24,5.6,211500751788540,3.0,0,,,
Fix,GPS,40.8918218035,29.3794088066,187.0,0.62,3.0,154.7,1774383090000,0.31,7.9,211501739768386,3.0,0,,,
Fix,GPS,40.8918140084,29.3794129975,187.0,1.1999999,3.0,161.2,1774383091000,0.3,5.5,211502716920154,3.0,0,,,
Fix,GPS,40.8918037824,29.3794198707,187.0,0.88,3.5,161.1,1774383092000,0.3,6.8,211503733699499,4.0,0,,,
Fix,GPS,40.8917948557,29.3794275820,187.0,1.09,3.0,169.8,1774383093000,0.29,5.8,211504739028268,3.0,0,,,
Fix,GPS,40.8917860128,29.3794300966,187.0,1.0,3.5,177.8,1774383094000,0.28,5.2,211505733739960,3.0,0,,,
Fix,GPS,40.8917773375,29.3794304319,187.0,1.04,3.0,182.5,1774383095000,0.32,6.2,211506717805074,3.0,0,,,
