Fix,GPS,40.8932030573,29.3752813898,170.0,0.0,3.5,,1774381860000,0.05,,210271726865650,3.0,0,,,
Fix,GPS,40.8932030573,29.3752813898,170.0,0.0,3.5,,1774381861000,0.02,,210272721307342,3.0,0,,,
Fix,GPS,40.8932030573,29.3752813898,170.0,0.0,3.5,,1774381862000,0.01,,210273726949918,3.0,0,,,
Fix,GPS,40.8932030573,29.3752813898,170.0,0.0,3.5,,1774381863000,0.04,,210274722291571,3.0,0,,,
Fix,GPS,40.8932030573,29.3752813898,170.0,0.0,3.5,,1774381864000,0.03,,210275721904993,3.0,0,,,
Fix,GPS,40.8932030573,29.3752813898,170.0,0.0,3.5,,1774381865000,0.01,,210276736433108,3.0,0,,,
Fix,GPS,40.8932030573,29.3752813898,170.0,0.0,3.5,,1774381866000,0.01,,210277718010953,3.0,0,,,
Fix,GPS,40.8932030573,29.3752813898,170.0,0.0,3.5,,1774381867000,0.01,,210278730187606,3.0,0,,,
Fix,GPS,40.8932030573,29.3752813898,170.0,0.0,3.5,,1774381868000,0.01,,210279707678875,3.0,0,,,
Fix,GPS,40.8932030573,29.3752813898,170.0,0.0,3.5,,1774381869000,0.01,,210280747072067,3.0,0,,,
Fix,GPS,40.8932030573,29.3752813898,170.0,0.0,3.5,,1774381870000,0.02,,210281718390412,3.0,0,,,
Fix,GPS,40.8932030573,29.3752813898,170.0,0.0,3.5,,1774381871000,0.02,,210282718657527,3.0,0,,,
Fix,GPS,40.8932030573,29.3752813898,170.0,0.0,3.5,,1774381872000,0.02,,210283731097411,3.0,0,,,
Fix,GPS,40.8932030573,29.3752813898,170.0,0.0,3.5,,1774381873000,0.01,,210284720434179,3.0,0,,,
Fix,GPS,40.8932030573,29.3752813898,170.0,0.0,3.5,,1774381874000,0.03,,210285718071601,3.0,0,,,
Fix,GPS,40.8932030573,29.3752813898,170.0,0.0,3.5,,1774381875000,0.02,,210286718525601,3.0,0,,,
Fix,GPS,40.8932030573,29.3752813898,170.0,0.0,3.5,,1774381876000,0.01,,210287717852408,3.0,0,,,
Fix,GPS,40.8932030573,29.3752813898,170.0,0.0,3.5,,1774381877000,0.02,,210288718858907,3.0,0,,,
Fix,GPS,40.8932030573,29.3752813898,170.0,0.0,3.5,,1774381878000,0.02,,210289717071906,3.0,0,,,
Fix,GPS,40.8932030573,29.3752813898,170.0,0.0,3.5,,1774381879000,0.02,,210290731831944,3.0,0,,,
Fix,GPS,40.8932030573,29.3752813898,170.0,0.0,3.5,,1774381880000,0.02,,210291718219328,3.0,0,,,
Fix,GPS,40.8932030573,29.3752813898,170.0,0.0,4.0,,1774381881000,0.02,,210292728304981,4.0,0,,,
Fix,GPS,40.8932030573,29.3752813898,170.0,0.0,3.5,,1774381882000,0.01,,210293719666980,3.0,0,,,
Fix,GPS,40.8932030573,29.3752813898,170.0,0.0,3.5,,1774381883000,0.01,,210294722903787,3.0,0,,,
Fix,GPS,40.8932030573,29.3752813898,170.0,0.0,3.5,,1774381884000,0.01,,210295727674402,3.0,0,,,
Fix,GPS,40.8932030573,29.3752813898,170.0,0.0,3.5,,1774381885000,0.01,,210296738194747,3.0,0,,,
Fix,GPS,40.8932030573,29.3752813898,170.0,0.0,3.5,,1774381886000,0.01,,210297719486977,3.0,0,,,
Fix,GPS,40.8932030573,29.3752813898,170.0,0.0,3.0,,1774381887000,0.09,,210298715732323,3.0,0,,,
Fix,GPS,40.8932030573,29.3752813898,170.0,0.0,3.0,,1774381888000,0.02,,210299724647514,3.0,0,,,
Fix,GPS,40.8932030573,29.3752813898,170.0,0.0,3.0,,1774381889000,0.01,,210300725102475,3.0,0,,,
Fix,GPS,40.8932030573,29.3752813898,170.0,0.0,3.5,,1774381890000,0.01,,210301736881167,3.0,0,,,
Fix,GPS,40.8932030573,29.3752813898,170.0,0.0,3.0,,1774381891000,0.01,,210302721616089,3.0,0,,,
Fix,GPS,40.8932030573,29.3752813898,170.0,0.0,3.0,,1774381892000,0.02,,210303720896550,3.0,0,,,
Fix,GPS,40.8932030573,29.3752813898,170.0,0.0,3.5,,1774381893000,0.02,,210304728149472,3.0,0,,,
Fix,GPS,40.8932030573,29.3752813898,170.0,0.0,3.0,,1774381894000,0.01,,210305721558856,3.0,0,,,
Fix,GPS,40.8932030573,29.3752813898,170.0,0.0,3.0,,1774381895000,0.01,,210306721046433,3.0,0,,,
Fix,GPS,40.8932030573,29.3752813898,170.0,0.0,3.5,,1774381896000,0.01,,210307742869701,3.0,0,,,
Fix,GPS,40.8932030573,29.3752813898,170.0,0.0,3.0,,1774381897000,0.01,,210308726640777,3.0,0,,,
Fix,GPS,40.8932030573,29.3752813898,170.0,0.0,3.0,,1774381898000,0.01,,210309719934892,3.0,0,,,
Fix,GPS,40.8932030573,29.3752813898,170.0,0.0,3.5,,1774381899000,0.02,,210310714975622,3.0,0,,,
Fix,GPS,40.8932030573,29.3752813898,170.0,0.0,3.5,,1774381900000,0.02,,210311717642352,3.0,0,,,
Fix,GPS,40.8932030573,29.3752813898,170.0,0.0,3.5,,1774381901000,0.01,,210312707628274,3.0,0,,,
Fix,GPS,40.8932030573,29.3752813898,170.0,0.0,3.5,,1774381902000,0.01,,210313742821081,3.0,0,,,
Fix,GPS,40.8932030573,29.3752813898,170.0,0.0,3.5,,1774381903000,0.01,,210314726687081,3.0,0,,,
Fix,GPS,40.8932030573,29.3752813898,170.0,0.0,3.0,,1774381904000,0.01,,210315718857926,3.0,0,,,
Fix,GPS,40.8932030573,29.3752813898,170.0,0.0,3.0,,1774381905000,0.01,,210316716727041,3.0,0,,,
Fix,GPS,40.8932030573,29.3752813898,170.0,0.0,3.5,,1774381906000,0.02,,210317714125848,3.0,0,,,
Fix,GPS,40.8932030573,29.3752813898,170.0,0.0,3.0,,1774381907000,0.02,,210318719718232,3.0,0,,,
Fix,GPS,40.8932030573,29.3752813898,170.0,0.0,3.0,,1774381908000,0.02,,210319726836654,3.0,0,,,
Fix,GPS,40.8932030573,29.3752813898,170.0,0.0,3.0,,1774381909000,0.01,,210320732370615,3.0,0,,,
Fix,GPS,40.8932030573,29.3752813898,170.0,0.0,3.5,,1774381910000,0.01,,210321714439883,3.0,0,,,
Fix,GPS,40.8932030573,29.3752813898,170.0,0.0,3.0,,1774381911000,0.01,,210322717956960,3.0,0,,,
Fix,GPS,40.8932030573,29.3752813898,170.0,0.0,3.0,,1774381912000,0.01,,210323700291228,3.0,0,,,
Fix,GPS,40.8932030573,29.3752813898,170.0,0.0,3.0,,1774381913000,0.01,,210324726508343,3.0,0,,,
Fix,GPS,40.8932030573,29.3752813898,170.0,0.0,3.5,,1774381914000,0.01,,210325723898304,3.0,0,,,
Fix,GPS,40.8932030573,29.3752813898,170.0,0.0,3.0,,1774381915000,0.02,,210326724595649,3.0,0,,,
Fix,GPS,40.8932030573,29.3752813898,170.0,0.0,3.5,,1774381916000,0.02,,210327723709264,3.0,0,,,
Fix,GPS,40.8932030573,29.3752813898,170.0,0.0,3.0,,1774381917000,0.01,,210328723213378,3.0,0,,,
Fix,GPS,40.8932030573,29.3752813898,170.0,0.0,3.5,,1774381918000,0.01,,210329738155108,3.0,0,,,
Fix,GPS,40.8932030573,29.3752813898,170.0,0.0,3.0,,1774381919000,0.01,,210330718854877,3.0,0,,,
Fix,GPS,40.8932030573,29.3752813898,170.0,0.0,3.0,,1774381920000,0.01,,210331724763645,3.0,0,,,
Fix,GPS,40.8932030573,29.3752813898,170.0,0.0,3.5,,1774381921000,0.02,,210332727034914,3.0,0,,,
Fix,GPS,40.8932030573,29.3752813898,170.0,0.0,3.5,,1774381922000,0.01,,210333722289067,3.0,0,,,
Fix,GPS,40.8932030573,29.3752813898,170.0,0.0,3.5,,1774381923000,0.01,,210334725365336,3.0,0,,,
Fix,GPS,40.8932030573,29.3752813898,170.0,0.0,3.5,,1774381924000,0.01,,210335728059066,3.0,0,,,
Fix,GPS,40.8932030573,29.3752813898,170.0,0.0,3.0,,1774381925000,0.01,,210336730115026,3.0,0,,,
Fix,GPS,40.8932030573,29.3752813898,170.0,0.0,3.5,,1774381926000,0.01,,210337730630603,3.0,0,,,
Fix,GPS,40.8932030573,29.3752813898,170.0,0.0,3.5,,1774381927000,0.02,,210338727745871,3.0,0,,,
Fix,GPS,40.8932030573,29.3752813898,170.0,0.0,3.5,,1774381928000,0.02,,210339720178832,3.0,0,,,
Fix,GPS,40.8932030573,29.3752813898,170.0,0.0,3.5,,1774381929000,0.02,,210340727920024,3.0,0,,,
Fix,GPS,40.8932030573,29.3752813898,170.0,0.0,3.0,,1774381930000,0.02,,210341740258023,3.0,0,,,
Fix,GPS,40.8932030573,29.3752813898,170.0,0.0,3.0,,1774381931000,0.02,,210342742387830,3.0,0,,,
Fix,GPS,40.8932030573,29.3752813898,170.0,0.0,3.5,,1774381932000,0.01,,210343713594675,3.0,0,,,
Fix,GPS,40.8932030573,29.3752813898,170.0,0.0,3.0,,1774381933000,0.01,,210344731040098,3.0,0,,,
Fix,GPS,40.8932030573,29.3752813898,170.0,0.0,3.5,,1774381934000,0.01,,210345725839097,3.0,0,,,
Fix,GPS,40.8932030573,29.3752813898,170.0,0.0,3.0,,1774381935000,0.01,,210346736806173,3.0,0,,,
Fix,GPS,40.8932030573,29.3752813898,170.0,0.0,3.5,,1774381936000,0.01,,210347739893480,3.0,0,,,
Fix,GPS,40.8932030573,29.3752813898,170.0,0.0,3.5,,1774381937000,0.02,,210348720735787,3.0,0,,,
Fix,GPS,40.8932030573,29.3752813898,170.0,0.0,3.0,,1774381938000,0.01,,210349728780748,3.0,0,,,
Fix,GPS,40.8932030573,29.3752813898,170.0,0.0,3.0,,1774381939000,0.01,,210350710614978,3.0,0,,,
Fix,GPS,40.8932030573,29.3752813898,170.0,0.0,3.5,,1774381940000,0.02,,210351704831093,3.0,0,,,
Fix,GPS,40.8932030573,29.3752813898,170.0,0.0,3.5,,1774381941000,0.02,,210352729153323,3.0,0,,,
Fix,GPS,40.8932030573,29.3752813898,170.0,0.0,3.0,,1774381943000,0.12,,210354722148783,3.0,0,,,
Fix,GPS,40.8932030573,29.3752813898,170.0,0.0,2.5,,1774381944000,0.02,,210355727581859,3.0,0,,,
Fix,GPS,40.8932030573,29.3752813898,170.0,0.0,3.0,,1774381945000,0.01,,210356735479820,3.0,0,,,
Fix,GPS,40.8932030573,29.3752813898,170.0,0.0,3.0,,1774381946000,0.01,,210357732360473,3.0,0,,,
Fix,GPS,40.8932030573,29.3752813898,170.0,0.0,2.5,,1774381947000,0.02,,210358723235280,3.0,0,,,
Fix,GPS,40.8932030573,29.3752813898,170.0,0.0,3.0,,1774381948000,0.02,,210359731650549,3.0,0,,,
Fix,GPS,40.8932030573,29.3752813898,170.0,0.0,3.0,,1774381949000,0.01,,210360733536202,3.0,0,,,
Fix,GPS,40.8932030573,29.3752813898,170.0,0.0,2.5,,1774381950000,0.02,,210361724161624,2.0,0,,,
Fix,GPS,40.8932030573,29.3752813898,170.0,0.0,3.0,,1774381951000,0.01,,210362716079008,3.0,0,,,
Fix,GPS,40.8932030573,29.3752813898,170.0,0.0,3.0,,1774381952000,0.03,,210363724774430,3.0,0,,,
Fix,GPS,40.8932030573,29.3752813898,170.0,0.0,3.0,,1774381953000,0.03,,210364723996660,3.0,0,,,
Fix,GPS,40.8932030573,29.3752813898,170.0,0.0,2.5,,1774381954000,0.03,,210365726977890,2.0,0,,,
Fix,GPS,40.8932030573,29.3752813898,170.0,0.0,2.5,,1774381955000,0.01,,210366731848467,2.0,0,,,
Fix,GPS,40.8932030573,29.3752813898,170.0,0.0,2.5,,1774381956000,0.01,,210367743053427,2.0,0,,,
Fix,GPS,40.8932030573,29.3752813898,170.0,0.0,2.5,,1774381957000,0.01,,210368728853888,2.0,0,,,
Fix,GPS,40.8932030573,29.3752813898,170.0,0.0,2.5,,1774381958000,0.02,,210369711906772,2.0,0,,,
Fix,GPS,40.8932030573,29.3752813898,170.0,0.0,3.0,,1774381959000,0.01,,210370718290925,3.0,0,,,
Fix,GPS,40.8932030573,29.3752813898,170.0,0.0,3.0,,1774381960000,0.02,,210371717099271,3.0,0,,,
Fix,GPS,40.8932030573,29.3752813898,170.0,0.0,3.0,,1774381961000,0.02,,210372733060808,3.0,0,,,
Fix,GPS,40.8932030573,29.3752813898,170.0,0.0,3.0,,1774381962000,0.12,,210373723637269,3.0,0,,,
Fix,GPS,40.8932030573,29.3752813898,170.0,0.0,3.0,,1774381963000,0.05,,210374722522192,3.0,0,,,
Fix,GPS,40.8932030573,29.3752813898,170.0,0.0,2.5,,1774381964000,0.04,,210375720983537,3.0,0,,,
Fix,GPS,40.8932030573,29.3752813898,170.0,0.0,3.0,,1774381965000,0.12,,210376721107113,3.0,0,,,
Fix,GPS,40.8932030573,29.3752813898,170.0,0.0,2.5,,1774381966000,0.02,,210377724311728,2.0,0,,,
Fix,GPS,40.8932030573,29.3752813898,170.0,0.0,3.0,,1774381967000,0.02,,210378721074381,3.0,0,,,
Fix,GPS,40.8932030573,29.3752813898,170.0,0.0,2.5,,1774381968000,0.02,,210379722044611,2.0,0,,,
Fix,GPS,40.8932030573,29.3752813898,170.0,0.0,2.5,,1774381969000,0.01,,210380723858495,2.0,0,,,
Fix,GPS,40.8932030573,29.3752813898,170.0,0.0,2.5,,1774381970000,0.01,,210381740388687,2.0,0,,,
Fix,GPS,40.8932030573,29.3752813898,170.0,0.0,2.5,,1774381971000,0.01,,210382731667647,2.0,0,,,
Fix,GPS,40.8932030573,29.3752813898,170.0,0.0,3.0,,1774381972000,0.03,,210383726332377,3.0,0,,,
Fix,GPS,40.8932030573,29.3752813898,170.0,0.0,3.0,,1774381973000,0.02,,210384720630377,3.0,0,,,
Fix,GPS,40.8932030573,29.3752813898,170.0,0.0,3.0,,1774381974000,0.01,,210385723080376,3.0,0,,,
Fix,GPS,40.8932030573,29.3752813898,170.0,0.0,3.0,,1774381975000,0.01,,210386732612145,3.0,0,,,
Fix,GPS,40.8932030573,29.3752813898,170.0,0.0,2.5,,1774381976000,0.03,,210387735491221,3.0,0,,,
Fix,GPS,40.8932030573,29.3752813898,170.0,0.0,2.5,,1774381977000,0.01,,210388728686989,3.0,0,,,
Fix,GPS,40.8932030573,29.3752813898,170.0,0.0,3.0,,1774381978000,0.02,,210389729746758,3.0,0,,,
Fix,GPS,40.8932030573,29.3752813898,170.0,0.0,3.0,,1774381979000,0.01,,210390718380026,3.0,0,,,
Fix,GPS,40.8932030573,29.3752813898,170.0,0.0,3.0,,1774381980000,0.01,,210391718227256,3.0,0,,,
Fix,GPS,40.8932030573,29.3752813898,170.0,0.0,3.0,,1774381981000,0.01,,210392727677102,3.0,0,,,
Fix,GPS,40.8932030573,29.3752813898,170.0,0.0,3.0,,1774381982000,0.02,,210393731447909,3.0,0,,,
Fix,GPS,40.8932030573,29.3752813898,170.0,0.0,3.0,,1774381983000,0.02,,210394723810408,3.0,0,,,
Fix,GPS,40.8932030573,29.3752813898,170.0,0.0,2.5,,1774381984000,0.01,,210395723207215,2.0,0,,,
Fix,GPS,40.8932030573,29.3752813898,170.0,0.0,2.5,,1774381985000,0.02,,210396723994561,2.0,0,,,
Fix,GPS,40.8932030573,29.3752813898,170.0,0.0,3.0,,1774381986000,0.03,,210397722157829,3.0,0,,,
Fix,GPS,40.8932030573,29.3752813898,170.0,0.0,2.5,,1774381987000,0.03,,210398724438021,2.0,0,,,
Fix,GPS,40.8932030573,29.3752813898,170.0,0.0,2.5,,1774381988000,0.02,,210399735630635,2.0,0,,,
Fix,GPS,40.8932030573,29.3752813898,170.0,0.0,3.0,,1774381989000,0.03,,210400720733904,3.0,0,,,
Fix,GPS,40.8932030573,29.3752813898,170.0,0.0,2.5,,1774381990000,0.03,,210401740545942,2.0,0,,,
Fix,GPS,40.8932030573,29.3752813898,170.0,0.0,2.5,,1774381991000,0.01,,210402719585287,2.0,0,,,
Fix,GPS,40.8932030573,29.3752813898,170.0,0.0,3.0,,1774381992000,0.01,,210403727450940,3.0,0,,,
Fix,GPS,40.8932030573,29.3752813898,170.0,0.0,2.5,,1774381993000,0.02,,210404719173516,2.0,0,,,
Fix,GPS,40.8932030573,29.3752813898,170.0,0.0,2.5,,1774381994000,0.01,,210405720812823,2.0,0,,,
Fix,GPS,40.8932030573,29.3752813898,170.0,0.0,3.0,,1774381995000,0.01,,210406728618938,3.0,0,,,
Fix,GPS,40.8932030573,29.3752813898,170.0,0.0,2.5,,1774381996000,0.01,,210407718352630,2.0,0,,,
Fix,GPS,40.8932030573,29.3752813898,170.0,0.0,3.0,,1774381997000,0.02,,210408720620244,3.0,0,,,
Fix,GPS,40.8932030573,29.3752813898,170.0,0.0,3.0,,1774381998000,0.04,,210409727667513,3.0,0,,,
Fix,GPS,40.8932030573,29.3752813898,170.0,0.0,2.5,,1774381999000,0.04,,210410712091320,2.0,0,,,
Fix,GPS,40.8932030573,29.3752813898,170.0,0.0,3.0,,1774382000000,0.02,,210411741355357,3.0,0,,,
Fix,GPS,40.8932030573,29.3752813898,170.0,0.0,2.5,,1774382001000,0.01,,210412719857934,2.0,0,,,
Fix,GPS,40.8932030573,29.3752813898,170.0,0.0,2.5,,1774382002000,0.01,,210413736430741,2.0,0,,,
Fix,GPS,40.8932030573,29.3752813898,170.0,0.0,3.0,,1774382003000,0.01,,210414732618394,3.0,0,,,
Fix,GPS,40.8932030573,29.3752813898,170.0,0.0,3.0,,1774382004000,0.02,,210415728915278,3.0,0,,,
Fix,GPS,40.8932030573,29.3752813898,170.0,0.0,3.0,,1774382005000,0.01,,210416738124008,3.0,0,,,
Fix,GPS,40.8932030573,29.3752813898,170.0,0.0,2.5,,1774382006000,0.02,,210417724837545,2.0,0,,,
Fix,GPS,40.8932030573,29.3752813898,170.0,0.0,3.0,,1774382007000,0.03,,210418723441929,3.0,0,,,
Fix,GPS,40.8932030573,29.3752813898,170.0,0.0,2.5,,1774382008000,0.01,,210419732969583,2.0,0,,,
Fix,GPS,40.8932030573,29.3752813898,170.0,0.0,2.5,,1774382009000,0.01,,210420722102120,2.0,0,,,
Fix,GPS,40.8932030573,29.3752813898,170.0,0.0,2.5,,1774382010000,0.01,,210421727776504,2.0,0,,,
Fix,GPS,40.8932030573,29.3752813898,170.0,0.0,2.5,,1774382011000,0.01,,210422727992811,2.0,0,,,
Fix,GPS,40.8932030573,29.3752813898,170.0,0.0,2.5,,1774382012000,0.02,,210423721733926,2.0,0,,,
Fix,GPS,40.8932030573,29.3752813898,170.0,0.0,2.5,,1774382013000,0.02,,210424724114733,2.0,0,,,
Fix,GPS,40.8932030573,29.3752813898,170.0,0.0,3.0,,1774382014000,0.02,,210425721301117,3.0,0,,,
Fix,GPS,40.8932030573,29.3752813898,170.0,0.0,3.0,,1774382015000,0.02,,210426740235462,3.0,0,,,
Fix,GPS,40.8932030573,29.3752813898,170.0,0.0,3.0,,1774382016000,0.01,,210427715581846,3.0,0,,,
Fix,GPS,40.8932030573,29.3752813898,170.0,0.0,2.5,,1774382017000,0.02,,210428712651499,2.0,0,,,
Fix,GPS,40.8932030573,29.3752813898,170.0,0.0,3.0,,1774382018000,0.03,,210429739947806,3.0,0,,,
Fix,GPS,40.8932030573,29.3752813898,170.0,0.0,3.0,,1774382019000,0.03,,210430696799690,3.0,0,,,
Fix,GPS,40.8932030573,29.3752813898,170.0,0.0,2.5,,1774382020000,0.01,,210431708388766,2.0,0,,,
Fix,GPS,40.8932030573,29.3752813898,170.0,0.0,3.0,,1774382021000,0.02,,210432724624727,3.0,0,,,
Fix,GPS,40.8932030573,29.3752813898,170.0,0.0,3.0,,1774382022000,0.02,,210433722494880,3.0,0,,,
Fix,GPS,40.8932030573,29.3752813898,170.0,0.0,3.0,,1774382023000,0.01,,210434727208610,3.0,0,,,
Fix,GPS,40.8932030573,29.3752813898,170.0,0.0,3.0,,1774382024000,0.01,,210435718101840,3.0,0,,,
Fix,GPS,40.8932030573,29.3752813898,170.0,0.0,2.5,,1774382025000,0.03,,210436722370455,2.0,0,,,
Fix,GPS,40.8932030573,29.3752813898,170.0,0.0,2.5,,1774382026000,0.03,,210437731173800,2.0,0,,,
Fix,GPS,40.8932030573,29.3752813898,170.0,0.0,2.5,,1774382027000,0.03,,210438717422107,2.0,0,,,
Fix,GPS,40.8932030573,29.3752813898,170.0,0.0,2.5,,1774382028000,0.01,,210439739928799,2.0,0,,,
Fix,GPS,40.8932030573,29.3752813898,170.0,0.0,3.0,,1774382029000,0.01,,210440730244721,3.0,0,,,
Fix,GPS,40.8932030573,29.3752813898,170.0,0.0,3.0,,1774382030000,0.01,,210441690971144,3.0,0,,,
Fix,GPS,40.8932030573,29.3752813898,170.0,0.0,2.5,,1774382031000,0.01,,210442723110797,2.0,0,,,
Fix,GPS,40.8932030573,29.3752813898,170.0,0.0,2.5,,1774382032000,0.01,,210443724328335,2.0,0,,,
Fix,GPS,40.8932030573,29.3752813898,170.0,0.0,2.5,,1774382033000,0.02,,210444716196988,2.0,0,,,
Fix,GPS,40.8932030573,29.3752813898,170.0,0.0,2.5,,1774382034000,0.02,,210445730590833,2.0,0,,,
Fix,GPS,40.8932030573,29.3752813898,170.0,0.0,3.0,,1774382035000,0.03,,210446724017986,3.0,0,,,
Fix,GPS,40.8932030573,29.3752813898,170.0,0.0,3.0,,1774382036000,0.03,,210447737599639,3.0,0,,,
Fix,GPS,40.8932030573,29.3752813898,170.0,0.0,3.0,,1774382037000,0.12,,210448743012793,3.0,0,,,
Fix,GPS,40.8932030573,29.3752813898,170.0,0.0,3.0,,1774382038000,0.01,,210449727352830,3.0,0,,,
Fix,GPS,40.8932030573,29.3752813898,170.0,0.0,2.5,,1774382039000,0.03,,210450724192753,2.0,0,,,
Fix,GPS,40.8932030573,29.3752813898,170.0,0.0,3.0,,1774382040000,0.12,,210451735716483,3.0,0,,,
Fix,GPS,40.8931966452,29.3752834853,170.0,0.32999998,3.5,107.0,1774382041000,0.32,88.4,210452736041290,3.0,0,,,
Fix,GPS,40.8931974415,29.3752844073,169.0,0.35,3.0,107.0,1774382042000,0.36,88.4,210453719692174,3.0,0,,,
Fix,GPS,40.8932000818,29.3752840720,169.0,0.02,3.0,107.0,1774382043000,0.31,114.2,210454710101173,3.0,0,,,
Fix,GPS,40.8932007523,29.3752865028,169.0,0.17,3.0,107.0,1774382044000,0.31,141.6,210455715973095,2.0,0,,,
Fix,GPS,40.8931976510,29.3752851617,169.0,0.26999998,3.5,107.0,1774382045000,0.36,169.9,210456728391402,3.0,0,,,
Fix,GPS,40.8931964356,29.3752867542,169.0,0.32999998,3.5,107.0,1774382046000,0.24,180.0,210457732863748,3.0,0,,,
Fix,GPS,40.8931932924,29.3752894364,168.0,0.31,3.5,107.0,1774382047000,0.29,180.0,210458740167516,3.0,0,,,
Fix,GPS,40.8931933763,29.3752891012,168.0,0.0,3.5,,1774382048000,0.02,,210459737457823,3.0,0,,,
Fix,GPS,40.8931933763,29.3752891012,168.0,0.0,3.5,,1774382049000,0.02,,210460726079861,3.0,0,,,
Fix,GPS,40.8931933763,29.3752891012,168.0,0.0,3.5,,1774382050000,0.01,,210461716004206,3.0,0,,,
Fix,GPS,40.8931933763,29.3752891012,168.0,0.0,3.5,,1774382051000,0.02,,210462738295744,3.0,0,,,
Fix,GPS,40.8931933763,29.3752891012,168.0,0.0,3.5,,1774382052000,0.03,,210463726807243,3.0,0,,,
Fix,GPS,40.8931933763,29.3752891012,168.0,0.0,3.5,,1774382053000,0.02,,210464706664050,3.0,0,,,
Fix,GPS,40.8931933763,29.3752891012,168.0,0.0,3.5,,1774382054000,0.01,,210465724484896,3.0,0,,,
Fix,GPS,40.8931933763,29.3752891012,168.0,0.0,3.5,,1774382055000,0.02,,210466745824972,3.0,0,,,
Fix,GPS,40.8931933763,29.3752891012,168.0,0.0,3.5,,1774382056000,0.02,,210467731429779,3.0,0,,,
Fix,GPS,40.8931933763,29.3752891012,168.0,0.0,3.0,,1774382057000,0.01,,210468726504432,3.0,0,,,
Fix,GPS,40.8931933763,29.3752891012,168.0,0.0,3.0,,1774382058000,0.01,,210469735305239,3.0,0,,,
Fix,GPS,40.8931933763,29.3752891012,168.0,0.0,3.0,,1774382059000,0.02,,210470737807392,3.0,0,,,
Fix,GPS,40.8931933763,29.3752891012,168.0,0.0,3.0,,1774382060000,0.02,,210471726418622,3.0,0,,,
Fix,GPS,40.8931933763,29.3752891012,168.0,0.0,3.5,,1774382061000,0.01,,210472734674698,3.0,0,,,
Fix,GPS,40.8931933763,29.3752891012,168.0,0.0,3.0,,1774382062000,0.01,,210473726006159,3.0,0,,,
Fix,GPS,40.8931933763,29.3752891012,168.0,0.0,3.0,,1774382063000,0.01,,210474746905043,3.0,0,,,
Fix,GPS,40.8931933763,29.3752891012,168.0,0.0,3.5,,1774382064000,0.01,,210475720561696,3.0,0,,,
Fix,GPS,40.8931933763,29.3752891012,168.0,0.0,3.5,,1774382065000,0.02,,210476742583080,3.0,0,,,
Fix,GPS,40.8931933763,29.3752891012,168.0,0.0,3.5,,1774382066000,0.02,,210477744561579,3.0,0,,,
Fix,GPS,40.8931933763,29.3752891012,168.0,0.0,3.0,,1774382067000,0.03,,210478738381886,3.0,0,,,
Fix,GPS,40.8931933763,29.3752891012,168.0,0.0,3.5,,1774382068000,0.03,,210479729555770,3.0,0,,,
Fix,GPS,40.8931933763,29.3752891012,168.0,0.0,3.0,,1774382069000,0.04,,210480732399654,3.0,0,,,
Fix,GPS,40.8931933763,29.3752891012,168.0,0.0,3.0,,1774382070000,0.02,,210481725924692,3.0,0,,,
Fix,GPS,40.8931933763,29.3752891012,168.0,0.0,3.0,,1774382071000,0.01,,210482721354153,3.0,0,,,
Fix,GPS,40.8931933763,29.3752891012,168.0,0.0,3.5,,1774382072000,0.02,,210483727364921,3.0,0,,,
Fix,GPS,40.8931933763,29.3752891012,168.0,0.0,3.0,,1774382073000,0.01,,210484749316613,3.0,0,,,
Fix,GPS,40.8931933763,29.3752891012,168.0,0.0,3.0,,1774382074000,0.01,,210485738284843,3.0,0,,,
Fix,GPS,40.8931933763,29.3752891012,168.0,0.0,3.0,,1774382075000,0.01,,210486734165265,2.0,0,,,
Fix,GPS,40.8931933763,29.3752891012,168.0,0.0,3.0,,1774382076000,0.03,,210487723421111,3.0,0,,,
Fix,GPS,40.8931933763,29.3752891012,168.0,0.0,3.0,,1774382077000,0.02,,210488743079456,3.0,0,,,
Fix,GPS,40.8931933763,29.3752891012,168.0,0.0,3.5,,1774382078000,0.01,,210489734725032,3.0,0,,,
Fix,GPS,40.8931933763,29.3752891012,168.0,0.0,3.5,,1774382079000,0.01,,210490718693532,3.0,0,,,
Fix,GPS,40.8931933763,29.3752891012,168.0,0.0,3.5,,1774382080000,0.02,,210491724031685,3.0,0,,,
Fix,GPS,40.8931933763,29.3752891012,168.0,0.0,3.5,,1774382081000,0.03,,210492741011684,3.0,0,,,
Fix,GPS,40.8931933763,29.3752891012,168.0,0.0,3.5,,1774382082000,0.01,,210493718243376,3.0,0,,,
Fix,GPS,40.8931933763,29.3752891012,168.0,0.0,3.0,,1774382083000,0.02,,210494712316183,3.0,0,,,
Fix,GPS,40.8931933763,29.3752891012,168.0,0.0,3.5,,1774382084000,0.01,,210495734987105,3.0,0,,,
Fix,GPS,40.8931933763,29.3752891012,168.0,0.0,3.5,,1774382085000,0.01,,210496727516374,3.0,0,,,
Fix,GPS,40.8931933763,29.3752891012,168.0,0.0,3.0,,1774382086000,0.02,,210497712156334,3.0,0,,,
Fix,GPS,40.8931933763,29.3752891012,168.0,0.0,3.0,,1774382087000,0.03,,210498725060411,3.0,0,,,
Fix,GPS,40.8931933763,29.3752891012,168.0,0.0,3.0,,1774382088000,0.03,,210499730242179,3.0,0,,,
Fix,GPS,40.8931933763,29.3752891012,168.0,0.0,3.0,,1774382089000,0.01,,210500702875794,3.0,0,,,
Fix,GPS,40.8931933763,29.3752891012,168.0,0.0,3.5,,1774382090000,0.02,,210501723342178,3.0,0,,,
Fix,GPS,40.8931933763,29.3752891012,168.0,0.0,3.5,,1774382091000,0.02,,210502735992869,3.0,0,,,
Fix,GPS,40.8931933763,29.3752891012,168.0,0.0,3.5,,1774382092000,0.01,,210503734656984,3.0,0,,,
Fix,GPS,40.8931933763,29.3752891012,168.0,0.0,3.0,,1774382093000,0.01,,210504722702829,3.0,0,,,
Fix,GPS,40.8931933763,29.3752891012,168.0,0.0,3.0,,1774382094000,0.01,,210505731967406,3.0,0,,,
Fix,GPS,40.8931933763,29.3752891012,168.0,0.0,3.0,,1774382095000,0.01,,210506735541097,3.0,0,,,
Fix,GPS,40.8931933763,29.3752891012,168.0,0.0,3.0,,1774382096000,0.02,,210507734818558,3.0,0,,,
Fix,GPS,40.8931933763,29.3752891012,168.0,0.0,3.5,,1774382097000,0.01,,210508740327403,3.0,0,,,
Fix,GPS,40.8931933763,29.3752891012,168.0,0.0,3.5,,1774382098000,0.01,,210509729744557,3.0,0,,,
Fix,GPS,40.8931933763,29.3752891012,168.0,0.0,3.5,,1774382099000,0.02,,210510725076864,3.0,0,,,
Fix,GPS,40.8931933763,29.3752891012,168.0,0.0,3.5,,1774382100000,0.01,,210511714446440,3.0,0,,,
Fix,GPS,40.8931933763,29.3752891012,168.0,0.0,3.0,,1774382101000,0.01,,210512731655401,3.0,0,,,
Fix,GPS,40.8931933763,29.3752891012,168.0,0.0,3.5,,1774382102000,0.01,,210513734530861,3.0,0,,,
Fix,GPS,40.8931933763,29.3752891012,168.0,0.0,3.5,,1774382103000,0.01,,210514728691515,3.0,0,,,
Fix,GPS,40.8931933763,29.3752891012,168.0,0.0,3.0,,1774382104000,0.01,,210515716330822,3.0,0,,,
Fix,GPS,40.8931933763,29.3752891012,168.0,0.0,3.5,,1774382105000,0.01,,210516735146090,3.0,0,,,
Fix,GPS,40.8931933763,29.3752891012,168.0,0.0,3.5,,1774382106000,0.01,,210517731988089,3.0,0,,,
Fix,GPS,40.8931933763,29.3752891012,168.0,0.0,3.0,,1774382107000,0.02,,210518738311781,3.0,0,,,
Fix,GPS,40.8931933763,29.3752891012,168.0,0.0,3.5,,1774382108000,0.02,,210519731818434,3.0,0,,,
Fix,GPS,40.8931933763,29.3752891012,168.0,0.0,3.0,,1774382109000,0.02,,210520721289664,3.0,0,,,
Fix,GPS,40.8931933763,29.3752891012,168.0,0.0,3.0,,1774382110000,0.02,,210521731817971,3.0,0,,,
Fix,GPS,40.8931933763,29.3752891012,168.0,0.0,3.0,,1774382111000,0.01,,210522738944624,3.0,0,,,
Fix,GPS,40.8931933763,29.3752891012,168.0,0.0,3.0,,1774382112000,0.02,,210523723185200,3.0,0,,,
Fix,GPS,40.8931933763,29.3752891012,168.0,0.0,3.0,,1774382113000,0.02,,210524720690200,3.0,0,,,
Fix,GPS,40.8931933763,29.3752891012,168.0,0.0,3.5,,1774382114000,0.01,,210525729713622,3.0,0,,,
Fix,GPS,40.8931933763,29.3752891012,168.0,0.0,3.5,,1774382115000,0.03,,210526729073160,3.0,0,,,
Fix,GPS,40.8931933763,29.3752891012,168.0,0.0,3.5,,1774382116000,0.03,,210527727910544,3.0,0,,,
Fix,GPS,40.8931933763,29.3752891012,168.0,0.0,3.0,,1774382117000,0.03,,210528730052351,3.0,0,,,
Fix,GPS,40.8931933763,29.3752891012,168.0,0.0,3.5,,1774382118000,0.03,,210529725767081,3.0,0,,,
Fix,GPS,40.8931933763,29.3752891012,168.0,0.0,3.0,,1774382119000,0.01,,210530720271388,3.0,0,,,
Fix,GPS,40.8931933763,29.3752891012,168.0,0.0,3.5,,1774382120000,0.01,,210531729601118,3.0,0,,,
Fix,GPS,40.8931933763,29.3752891012,168.0,0.0,3.5,,1774382121000,0.01,,210532727868002,3.0,0,,,
Fix,GPS,40.8931933763,29.3752891012,168.0,0.0,3.0,,1774382122000,0.01,,210533733570270,3.0,0,,,
Fix,GPS,40.8931933763,29.3752891012,168.0,0.0,3.0,,1774382123000,0.02,,210534732868346,3.0,0,,,
Fix,GPS,40.8931933763,29.3752891012,168.0,0.0,3.5,,1774382124000,0.01,,210535734230269,3.0,0,,,
Fix,GPS,40.8931933763,29.3752891012,168.0,0.0,3.0,,1774382125000,0.01,,210536739502576,3.0,0,,,
Fix,GPS,40.8931933763,29.3752891012,168.0,0.0,3.0,,1774382126000,0.03,,210537736777421,3.0,0,,,
Fix,GPS,40.8931933763,29.3752891012,168.0,0.0,3.5,,1774382127000,0.02,,210538725910036,3.0,0,,,
Fix,GPS,40.8931933763,29.3752891012,168.0,0.0,3.0,,1774382128000,0.02,,210539732215804,3.0,0,,,
Fix,GPS,40.8931933763,29.3752891012,168.0,0.0,3.0,,1774382129000,0.02,,210540722691265,3.0,0,,,
Fix,GPS,40.8931933763,29.3752891012,168.0,0.0,3.0,,1774382130000,0.02,,210541713191726,3.0,0,,,
Fix,GPS,40.8931933763,29.3752891012,168.0,0.0,3.0,,1774382131000,0.03,,210542739486841,3.0,0,,,
Fix,GPS,40.8931933763,29.3752891012,168.0,0.0,3.0,,1774382132000,0.03,,210543732346109,3.0,0,,,
Fix,GPS,40.8931933763,29.3752891012,168.0,0.0,3.0,,1774382133000,0.02,,210544731959955,3.0,0,,,
Fix,GPS,40.8931933763,29.3752891012,168.0,0.0,3.0,,1774382134000,0.02,,210545742588185,3.0,0,,,
Fix,GPS,40.8931933763,29.3752891012,168.0,0.0,3.0,,1774382135000,0.01,,210546723429492,3.0,0,,,
Fix,GPS,40.8931933763,29.3752891012,168.0,0.0,3.5,,1774382136000,0.02,,210547728497491,3.0,0,,,
Fix,GPS,40.8931933763,29.3752891012,168.0,0.0,3.0,,1774382137000,0.02,,210548727496336,3.0,0,,,
Fix,GPS,40.8931933763,29.3752891012,168.0,0.0,3.5,,1774382138000,0.01,,210549717550836,3.0,0,,,
Fix,GPS,40.8931933763,29.3752891012,168.0,0.0,3.0,,1774382139000,0.01,,210550719686912,3.0,0,,,
Fix,GPS,40.8931933763,29.3752891012,168.0,0.0,3.0,,1774382140000,0.02,,210551719076719,3.0,0,,,
Fix,GPS,40.8931933763,29.3752891012,168.0,0.0,3.0,,1774382141000,0.02,,210552735546141,3.0,0,,,
Fix,GPS,40.8931933763,29.3752891012,168.0,0.0,3.5,,1774382142000,0.01,,210553717701794,3.0,0,,,
Fix,GPS,40.8931933763,29.3752891012,168.0,0.0,3.5,,1774382143000,0.01,,210554721692601,3.0,0,,,
Fix,GPS,40.8931933763,29.3752891012,168.0,0.0,3.5,,1774382144000,0.02,,210555724757985,3.0,0,,,
Fix,GPS,40.8931933763,29.3752891012,168.0,0.0,3.0,,1774382145000,0.02,,210556723310908,3.0,0,,,
Fix,GPS,40.8931933763,29.3752891012,168.0,0.0,3.0,,1774382146000,0.02,,210557726821407,3.0,0,,,
Fix,GPS,40.8931933763,29.3752891012,168.0,0.0,3.5,,1774382147000,0.01,,210558730231868,3.0,0,,,
Fix,GPS,40.8931933763,29.3752891012,168.0,0.0,3.5,,1774382148000,0.01,,210559735896829,3.0,0,,,
Fix,GPS,40.8931933763,29.3752891012,168.0,0.0,3.0,,1774382149000,0.01,,210560724292674,3.0,0,,,
Fix,GPS,40.8931933763,29.3752891012,168.0,0.0,3.5,,1774382150000,0.01,,210561731607942,3.0,0,,,
Fix,GPS,40.8931933763,29.3752891012,168.0,0.0,3.0,,1774382151000,0.01,,210562716966673,3.0,0,,,
Fix,GPS,40.8931933763,29.3752891012,168.0,0.0,3.0,,1774382152000,0.01,,210563724372441,3.0,0,,,
Fix,GPS,40.8931933763,29.3752891012,168.0,0.0,3.0,,1774382153000,0.02,,210564735193363,3.0,0,,,
Fix,GPS,40.8931933763,29.3752891012,168.0,0.0,3.0,,1774382154000,0.03,,210565728368940,2.0,0,,,
Fix,GPS,40.8931933763,29.3752891012,168.0,0.0,3.0,,1774382155000,0.02,,210566730563170,3.0,0,,,
Fix,GPS,40.8931933763,29.3752891012,168.0,0.0,3.0,,1774382156000,0.01,,210567719991938,2.0,0,,,
Fix,GPS,40.8931933763,29.3752891012,168.0,0.0,3.0,,1774382157000,0.02,,210568724840822,3.0,0,,,
Fix,GPS,40.8931933763,29.3752891012,168.0,0.0,3.0,,1774382158000,0.02,,210569722659668,3.0,0,,,
Fix,GPS,40.8931933763,29.3752891012,168.0,0.0,3.0,,1774382159000,0.03,,210570733861782,3.0,0,,,
Fix,GPS,40.8931933763,29.3752891012,168.0,0.0,3.0,,1774382160000,0.02,,210571727548243,3.0,0,,,
Fix,GPS,40.8931933763,29.3752891012,168.0,0.0,3.0,,1774382161000,0.01,,210572726226819,2.0,0,,,
Fix,GPS,40.8931933763,29.3752891012,168.0,0.0,3.0,,1774382162000,0.01,,210573728910972,3.0,0,,,
Fix,GPS,40.8931933763,29.3752891012,168.0,0.0,3.5,,1774382163000,0.02,,210574712750664,3.0,0,,,
Fix,GPS,40.8931933763,29.3752891012,168.0,0.0,3.0,,1774382164000,0.01,,210575699778356,3.0,0,,,
Fix,GPS,40.8931933763,29.3752891012,168.0,0.0,3.0,,1774382165000,0.02,,210576720464855,3.0,0,,,
Fix,GPS,40.8931933763,29.3752891012,168.0,0.0,3.5,,1774382166000,0.01,,210577716079893,3.0,0,,,
Fix,GPS,40.8931933763,29.3752891012,168.0,0.0,3.0,,1774382167000,0.02,,210578707107430,3.0,0,,,
Fix,GPS,40.8931933763,29.3752891012,168.0,0.0,3.0,,1774382168000,0.02,,210579700039853,3.0,0,,,
Fix,GPS,40.8931933763,29.3752891012,168.0,0.0,3.0,,1774382169000,0.01,,210580700466314,3.0,0,,,
Fix,GPS,40.8931933763,29.3752891012,168.0,0.0,3.0,,1774382170000,0.02,,210581732675274,3.0,0,,,
Fix,GPS,40.8931933763,29.3752891012,168.0,0.0,3.0,,1774382171000,0.01,,210582712599427,2.0,0,,,
Fix,GPS,40.8931933763,29.3752891012,168.0,0.0,3.0,,1774382172000,0.04,,210583716084465,2.0,0,,,
Fix,GPS,40.8931933763,29.3752891012,168.0,0.0,3.0,,1774382173000,0.04,,210584727300888,3.0,0,,,
Fix,GPS,40.8931933763,29.3752891012,168.0,0.0,3.0,,1774382174000,0.02,,210585733858887,3.0,0,,,
Fix,GPS,40.8931933763,29.3752891012,168.0,0.0,3.0,,1774382175000,0.01,,210586723998386,3.0,0,,,
Fix,GPS,40.8931933763,29.3752891012,168.0,0.0,3.0,,1774382176000,0.01,,210587724746501,3.0,0,,,
Fix,GPS,40.8931933763,29.3752891012,168.0,0.0,3.0,,1774382177000,0.02,,210588728196539,3.0,0,,,
Fix,GPS,40.8931933763,29.3752891012,168.0,0.0,3.0,,1774382178000,0.01,,210589742735076,3.0,0,,,
Fix,GPS,40.8931933763,29.3752891012,168.0,0.0,3.0,,1774382179000,0.01,,210590727050576,3.0,0,,,
Fix,GPS,40.8931933763,29.3752891012,168.0,0.0,2.5,,1774382180000,0.02,,210591727461344,2.0,0,,,
Fix,GPS,40.8931933763,29.3752891012,168.0,0.0,3.0,,1774382181000,0.03,,210592724436997,3.0,0,,,
Fix,GPS,40.8931933763,29.3752891012,168.0,0.0,3.0,,1774382182000,0.01,,210593727475535,3.0,0,,,
Fix,GPS,40.8931933763,29.3752891012,168.0,0.0,3.0,,1774382183000,0.01,,210594734390573,3.0,0,,,
Fix,GPS,40.8931933763,29.3752891012,168.0,0.0,3.0,,1774382184000,0.02,,210595724323341,3.0,0,,,
Fix,GPS,40.8931933763,29.3752891012,168.0,0.0,3.0,,1774382185000,0.01,,210596732313417,2.0,0,,,
Fix,GPS,40.8931933763,29.3752891012,168.0,0.0,3.0,,1774382186000,0.01,,210597728457340,3.0,0,,,
Fix,GPS,40.8931933763,29.3752891012,168.0,0.0,3.0,,1774382187000,0.02,,210598722897608,3.0,0,,,
Fix,GPS,40.8931933763,29.3752891012,168.0,0.0,3.0,,1774382188000,0.01,,210599730900838,3.0,0,,,
Fix,GPS,40.8931933763,29.3752891012,168.0,0.0,3.0,,1774382189000,0.02,,210600722219261,3.0,0,,,
Fix,GPS,40.8931933763,29.3752891012,168.0,0.0,3.0,,1774382190000,0.01,,210601707880568,3.0,0,,,
Fix,GPS,40.8931933763,29.3752891012,168.0,0.0,3.0,,1774382191000,0.02,,210602725409567,3.0,0,,,
Fix,GPS,40.8931933763,29.3752891012,168.0,0.0,3.0,,1774382192000,0.01,,210603723745605,2.0,0,,,
Fix,GPS,40.8931933763,29.3752891012,168.0,0.0,3.0,,1774382193000,0.02,,210604723902412,3.0,0,,,
Fix,GPS,40.8931933763,29.3752891012,168.0,0.0,3.0,,1774382194000,0.04,,210605732043180,3.0,0,,,
Fix,GPS,40.8931933763,29.3752891012,168.0,0.0,3.0,,1774382195000,0.03,,210606722412064,3.0,0,,,
Fix,GPS,40.8931933763,29.3752891012,168.0,0.0,3.0,,1774382196000,0.02,,210607736649102,3.0,0,,,
Fix,GPS,40.8931933763,29.3752891012,168.0,0.0,3.0,,1774382197000,0.02,,210608725063524,3.0,0,,,
Fix,GPS,40.8931933763,29.3752891012,168.0,0.0,3.0,,1774382198000,0.02,,210609726067831,3.0,0,,,
Fix,GPS,40.8931933763,29.3752891012,168.0,0.0,3.0,,1774382199000,0.01,,210610740074100,3.0,0,,,
Fix,GPS,40.8931933763,29.3752891012,168.0,0.0,3.0,,1774382200000,0.01,,210611711575214,2.0,0,,,
Fix,GPS,40.8931933763,29.3752891012,168.0,0.0,3.0,,1774382201000,0.02,,210612741470752,2.0,0,,,
Fix,GPS,40.8931933763,29.3752891012,168.0,0.0,3.0,,1774382202000,0.01,,210613739931521,3.0,0,,,
Fix,GPS,40.8931933763,29.3752891012,168.0,0.0,3.0,,1774382203000,0.02,,210614724300328,2.0,0,,,
Fix,GPS,40.8931933763,29.3752891012,168.0,0.0,3.0,,1774382204000,0.03,,210615718034750,3.0,0,,,
Fix,GPS,40.8931933763,29.3752891012,168.0,0.0,2.5,,1774382205000,0.03,,210616723931980,2.0,0,,,
Fix,GPS,40.8931933763,29.3752891012,168.0,0.0,3.0,,1774382206000,0.02,,210617734993595,2.0,0,,,
Fix,GPS,40.8931933763,29.3752891012,168.0,0.0,3.0,,1774382207000,0.02,,210618738095325,2.0,0,,,
Fix,GPS,40.8931933763,29.3752891012,168.0,0.0,3.0,,1774382208000,0.02,,210619731522978,2.0,0,,,
Fix,GPS,40.8931933763,29.3752891012,168.0,0.0,3.0,,1774382209000,0.01,,210620735949285,3.0,0,,,
Fix,GPS,40.8931933763,29.3752891012,168.0,0.0,3.0,,1774382210000,0.02,,210621727469976,3.0,0,,,
Fix,GPS,40.8931933763,29.3752891012,168.0,0.0,3.5,,1774382211000,0.01,,210622722539707,3.0,0,,,
Fix,GPS,40.8931933763,29.3752891012,168.0,0.0,3.0,,1774382212000,0.02,,210623734447398,2.0,0,,,
Fix,GPS,40.8931933763,29.3752891012,168.0,0.0,3.5,,1774382213000,0.01,,210624719735628,3.0,0,,,
Fix,GPS,40.8931933763,29.3752891012,168.0,0.0,3.5,,1774382214000,0.01,,210625722858974,3.0,0,,,
Fix,GPS,40.8931933763,29.3752891012,168.0,0.0,3.5,,1774382215000,0.02,,210626725615896,3.0,0,,,
Fix,GPS,40.8931933763,29.3752891012,168.0,0.0,3.0,,1774382216000,0.02,,210627724617318,3.0,0,,,
Fix,GPS,40.8931933763,29.3752891012,168.0,0.0,3.0,,1774382217000,0.02,,210628728072702,3.0,0,,,
Fix,GPS,40.8931933763,29.3752891012,168.0,0.0,3.5,,1774382218000,0.01,,210629736997817,3.0,0,,,
Fix,GPS,40.8931933763,29.3752891012,168.0,0.0,3.5,,1774382219000,0.01,,210630722199432,3.0,0,,,
Fix,GPS,40.8931933763,29.3752891012,168.0,0.0,3.0,,1774382220000,0.01,,210631723404239,3.0,0,,,
Fix,GPS,40.8931933763,29.3752891012,168.0,0.0,3.0,,1774382221000,0.01,,210632736713122,3.0,0,,,
Fix,GPS,40.8931933763,29.3752891012,168.0,0.0,3.0,,1774382222000,0.02,,210633746116545,3.0,0,,,
Fix,GPS,40.8931933763,29.3752891012,168.0,0.0,3.0,,1774382223000,0.01,,210634728205929,3.0,0,,,
Fix,GPS,40.8931933763,29.3752891012,168.0,0.0,3.0,,1774382224000,0.02,,210635725682159,3.0,0,,,
Fix,GPS,40.8931933763,29.3752891012,168.0,0.0,3.5,,1774382225000,0.02,,210636730785735,3.0,0,,,
Fix,GPS,40.8931933763,29.3752891012,168.0,0.0,3.5,,1774382226451,0.02,,210638182834272,3.0,0,,,
Fix,GPS,40.8931933763,29.3752891012,168.0,0.0,3.5,,1774382227464,0.02,,210639196021002,3.0,0,,,
Fix,GPS,40.8931933763,29.3752891012,168.0,0.0,3.5,,1774382228474,0.02,,210640206398694,3.0,0,,,
Fix,GPS,40.8931933763,29.3752891012,168.0,0.0,3.5,,1774382229491,0.02,,210641223582001,3.0,0,,,
Fix,GPS,40.8931933763,29.3752891012,168.0,0.0,3.5,,1774382230501,0.02,,210642234248808,3.0,0,,,
Fix,GPS,40.8931933763,29.3752891012,168.0,0.0,3.5,,1774382231508,0.02,,210643241807846,3.0,0,,,
Fix,GPS,40.8931933763,29.3752891012,168.0,0.0,3.5,,1774382232515,0.02,,210644249499307,3.0,0,,,
Fix,GPS,40.8931933763,29.3752891012,168.0,0.0,3.5,,1774382233533,0.02,,210645268389344,3.0,0,,,
Fix,GPS,40.8931933763,29.3752891012,168.0,0.0,3.5,,1774382234549,0.02,,210646284890305,3.0,0,,,
Fix,GPS,40.8931933763,29.3752891012,168.0,0.0,3.5,,1774382235568,0.02,,210647304440227,3.0,0,,,
Fix,GPS,40.8931933763,29.3752891012,168.0,0.0,3.5,,1774382236579,0.02,,210648316361419,3.0,0,,,
Fix,GPS,40.8931933763,29.3752891012,168.0,0.0,3.5,,1774382237601,0.02,,210649339235841,3.0,0,,,
Fix,GPS,40.8931933763,29.3752891012,168.0,0.0,3.5,,1774382238612,0.02,,210650350901302,3.0,0,,,
Fix,GPS,40.8931933763,29.3752891012,168.0,0.0,3.5,,1774382239626,0.02,,210651365730225,3.0,0,,,
Fix,GPS,40.8931933763,29.3752891012,168.0,0.0,3.5,,1774382240636,0.02,,210652376664955,3.0,0,,,
Fix,GPS,40.8931933763,29.3752891012,168.0,0.0,3.5,,1774382241647,0.02,,210653387740723,3.0,0,,,
Fix,GPS,40.8931933763,29.3752891012,168.0,0.0,3.5,,1774382242656,0.02,,210654397693953,3.0,0,,,
Fix,GPS,40.8931933763,29.3752891012,168.0,0.0,3.5,,1774382243673,0.02,,210655414842645,3.0,0,,,
Fix,GPS,40.8931933763,29.3752891012,168.0,0.0,3.5,,1774382244685,0.02,,210656427652221,3.0,0,,,
Fix,GPS,40.8931933763,29.3752891012,168.0,0.0,3.5,,1774382245702,0.02,,210657444692682,3.0,0,,,
Fix,GPS,40.8931933763,29.3752891012,168.0,0.0,3.5,,1774382246708,0.02,,210658451135450,3.0,0,,,
Fix,GPS,40.8931933763,29.3752891012,168.0,0.0,3.5,,1774382247716,0.02,,210659459249834,3.0,0,,,
Fix,GPS,40.8931933763,29.3752891012,168.0,0.0,3.5,,1774382248727,0.02,,210660471154256,3.0,0,,,
Fix,GPS,40.8931933763,29.3752891012,168.0,0.0,3.5,,1774382249738,0.02,,210661482812640,3.0,0,,,
Fix,GPS,40.8931933763,29.3752891012,168.0,0.0,3.5,,1774382250763,0.02,,210662508176486,3.0,0,,,
Fix,GPS,40.8931933763,29.3752891012,168.0,0.0,3.5,,1774382251776,0.02,,210663521720754,3.0,0,,,
Fix,GPS,40.8931933763,29.3752891012,168.0,0.0,3.5,,1774382252790,0.02,,210664536101638,3.0,0,,,
Fix,GPS,40.8931933763,29.3752891012,168.0,0.0,3.5,,1774382253797,0.02,,210665543769522,3.0,0,,,
Fix,GPS,40.8931933763,29.3752891012,168.0,0.0,3.5,,1774382254809,0.02,,210666555971406,3.0,0,,,
Fix,GPS,40.8931933763,29.3752891012,168.0,0.0,3.5,,1774382255821,0.02,,210667568270059,3.0,0,,,
Fix,GPS,40.8931933763,29.3752891012,168.0,0.0,3.5,,1774382256832,0.02,,210668580139020,3.0,0,,,
Fix,GPS,40.8931933763,29.3752891012,168.0,0.0,3.5,,1774382257849,0.02,,210669597602211,3.0,0,,,
Fix,GPS,40.8931933763,29.3752891012,168.0,0.0,3.5,,1774382258873,0.02,,210670622585134,3.0,0,,,
Fix,GPS,40.8931933763,29.3752891012,168.0,0.0,3.5,,1774382259892,0.02,,210671642209672,3.0,0,,,
Fix,GPS,40.8931933763,29.3752891012,168.0,0.0,3.5,,1774382260908,0.02,,210672659185094,3.0,0,,,
Fix,GPS,40.8931933763,29.3752891012,168.0,0.0,3.5,,1774382261918,0.02,,210673669549901,3.0,0,,,
Fix,GPS,40.8931933763,29.3752891012,168.0,0.0,3.5,,1774382262944,0.02,,210674696104400,3.0,0,,,
Fix,GPS,40.8931933763,29.3752891012,168.0,0.0,3.5,,1774382263963,0.02,,210675715625361,3.0,0,,,
Fix,GPS,40.8931933763,29.3752891012,168.0,0.0,3.5,,1774382264981,0.02,,210676734215899,3.0,0,,,
Fix,GPS,40.8931933763,29.3752891012,168.0,0.0,3.5,,1774382265999,0.02,,210677752642321,3.0,0,,,
Fix,GPS,40.8931933763,29.3752891012,168.0,0.0,3.5,,1774382267010,0.02,,210678764118128,3.0,0,,,
Fix,GPS,40.8931933763,29.3752891012,168.0,0.0,3.5,,1774382268026,0.02,,210679780248550,3.0,0,,,
Fix,GPS,40.8931933763,29.3752891012,168.0,0.0,3.5,,1774382269044,0.02,,210680799770819,3.0,0,,,
Fix,GPS,40.8931933763,29.3752891012,168.0,0.0,3.5,,1774382270057,0.02,,210681812926395,3.0,0,,,
Fix,GPS,40.8931933763,29.3752891012,168.0,0.0,3.5,,1774382271070,0.02,,210682826540087,3.0,0,,,
Fix,GPS,40.8931933763,29.3752891012,168.0,0.0,3.5,,1774382272080,0.02,,210683837456047,3.0,0,,,
Fix,GPS,40.8931933763,29.3752891012,168.0,0.0,3.5,,1774382273094,0.02,,210684851526393,3.0,0,,,
Fix,GPS,40.8931933763,29.3752891012,168.0,0.0,3.5,,1774382274109,0.02,,210685866876623,3.0,0,,,
Fix,GPS,40.8931933763,29.3752891012,168.0,0.0,3.5,,1774382275128,0.02,,210686886605699,3.0,0,,,
Fix,GPS,40.8931933763,29.3752891012,168.0,0.0,3.5,,1774382276143,0.02,,210687902154391,3.0,0,,,
Fix,GPS,40.8931933763,29.3752891012,168.0,0.0,3.5,,1774382277157,0.02,,210688917170775,3.0,0,,,
Fix,GPS,40.8931933763,29.3752891012,168.0,0.0,3.5,,1774382278180,0.02,,210689941061005,3.0,0,,,
Fix,GPS,40.8931933763,29.3752891012,168.0,0.0,3.5,,1774382279197,0.02,,210690958822235,3.0,0,,,
Fix,GPS,40.8931933763,29.3752891012,168.0,0.0,3.5,,1774382280209,0.02,,210691971405695,3.0,0,,,
Fix,GPS,40.8931933763,29.3752891012,168.0,0.0,3.5,,1774382281230,0.02,,210692992611887,3.0,0,,,
Fix,GPS,40.8931933763,29.3752891012,168.0,0.0,3.5,,1774382282245,0.02,,210694008013463,3.0,0,,,
Fix,GPS,40.8931933763,29.3752891012,168.0,0.0,3.5,,1774382283256,0.02,,210695019986693,3.0,0,,,
Fix,GPS,40.8931933763,29.3752891012,168.0,0.0,3.5,,1774382284268,0.02,,210696032273808,3.0,0,,,
Fix,GPS,40.8931933763,29.3752891012,168.0,0.0,3.5,,1774382285283,0.02,,210697047959884,3.0,0,,,
Fix,GPS,40.8931933763,29.3752891012,168.0,0.0,3.5,,1774382286293,0.02,,210698058608499,3.0,0,,,
Fix,GPS,40.8931933763,29.3752891012,168.0,0.0,3.5,,1774382287325,0.02,,210699090779460,3.0,0,,,
Fix,GPS,40.8931933763,29.3752891012,168.0,0.0,3.5,,1774382288335,0.02,,210700101711036,3.0,0,,,
Fix,GPS,40.8931933763,29.3752891012,168.0,0.0,3.5,,1774382289346,0.02,,210701112886189,3.0,0,,,
Fix,GPS,40.8931933763,29.3752891012,168.0,0.0,3.5,,1774382290359,0.02,,210702126887188,3.0,0,,,
Fix,GPS,40.8931933763,29.3752891012,168.0,0.0,3.5,,1774382291369,0.02,,210703136899687,3.0,0,,,
Fix,GPS,40.8931933763,29.3752891012,168.0,0.0,3.5,,1774382292384,0.02,,210704152313148,3.0,0,,,
Fix,GPS,40.8931933763,29.3752891012,168.0,0.0,3.5,,1774382293395,0.02,,210705164287686,3.0,0,,,
Fix,GPS,40.8931933763,29.3752891012,168.0,0.0,3.5,,1774382294404,0.02,,210706173849839,3.0,0,,,
Fix,GPS,40.8931933763,29.3752891012,168.0,0.0,3.5,,1774382295411,0.02,,210707180943569,3.0,0,,,
Fix,GPS,40.8931933763,29.3752891012,168.0,0.0,3.5,,1774382296423,0.02,,210708193767953,3.0,0,,,
Fix,GPS,40.8931933763,29.3752891012,168.0,0.0,3.5,,1774382297437,0.02,,210709208151837,3.0,0,,,
Fix,GPS,40.8931933763,29.3752891012,168.0,0.0,3.5,,1774382298451,0.02,,210710222607836,3.0,0,,,
Fix,GPS,40.8931933763,29.3752891012,168.0,0.0,3.5,,1774382299473,0.02,,210711244968566,3.0,0,,,
Fix,GPS,40.8931933763,29.3752891012,168.0,0.0,3.5,,1774382300489,0.02,,210712260984450,3.0,0,,,
Fix,GPS,40.8931933763,29.3752891012,168.0,0.0,3.5,,1774382301502,0.02,,210713274256526,3.0,0,,,
Fix,GPS,40.8931933763,29.3752891012,168.0,0.0,3.5,,1774382302514,0.02,,210714286496526,3.0,0,,,
Fix,GPS,40.8931933763,29.3752891012,168.0,0.0,3.5,,1774382303526,0.02,,210715299272025,3.0,0,,,
Fix,GPS,40.8931933763,29.3752891012,168.0,0.0,3.5,,1774382304540,0.02,,210716314039678,3.0,0,,,
Fix,GPS,40.8931933763,29.3752891012,168.0,0.0,3.5,,1774382305553,0.02,,210717327596754,3.0,0,,,
Fix,GPS,40.8931933763,29.3752891012,168.0,0.0,3.5,,1774382306567,0.02,,210718341793215,3.0,0,,,
Fix,GPS,40.8931933763,29.3752891012,168.0,0.0,3.5,,1774382307581,0.02,,210719355817637,3.0,0,,,
Fix,GPS,40.8931933763,29.3752891012,168.0,0.0,3.5,,1774382308597,0.02,,210720371954444,3.0,0,,,
Fix,GPS,40.8931933763,29.3752891012,168.0,0.0,3.5,,1774382309612,0.02,,210721387866251,3.0,0,,,
Fix,GPS,40.8931933763,29.3752891012,168.0,0.0,3.5,,1774382310625,0.02,,210722401500481,3.0,0,,,
Fix,GPS,40.8931933763,29.3752891012,168.0,0.0,3.5,,1774382311640,0.02,,210723417042404,3.0,0,,,
Fix,GPS,40.8931933763,29.3752891012,168.0,0.0,3.5,,1774382312659,0.02,,210724436370172,3.0,0,,,
Fix,GPS,40.8931933763,29.3752891012,168.0,0.0,3.5,,1774382313666,0.02,,210725443433595,3.0,0,,,
Fix,GPS,40.8931933763,29.3752891012,168.0,0.0,3.5,,1774382314670,0.02,,210726447517786,3.0,0,,,
Fix,GPS,40.8931933763,29.3752891012,168.0,0.0,3.5,,1774382315682,0.02,,210727459664632,3.0,0,,,
Fix,GPS,40.8931933763,29.3752891012,168.0,0.0,3.5,,1774382316692,0.02,,210728470675246,3.0,0,,,
Fix,GPS,40.8931933763,29.3752891012,168.0,0.0,3.5,,1774382317708,0.02,,210729487476592,3.0,0,,,
Fix,GPS,40.8931933763,29.3752891012,168.0,0.0,3.5,,1774382318722,0.02,,210730501688745,3.0,0,,,
Fix,GPS,40.8931933763,29.3752891012,168.0,0.0,3.5,,1774382319732,0.02,,210731512275090,3.0,0,,,
Fix,GPS,40.8931933763,29.3752891012,168.0,0.0,3.5,,1774382320741,0.02,,210732522193590,3.0,0,,,
Fix,GPS,40.8931933763,29.3752891012,168.0,0.0,3.5,,1774382321753,0.02,,210733534293627,3.0,0,,,
Fix,GPS,40.8931933763,29.3752891012,168.0,0.0,3.5,,1774382322761,0.02,,210734543126396,3.0,0,,,
Fix,GPS,40.8931933763,29.3752891012,168.0,0.0,3.5,,1774382323782,0.02,,210735564989972,3.0,0,,,
Fix,GPS,40.8931933763,29.3752891012,168.0,0.0,3.5,,1774382324794,0.02,,210736577015779,3.0,0,,,
Fix,GPS,40.8931933763,29.3752891012,168.0,0.0,3.5,,1774382325805,0.02,,210737588346394,3.0,0,,,
Fix,GPS,40.8931933763,29.3752891012,168.0,0.0,3.5,,1774382326815,0.02,,210738599109893,3.0,0,,,
Fix,GPS,40.8931933763,29.3752891012,168.0,0.0,3.5,,1774382327827,0.02,,210739611310931,3.0,0,,,
Fix,GPS,40.8931933763,29.3752891012,168.0,0.0,3.5,,1774382328843,0.02,,210740627715891,3.0,0,,,
Fix,GPS,40.8931933763,29.3752891012,168.0,0.0,3.5,,1774382329854,0.02,,210741639469814,3.0,0,,,
Fix,GPS,40.8931933763,29.3752891012,168.0,0.0,3.5,,1774382330864,0.02,,210742649953621,3.0,0,,,
Fix,GPS,40.8931933763,29.3752891012,168.0,0.0,3.5,,1774382331876,0.02,,210743662570505,3.0,0,,,
Fix,GPS,40.8931933763,29.3752891012,168.0,0.0,3.5,,1774382332887,0.02,,210744674434735,3.0,0,,,
Fix,GPS,40.8931933763,29.3752891012,168.0,0.0,3.5,,1774382333904,0.02,,210745691568619,3.0,0,,,
Fix,GPS,40.8931933763,29.3752891012,168.0,0.0,3.5,,1774382334916,0.02,,210746703904195,3.0,0,,,
Fix,GPS,40.8931933763,29.3752891012,168.0,0.0,3.5,,1774382335928,0.02,,210747716648079,3.0,0,,,
Fix,GPS,40.8931933763,29.3752891012,168.0,0.0,3.5,,1774382336939,0.02,,210748730707655,3.0,0,,,
Fix,GPS,40.8931933763,29.3752891012,168.0,0.0,3.5,,1774382337951,0.02,,210749743466808,3.0,0,,,
Fix,GPS,40.8931933763,29.3752891012,168.0,0.0,3.5,,1774382338961,0.02,,210750754310923,3.0,0,,,
Fix,GPS,40.8931933763,29.3752891012,168.0,0.0,3.5,,1774382339977,0.02,,210751770873191,3.0,0,,,
Fix,GPS,40.8931933763,29.3752891012,168.0,0.0,3.5,,1774382340992,0.02,,210752786196614,3.0,0,,,
Fix,GPS,40.8931933763,29.3752891012,168.0,0.0,3.5,,1774382342006,0.02,,210753800521844,3.0,0,,,
Fix,GPS,40.8931933763,29.3752891012,168.0,0.0,3.5,,1774382343021,0.02,,210754816320881,3.0,0,,,
Fix,GPS,40.8931933763,29.3752891012,168.0,0.0,3.5,,1774382344039,0.02,,210755834418265,3.0,0,,,
Fix,GPS,40.8931933763,29.3752891012,168.0,0.0,3.5,,1774382345053,0.02,,210756849385380,3.0,0,,,
Fix,GPS,40.8931933763,29.3752891012,168.0,0.0,3.5,,1774382346070,0.02,,210757867197418,3.0,0,,,
Fix,GPS,40.8931933763,29.3752891012,168.0,0.0,3.5,,1774382347085,0.02,,210758882554148,3.0,0,,,
Fix,GPS,40.8931933763,29.3752891012,168.0,0.0,3.5,,1774382348104,0.02,,210759901681608,3.0,0,,,
Fix,GPS,40.8931933763,29.3752891012,168.0,0.0,3.5,,1774382349118,0.02,,210760915836338,3.0,0,,,
Fix,GPS,40.8931933763,29.3752891012,168.0,0.0,3.5,,1774382350135,0.02,,210761933187915,3.0,0,,,
Fix,GPS,40.8931933763,29.3752891012,168.0,0.0,3.5,,1774382351143,0.02,,210762941815760,3.0,0,,,
Fix,GPS,40.8931933763,29.3752891012,168.0,0.0,3.5,,1774382352156,0.02,,210763955137029,3.0,0,,,
Fix,GPS,40.8931933763,29.3752891012,168.0,0.0,3.5,,1774382353171,0.02,,210764970238682,3.0,0,,,
Fix,GPS,40.8931933763,29.3752891012,168.0,0.0,3.5,,1774382354187,0.02,,210765986841643,3.0,0,,,
Fix,GPS,40.8931933763,29.3752891012,168.0,0.0,3.5,,1774382355199,0.02,,210766999267450,3.0,0,,,
Fix,GPS,40.8931933763,29.3752891012,168.0,0.0,3.5,,1774382356212,0.02,,210768012809718,3.0,0,,,
Fix,GPS,40.8931933763,29.3752891012,168.0,0.0,3.5,,1774382357224,0.02,,210769025505871,3.0,0,,,
Fix,GPS,40.8931933763,29.3752891012,168.0,0.0,3.5,,1774382358239,0.02,,210770041152832,3.0,0,,,
Fix,GPS,40.8931933763,29.3752891012,168.0,0.0,3.5,,1774382359250,0.02,,210771052258524,3.0,0,,,
Fix,GPS,40.8931933763,29.3752891012,168.0,0.0,3.5,,1774382360260,0.02,,210772063214715,3.0,0,,,
Fix,GPS,40.8931933763,29.3752891012,168.0,0.0,3.5,,1774382361271,0.02,,210773074700214,3.0,0,,,
Fix,GPS,40.8931933763,29.3752891012,168.0,0.0,3.5,,1774382362289,0.02,,210774092742983,3.0,0,,,
Fix,GPS,40.8931933763,29.3752891012,168.0,0.0,3.5,,1774382363302,0.02,,210775106363751,3.0,0,,,
Fix,GPS,40.8931933763,29.3752891012,168.0,0.0,3.5,,1774382364320,0.02,,210776125147212,3.0,0,,,
Fix,GPS,40.8931933763,29.3752891012,168.0,0.0,3.5,,1774382365335,0.02,,210777140717250,3.0,0,,,
Fix,GPS,40.8931933763,29.3752891012,168.0,0.0,3.5,,1774382366346,0.02,,210778152515172,3.0,0,,,
Fix,GPS,40.8931933763,29.3752891012,168.0,0.0,3.5,,1774382367363,0.02,,210779169898133,3.0,0,,,
Fix,GPS,40.8931933763,29.3752891012,168.0,0.0,3.5,,1774382368375,0.02,,210780182604171,3.0,0,,,
Fix,GPS,40.8931933763,29.3752891012,168.0,0.0,3.5,,1774382369393,0.02,,210781201003824,3.0,0,,,
Fix,GPS,40.8931933763,29.3752891012,168.0,0.0,3.5,,1774382370410,0.02,,210782218725862,3.0,0,,,
Fix,GPS,40.8931933763,29.3752891012,168.0,0.0,3.5,,1774382371418,0.02,,210783227646823,3.0,0,,,
Fix,GPS,40.8931933763,29.3752891012,168.0,0.0,3.5,,1774382372436,0.02,,210784245822976,3.0,0,,,
Fix,GPS,40.8931933763,29.3752891012,168.0,0.0,3.5,,1774382373448,0.02,,210785258266629,3.0,0,,,
Fix,GPS,40.8931933763,29.3752891012,168.0,0.0,3.5,,1774382374461,0.02,,210786271921513,3.0,0,,,
Fix,GPS,40.8931933763,29.3752891012,168.0,0.0,3.5,,1774382375473,0.02,,210787284299704,3.0,0,,,
Fix,GPS,40.8931933763,29.3752891012,168.0,0.0,3.5,,1774382376491,0.02,,210788303161896,3.0,0,,,
Fix,GPS,40.8931933763,29.3752891012,168.0,0.0,3.5,,1774382377504,0.02,,210789316701318,3.0,0,,,
Fix,GPS,40.8931933763,29.3752891012,168.0,0.0,3.5,,1774382378521,0.02,,210790333862087,3.0,0,,,
Fix,GPS,40.8931933763,29.3752891012,168.0,0.0,3.5,,1774382379533,0.02,,210791346695547,3.0,0,,,
Fix,GPS,40.8931933763,29.3752891012,168.0,0.0,3.5,,1774382380543,0.02,,210792357510778,3.0,0,,,
Fix,GPS,40.8931933763,29.3752891012,168.0,0.0,3.5,,1774382381560,0.02,,210793375389354,3.0,0,,,
Fix,GPS,40.8931933763,29.3752891012,168.0,0.0,3.5,,1774382382567,0.02,,210794382488622,3.0,0,,,
Fix,GPS,40.8931933763,29.3752891012,168.0,0.0,3.5,,1774382383575,0.02,,210795391502698,3.0,0,,,
Fix,GPS,40.8931933763,29.3752891012,168.0,0.0,3.5,,1774382384588,0.02,,210796404651198,3.0,0,,,
Fix,GPS,40.8931933763,29.3752891012,168.0,0.0,3.5,,1774382385601,0.02,,210797418601697,3.0,0,,,
Fix,GPS,40.8931933763,29.3752891012,168.0,0.0,3.5,,1774382386617,0.02,,210798434901004,3.0,0,,,
Fix,GPS,40.8931933763,29.3752891012,168.0,0.0,3.5,,1774382387628,0.02,,210799446507734,3.0,0,,,
Fix,GPS,40.8931933763,29.3752891012,168.0,0.0,3.5,,1774382388639,0.02,,210800458176426,3.0,0,,,
Fix,GPS,40.8931933763,29.3752891012,168.0,0.0,3.5,,1774382389652,0.02,,210801472009117,3.0,0,,,
Fix,GPS,40.8931933763,29.3752891012,168.0,0.0,3.5,,1774382390667,0.02,,210802488007693,3.0,0,,,
Fix,GPS,40.8931933763,29.3752891012,168.0,0.0,3.5,,1774382391679,0.02,,210803500768923,3.0,0,,,
Fix,GPS,40.8931933763,29.3752891012,168.0,0.0,3.5,,1774382392691,0.02,,210804513490384,3.0,0,,,
Fix,GPS,40.8931933763,29.3752891012,168.0,0.0,3.5,,1774382393705,0.02,,210805528422345,3.0,0,,,
Fix,GPS,40.8931933763,29.3752891012,168.0,0.0,3.5,,1774382394723,0.02,,210806546832575,3.0,0,,,
Fix,GPS,40.8931933763,29.3752891012,168.0,0.0,3.5,,1774382395732,0.02,,210807555870574,3.0,0,,,
Fix,GPS,40.8931933763,29.3752891012,168.0,0.0,3.5,,1774382396749,0.02,,210808572947881,3.0,0,,,
Fix,GPS,40.8931933763,29.3752891012,168.0,0.0,3.5,,1774382397766,0.02,,210809590518496,3.0,0,,,
Fix,GPS,40.8931933763,29.3752891012,168.0,0.0,3.5,,1774382398774,0.02,,210810599045803,3.0,0,,,
Fix,GPS,40.8931933763,29.3752891012,168.0,0.0,3.5,,1774382399780,0.02,,210811605910533,3.0,0,,,
Fix,GPS,40.8931933763,29.3752891012,168.0,0.0,3.5,,1774382400784,0.02,,210812610394071,3.0,0,,,
Fix,GPS,40.8931933763,29.3752891012,168.0,0.0,3.5,,1774382401797,0.02,,210813623661993,3.0,0,,,
Fix,GPS,40.8931933763,29.3752891012,168.0,0.0,3.5,,1774382402818,0.02,,210814645558377,3.0,0,,,
Fix,GPS,40.8931933763,29.3752891012,168.0,0.0,3.5,,1774382403823,0.02,,210815651272953,3.0,0,,,
Fix,GPS,40.8931933763,29.3752891012,168.0,0.0,3.5,,1774382404833,0.02,,210816661589799,3.0,0,,,
Fix,GPS,40.8931933763,29.3752891012,168.0,0.0,3.5,,1774382405843,0.02,,210817672262644,3.0,0,,,
Fix,GPS,40.8931933763,29.3752891012,168.0,0.0,3.5,,1774382406851,0.02,,210818680776720,3.0,0,,,
Fix,GPS,40.8931933763,29.3752891012,168.0,0.0,3.5,,1774382407859,0.02,,210819689297335,3.0,0,,,
Fix,GPS,40.8931933763,29.3752891012,168.0,0.0,3.5,,1774382408867,0.02,,210820698049257,3.0,0,,,
Fix,GPS,40.8931933763,29.3752891012,168.0,0.0,3.5,,1774382409877,0.02,,210821708132410,3.0,0,,,
Fix,GPS,40.8931933763,29.3752891012,168.0,0.0,3.5,,1774382410882,0.02,,210822713991756,3.0,0,,,
Fix,GPS,40.8931933763,29.3752891012,168.0,0.0,3.5,,1774382411895,0.02,,210823727819524,3.0,0,,,
Fix,GPS,40.8931933763,29.3752891012,168.0,0.0,3.5,,1774382412910,0.02,,210824743254908,3.0,0,,,
Fix,GPS,40.8931933763,29.3752891012,168.0,0.0,3.5,,1774382413920,0.02,,210825753927331,3.0,0,,,
Fix,GPS,40.8931933763,29.3752891012,168.0,0.0,3.5,,1774382414925,0.02,,210826759328022,3.0,0,,,
Fix,GPS,40.8931933763,29.3752891012,168.0,0.0,3.5,,1774382415932,0.02,,210827766566752,3.0,0,,,
Fix,GPS,40.8931933763,29.3752891012,168.0,0.0,3.5,,1774382416941,0.02,,210828776575405,3.0,0,,,
Fix,GPS,40.8931933763,29.3752891012,168.0,0.0,3.5,,1774382417954,0.02,,210829790534058,3.0,0,,,
Fix,GPS,40.8931933763,29.3752891012,168.0,0.0,3.5,,1774382418967,0.02,,210830803654635,3.0,0,,,
Fix,GPS,40.8931933763,29.3752891012,168.0,0.0,3.5,,1774382419981,0.02,,210831818533519,3.0,0,,,
Fix,GPS,40.8931933763,29.3752891012,168.0,0.0,3.5,,1774382421003,0.02,,210832840722172,3.0,0,,,
Fix,GPS,40.8931933763,29.3752891012,168.0,0.0,3.5,,1774382422017,0.02,,210833855567171,3.0,0,,,
Fix,GPS,40.8931933763,29.3752891012,168.0,0.0,3.5,,1774382423028,0.02,,210834866614786,3.0,0,,,
Fix,GPS,40.8931933763,29.3752891012,168.0,0.0,3.5,,1774382424042,0.02,,210835881020669,3.0,0,,,
Fix,GPS,40.8931933763,29.3752891012,168.0,0.0,3.5,,1774382425058,0.02,,210836897599361,3.0,0,,,
Fix,GPS,40.8931933763,29.3752891012,168.0,0.0,3.5,,1774382426075,0.02,,210837915244514,3.0,0,,,
Fix,GPS,40.8931933763,29.3752891012,168.0,0.0,3.5,,1774382427088,0.02,,210838928485206,3.0,0,,,
Fix,GPS,40.8931933763,29.3752891012,168.0,0.0,3.5,,1774382428105,0.02,,210839945752243,3.0,0,,,
Fix,GPS,40.8931933763,29.3752891012,168.0,0.0,3.5,,1774382429117,0.02,,210840958077320,3.0,0,,,
Fix,GPS,40.8931933763,29.3752891012,168.0,0.0,3.5,,1774382430129,0.02,,210841970903819,3.0,0,,,
Fix,GPS,40.8931933763,29.3752891012,168.0,0.0,3.5,,1774382431140,0.02,,210842982872280,3.0,0,,,
Fix,GPS,40.8931933763,29.3752891012,168.0,0.0,3.5,,1774382432151,0.02,,210843994192971,3.0,0,,,
Fix,GPS,40.8931933763,29.3752891012,168.0,0.0,3.5,,1774382433166,0.02,,210845010121163,3.0,0,,,
Fix,GPS,40.8931933763,29.3752891012,168.0,0.0,3.5,,1774382434184,0.02,,210846029069855,3.0,0,,,
Fix,GPS,40.8931933763,29.3752891012,168.0,0.0,3.5,,1774382435195,0.02,,210847040155700,3.0,0,,,
Fix,GPS,40.8931933763,29.3752891012,168.0,0.0,3.5,,1774382436222,0.02,,210848067440315,3.0,0,,,
Fix,GPS,40.8931933763,29.3752891012,168.0,0.0,3.5,,1774382437230,0.02,,210849076116237,3.0,0,,,
Fix,GPS,40.8931933763,29.3752891012,168.0,0.0,3.5,,1774382438259,0.02,,210850105838044,3.0,0,,,
Fix,GPS,40.8931933763,29.3752891012,168.0,0.0,3.5,,1774382439283,0.02,,210851129940812,3.0,0,,,
Fix,GPS,40.8931933763,29.3752891012,168.0,0.0,3.5,,1774382440292,0.02,,210852139007696,3.0,0,,,
Fix,GPS,40.8931933763,29.3752891012,168.0,0.0,3.5,,1774382441309,0.02,,210853156919003,3.0,0,,,
Fix,GPS,40.8931933763,29.3752891012,168.0,0.0,3.5,,1774382442332,0.02,,210854179934310,3.0,0,,,
Fix,GPS,40.8931933763,29.3752891012,168.0,0.0,3.5,,1774382443346,0.02,,210855194327771,3.0,0,,,
Fix,GPS,40.8931933763,29.3752891012,168.0,0.0,3.5,,1774382444360,0.02,,210856208498232,3.0,0,,,
Fix,GPS,40.8931933763,29.3752891012,168.0,0.0,3.5,,1774382445367,0.02,,210857216097347,3.0,0,,,
Fix,GPS,40.8931933763,29.3752891012,168.0,0.0,3.5,,1774382446385,0.02,,210858234942346,3.0,0,,,
Fix,GPS,40.8931933763,29.3752891012,168.0,0.0,3.5,,1774382447402,0.02,,210859252052884,3.0,0,,,
Fix,GPS,40.8931933763,29.3752891012,168.0,0.0,3.5,,1774382448412,0.02,,210860262153229,3.0,0,,,
Fix,GPS,40.8931933763,29.3752891012,168.0,0.0,3.5,,1774382449425,0.02,,210861275467113,3.0,0,,,
Fix,GPS,40.8931933763,29.3752891012,168.0,0.0,3.5,,1774382450444,0.02,,210862295048881,3.0,0,,,
Fix,GPS,40.8931933763,29.3752891012,168.0,0.0,3.5,,1774382451462,0.02,,210863313690765,3.0,0,,,
Fix,GPS,40.8931933763,29.3752891012,168.0,0.0,3.5,,1774382452471,0.02,,210864322913418,3.0,0,,,
Fix,GPS,40.8931933763,29.3752891012,168.0,0.0,3.5,,1774382453480,0.02,,210865332685687,3.0,0,,,
Fix,GPS,40.8931933763,29.3752891012,168.0,0.0,3.5,,1774382454494,0.02,,210866347054994,3.0,0,,,
Fix,GPS,40.8931933763,29.3752891012,168.0,0.0,3.5,,1774382455514,0.02,,210867367534301,3.0,0,,,
Fix,GPS,40.8931933763,29.3752891012,168.0,0.0,3.5,,1774382456522,0.02,,210868375685569,3.0,0,,,
Fix,GPS,40.8931933763,29.3752891012,168.0,0.0,3.5,,1774382457533,0.02,,210869387237453,3.0,0,,,
Fix,GPS,40.8931933763,29.3752891012,168.0,0.0,3.5,,1774382458543,0.02,,210870397652876,3.0,0,,,
