Fix,GPS,40.8931373851,29.3752898555,171.0,0.0,4.0,,1774983517000,0.01,,34550621319020,4.0,0,,,
Fix,GPS,40.8931373851,29.3752898555,171.0,0.0,4.0,,1774983518000,0.02,,34551627861673,4.0,0,,,
Fix,GPS,40.8931373851,29.3752898555,171.0,0.0,4.0,,1774983519000,0.03,,34552620633557,4.0,0,,,
Fix,GPS,40.8931373851,29.3752898555,171.0,0.0,4.0,,1774983520000,0.02,,34553619432364,4.0,0,,,
Fix,GPS,40.8931373851,29.3752898555,171.0,0.0,4.0,,1774983521000,0.03,,34554634645479,4.0,0,,,
Fix,GPS,40.8931373851,29.3752898555,171.0,0.0,4.0,,1774983522000,0.02,,34555621693170,4.0,0,,,
Fix,GPS,40.8931373851,29.3752898555,171.0,0.0,4.0,,1774983523000,0.03,,34556631083746,4.0,0,,,
Fix,GPS,40.8931373851,29.3752898555,171.0,0.0,4.0,,1774983524000,0.04,,34557633847169,4.0,0,,,
Fix,GPS,40.8931373851,29.3752898555,171.0,0.0,4.0,,1774983525000,0.05,,34558630283591,4.0,0,,,
Fix,GPS,40.8931373851,29.3752898555,171.0,0.0,4.0,,1774983526000,0.02,,34559637978552,4.0,0,,,
Fix,GPS,40.8931373851,29.3752898555,171.0,0.0,4.0,,1774983527000,0.01,,34560631706551,4.0,0,,,
Fix,GPS,40.8931373851,29.3752898555,171.0,0.0,4.0,,1774983528000,0.02,,34561632510589,4.0,0,,,
Fix,GPS,40.8931373851,29.3752898555,171.0,0.0,4.0,,1774983529000,0.01,,34562625395358,4.0,0,,,
Fix,GPS,40.8931373851,29.3752898555,171.0,0.0,4.0,,1774983530000,0.06,,34563633577088,4.0,0,,,
Fix,GPS,40.8931555320,29.3753050268,171.0,0.17999999,3.5,109.0,1774983531000,0.18,30.5,34564627111664,4.0,0,,,
Fix,GPS,40.8931518020,29.3753196951,172.0,0.65999997,3.5,140.3,1774983532000,0.29,12.4,34565642595240,4.0,0,,,
Fix,GPS,40.8931543166,29.3753276579,172.0,0.88,3.5,127.1,1774983533000,0.26,7.3,34566623029932,3.0,0,,,
Fix,GPS,40.8931495389,29.3753308430,173.0,0.7,3.0,138.4,1774983534000,0.25,26.3,34567623358392,3.0,0,,,
Fix,GPS,40.8931463119,29.3753362913,173.0,0.93,3.0,138.4,1774983535000,0.26,50.8,34568622258469,3.0,0,,,
Fix,GPS,40.8931411989,29.3753408175,173.0,0.76,3.0,133.0,1774983536000,0.48,21.2,34569641919006,3.0,0,,,
Fix,GPS,40.8931403188,29.3753417395,172.0,0.68,3.0,131.2,1774983537000,0.22,28.9,34570635645660,3.0,0,,,
Fix,GPS,40.8931322303,29.3753482774,171.0,0.88,3.0,131.2,1774983538000,0.18,37.0,34571626569236,3.0,0,,,
Fix,GPS,40.8931286680,29.3753541447,170.0,0.32999998,2.5,131.2,1774983539000,0.35,45.7,34572640071312,3.0,0,,,
Fix,GPS,40.8931267401,29.3753590062,170.0,0.41,3.0,131.2,1774983540000,1.01,54.8,34573640038888,3.0,0,,,
Fix,GPS,40.8931251056,29.3753668852,169.0,0.64,3.0,131.2,1774983541000,0.29,64.4,34574627511157,3.0,0,,,
Fix,GPS,40.8931203280,29.3753706571,169.0,0.68,3.0,131.2,1774983542000,0.41,74.3,34575629524002,2.0,0,,,
Fix,GPS,40.8931160113,29.3753755186,169.0,0.72999996,3.0,144.1,1774983543000,0.17,5.9,34576640303540,2.0,0,,,
Fix,GPS,40.8931117784,29.3753826432,169.0,0.98999995,3.0,141.9,1774983544000,0.21,4.7,34577629915270,2.0,0,,,
Fix,GPS,40.8931051567,29.3753878400,169.0,1.1999999,3.0,144.5,1774983545000,0.44,7.4,34578641491231,2.0,0,,,
Fix,GPS,40.8930954756,29.3753996585,169.0,1.12,2.5,135.0,1774983546000,0.29,5.7,34579637063692,2.0,0,,,
Fix,GPS,40.8930908237,29.3754040170,169.0,0.90999997,2.5,136.4,1774983547000,0.24,5.4,34580636911037,2.0,0,,,
Fix,GPS,40.8930836571,29.3754089624,170.0,0.96,2.5,137.0,1774983548000,0.18,4.0,34581628142536,2.0,0,,,
Fix,GPS,40.8930747723,29.3754175119,169.0,1.03,2.5,132.4,1774983549000,0.17,3.4,34582644500920,2.0,0,,,
Fix,GPS,40.8930673124,29.3754246365,168.0,1.24,2.5,136.8,1774983550000,0.2,3.6,34583611239150,2.0,0,,,
Fix,GPS,40.8930585952,29.3754366226,168.0,1.1,2.5,141.6,1774983551000,0.18,3.5,34584625804380,2.0,0,,,
Fix,GPS,40.8930494171,29.3754428253,168.0,0.91999996,2.5,139.2,1774983552000,0.28,5.3,34585615010495,2.0,0,,,
Fix,GPS,40.8930406161,29.3754511233,167.0,1.04,2.5,137.3,1774983553000,0.16,3.4,34586627463610,2.0,0,,,
Fix,GPS,40.8930347068,29.3754626904,166.0,0.91999996,3.0,131.7,1774983554000,0.25,5.2,34587626815109,2.0,0,,,
Fix,GPS,40.8930272469,29.3754719105,166.0,0.90999997,2.5,144.1,1774983555000,0.28,6.0,34588627226916,2.0,0,,,
Fix,GPS,40.8930191165,29.3754755985,166.0,0.89,3.0,150.1,1774983556000,0.3,6.4,34589625018915,2.0,0,,,
Fix,GPS,40.8930137940,29.3754771072,166.0,0.59,3.0,154.5,1774983557000,0.54,9.9,34590613795453,2.0,0,,,
Fix,GPS,40.8930063760,29.3754802085,166.0,0.95,2.5,156.8,1774983558000,0.28,6.6,34591641638568,2.0,0,,,
Fix,GPS,40.8929990837,29.3754879199,166.0,1.02,3.0,158.5,1774983559000,0.15,3.3,34592617123336,2.0,0,,,
Fix,GPS,40.8929908695,29.3754973076,166.0,0.79999995,2.5,161.2,1774983560000,0.24,5.0,34593627319451,2.0,0,,,
Fix,GPS,40.8929852117,29.3755011633,167.0,0.97999996,2.5,167.9,1774983561000,0.14,2.8,34594629566681,2.0,0,,,
Fix,GPS,40.8929778356,29.3755014148,167.0,1.1899999,3.0,175.0,1774983562000,0.21,3.4,34595627255834,2.0,0,,,
Fix,GPS,40.8929671487,29.3754978944,168.0,1.43,3.0,178.1,1774983563000,0.28,3.9,34596626121026,3.0,0,,,
Fix,GPS,40.8929575095,29.3755005766,168.0,0.93,3.0,176.0,1774983564000,0.25,5.3,34597640428602,2.0,0,,,
Fix,GPS,40.8929539891,29.3755043484,167.0,0.87,2.5,166.2,1774983565000,0.21,5.2,34598625875370,2.0,0,,,
Fix,GPS,40.8929473674,29.3755075336,167.0,0.91999996,2.5,160.8,1774983566000,0.33,6.5,34599620898793,2.0,0,,,
Fix,GPS,40.8929393627,29.3755121436,166.0,1.03,2.5,163.0,1774983567000,0.33,6.4,34600631411177,3.0,0,,,
Fix,GPS,40.8929251134,29.3755117245,165.0,0.96,3.0,165.3,1774983568000,0.17,4.3,34601634104791,3.0,0,,,
Fix,GPS,40.8929133369,29.3755201902,165.0,1.11,2.5,161.6,1774983569000,0.19,3.4,34602628218944,2.0,0,,,
Fix,GPS,40.8929053321,29.3755243812,166.0,1.22,3.0,159.9,1774983570000,0.19,3.5,34603629917405,3.0,0,,,
Fix,GPS,40.8928959444,29.3755283207,166.0,0.93,2.5,161.4,1774983571000,0.2,4.0,34604620708635,2.0,0,,,
Fix,GPS,40.8928897837,29.3755320925,166.0,0.89,2.5,166.8,1774983572000,0.15,3.8,34605635318250,3.0,0,,,
Fix,GPS,40.8928812342,29.3755353615,165.0,1.02,3.0,166.6,1774983573000,0.17,3.3,34606637783057,3.0,0,,,
Fix,GPS,40.8928683260,29.3755377922,165.0,1.04,2.5,165.6,1774983574000,0.18,3.3,34607617516056,3.0,0,,,
Fix,GPS,40.8928624587,29.3755425699,165.0,0.91999996,2.5,170.0,1774983575000,0.19,4.3,34608617541286,3.0,0,,,
Fix,GPS,40.8928518137,29.3755465094,164.0,0.95,2.5,163.2,1774983576000,0.16,4.0,34609629282132,3.0,0,,,
Fix,GPS,40.8928435575,29.3755477667,164.0,0.97999996,3.0,163.3,1774983577000,0.3,5.7,34610617992362,3.0,0,,,
Fix,GPS,40.8928329125,29.3755471800,164.0,1.14,2.5,158.0,1774983578000,0.27,5.2,34611631871015,3.0,0,,,
Fix,GPS,40.8928263327,29.3755491078,164.0,1.06,3.0,156.7,1774983579000,0.17,3.4,34612625682553,3.0,0,,,
Fix,GPS,40.8928161487,29.3755517900,165.0,1.09,3.0,159.5,1774983580000,0.25,4.5,34613632562360,3.0,0,,,
Fix,GPS,40.8928041207,29.3755516224,165.0,0.98999995,2.5,165.2,1774983581000,0.16,3.6,34614638604474,2.0,0,,,
Fix,GPS,40.8927959483,29.3755579926,166.0,1.09,2.5,162.8,1774983582000,0.27,4.9,34615612650743,2.0,0,,,
Fix,GPS,40.8927924279,29.3755647819,166.0,1.03,3.0,158.5,1774983583000,0.33,6.0,34616637746127,3.0,0,,,
Fix,GPS,40.8927847166,29.3755689729,166.0,1.02,3.0,165.5,1774983584000,0.15,3.3,34617650202395,3.0,0,,,
Fix,GPS,40.8927707188,29.3755771033,166.0,0.94,3.0,168.8,1774983585000,0.23,4.7,34618612511010,3.0,0,,,
Fix,GPS,40.8927656058,29.3755784445,166.0,1.01,3.0,160.6,1774983586000,0.22,4.3,34619612424163,3.0,0,,,
Fix,GPS,40.8927550865,29.3755843956,166.0,0.96,2.5,159.5,1774983587000,0.13,3.1,34620625471508,2.0,0,,,
Fix,GPS,40.8927511051,29.3755847309,164.0,0.53,2.5,169.6,1774983588000,0.4,6.4,34621618665777,3.0,0,,,
Fix,GPS,40.8927459503,29.3755813781,162.0,0.62,2.5,191.3,1774983589000,0.28,6.5,34622634107315,2.0,0,,,
Fix,GPS,40.8927398734,29.3755844794,161.0,0.96,3.0,182.8,1774983590000,0.33,7.1,34623622282006,3.0,0,,,
Fix,GPS,40.8927297313,29.3755832221,160.0,0.98999995,3.0,176.7,1774983591000,0.2,4.8,34624633985621,3.0,0,,,
Fix,GPS,40.8927197149,29.3755854014,161.0,0.96,2.5,167.7,1774983592000,0.13,3.1,34625633733082,3.0,0,,,
Fix,GPS,40.8927106624,29.3755936157,161.0,1.02,2.5,166.5,1774983593000,0.16,3.3,34626628632581,3.0,0,,,
Fix,GPS,40.8926988859,29.3755945377,162.0,0.98999995,2.5,165.3,1774983594000,0.23,4.4,34627617352811,2.0,0,,,
Fix,GPS,40.8926893305,29.3755985610,162.0,1.11,2.5,163.9,1774983595000,0.16,3.1,34628622088233,3.0,0,,,
Fix,GPS,40.8926763805,29.3756043445,162.0,1.0799999,2.5,161.8,1774983596000,0.13,2.5,34629625530156,2.0,0,,,
Fix,GPS,40.8926657354,29.3756088708,163.0,0.94,3.0,163.5,1774983597000,0.21,4.5,34630628308540,3.0,0,,,
Fix,GPS,40.8926587366,29.3756114691,163.0,0.98999995,3.0,170.0,1774983598000,0.15,3.4,34631632318077,3.0,0,,,
Fix,GPS,40.8926508995,29.3756139837,163.0,0.91999996,2.5,170.6,1774983599000,0.15,3.4,34632630281961,2.0,0,,,
Fix,GPS,40.8926423918,29.3756156601,163.0,0.95,2.5,165.2,1774983600000,0.21,4.0,34633632726268,3.0,0,,,
Fix,GPS,40.8926293580,29.3756242935,163.0,1.24,2.5,158.5,1774983601000,0.23,3.4,34634636002037,3.0,0,,,
Fix,GPS,40.8926190063,29.3756292388,163.0,1.13,3.0,160.8,1774983602000,0.2,3.8,34635638559036,3.0,0,,,
Fix,GPS,40.8926098701,29.3756301608,162.0,1.0,3.0,165.2,1774983603000,0.17,3.1,34636615574382,3.0,0,,,
Fix,GPS,40.8926021168,29.3756329268,162.0,0.76,3.0,167.1,1774983604000,0.29,5.4,34637632262189,3.0,0,,,
Fix,GPS,40.8925944474,29.3756338488,162.0,1.36,3.0,157.2,1774983605000,0.23,3.5,34638636505611,3.0,0,,,
Fix,GPS,40.8925803239,29.3756403867,163.0,1.1,3.0,159.8,1774983606000,0.3,5.2,34639636569187,3.0,0,,,
Fix,GPS,40.8925702656,29.3756436557,162.0,1.6999999,3.0,164.7,1774983607000,0.32,4.2,34640644842186,3.0,0,,,
Fix,GPS,40.8925589500,29.3756475952,162.0,1.2099999,2.5,164.4,1774983608000,0.19,3.1,34641630082109,3.0,0,,,
Fix,GPS,40.8925533760,29.3756491039,162.0,1.05,2.5,164.7,1774983609000,0.15,2.9,34642617581493,2.0,0,,,
Fix,GPS,40.8925431501,29.3756584078,162.0,1.11,2.5,165.6,1774983610000,0.19,3.0,34643636464607,2.0,0,,,
Fix,GPS,40.8925322955,29.3756652810,162.0,0.90999997,2.5,168.7,1774983611000,0.22,4.8,34644617395453,3.0,0,,,
Fix,GPS,40.8925176272,29.3756704777,162.0,0.91999996,2.5,170.2,1774983612000,0.32,6.3,34645623888298,3.0,0,,,
Fix,GPS,40.8925110893,29.3756770156,163.0,0.71,2.5,169.0,1774983613000,0.29,6.9,34646638010721,3.0,0,,,
Fix,GPS,40.8925078204,29.3756791949,162.0,0.91999996,2.5,168.5,1774983614000,0.19,3.4,34647627531797,2.0,0,,,
Fix,GPS,40.8924959181,29.3756820448,161.0,0.94,2.5,170.5,1774983615000,0.15,3.1,34648631720835,2.0,0,,,
Fix,GPS,40.8924821718,29.3756873254,162.0,1.02,3.0,171.2,1774983616000,0.15,3.0,34649634381526,3.0,0,,,
Fix,GPS,40.8924701018,29.3756872416,162.0,1.25,3.0,172.3,1774983618000,0.27,4.9,34651632671409,3.0,0,,,
Fix,GPS,40.8924620133,29.3756934442,162.0,1.12,3.0,163.0,1774983619000,0.2,3.9,34652627654639,3.0,0,,,
Fix,GPS,40.8924514521,29.3756965455,162.0,1.12,3.0,160.9,1774983620000,0.18,3.3,34653618026177,3.0,0,,,
Fix,GPS,40.8924396336,29.3757043406,163.0,0.84999996,3.0,156.9,1774983621000,0.33,5.6,34654625139830,3.0,0,,,
Fix,GPS,40.8924306231,29.3757102918,164.0,0.89,3.0,158.7,1774983622000,0.17,3.4,34655633068445,3.0,0,,,
Fix,GPS,40.8924273960,29.3757157400,164.0,0.59999996,2.5,159.1,1774983623000,0.27,6.0,34656624562829,3.0,0,,,
Fix,GPS,40.8924195589,29.3757163268,165.0,0.98999995,2.5,165.7,1774983624000,0.2,4.1,34657629365328,3.0,0,,,
Fix,GPS,40.8924104227,29.3757228646,165.0,0.90999997,2.5,167.5,1774983625000,0.17,3.5,34658639510135,3.0,0,,,
Fix,GPS,40.8924008673,29.3757247087,165.0,1.0,3.0,166.3,1774983626000,0.17,3.4,34659631982173,3.0,0,,,
Fix,GPS,40.8923881268,29.3757273909,165.0,0.93,2.5,164.2,1774983627000,0.17,3.4,34660635262211,2.0,0,,,
Fix,GPS,40.8923753444,29.3757335097,165.0,0.94,2.5,165.5,1774983628000,0.15,3.2,34661621241518,3.0,0,,,
Fix,GPS,40.8923678007,29.3757359404,165.0,0.95,2.5,172.3,1774983629000,0.18,3.3,34662642622171,2.0,0,,,
Fix,GPS,40.8923584130,29.3757387064,165.0,0.98999995,3.0,172.3,1774983630000,0.17,3.3,34663627189516,3.0,0,,,
Fix,GPS,40.8923471393,29.3757452443,165.0,0.90999997,2.5,168.6,1774983631000,0.18,3.6,34664627448708,3.0,0,,,
Fix,GPS,40.8923362428,29.3757521175,165.0,1.1999999,2.5,164.8,1774983632000,0.34,5.0,34665627328322,2.0,0,,,
Fix,GPS,40.8923276933,29.3757523689,165.0,1.02,3.0,167.9,1774983633000,0.22,4.2,34666623169975,3.0,0,,,
Fix,GPS,40.8923184313,29.3757522851,165.0,0.87,3.0,177.0,1774983634000,0.28,4.8,34667634162975,3.0,0,,,
Fix,GPS,40.8923076605,29.3757575657,164.0,0.89,3.0,167.0,1774983635000,0.25,4.8,34668634894089,3.0,0,,,
Fix,GPS,40.8923020447,29.3757677078,164.0,0.94,2.5,160.0,1774983636000,0.17,3.9,34669622872781,2.0,0,,,
Fix,GPS,40.8922913158,29.3757724855,164.0,1.0799999,3.0,156.6,1774983637000,0.22,3.9,34670624558357,3.0,0,,,
Fix,GPS,40.8922779886,29.3757769279,165.0,1.12,3.0,159.2,1774983638000,0.18,2.7,34671628542241,3.0,0,,,
Fix,GPS,40.8922670921,29.3757886626,165.0,1.09,3.0,157.6,1774983639000,0.17,2.9,34672636879087,3.0,0,,,
Fix,GPS,40.8922522143,29.3757978827,165.0,1.04,3.0,160.4,1774983640000,0.15,2.8,34673634352086,3.0,0,,,
Fix,GPS,40.8922400605,29.3758015707,165.0,0.87,3.0,162.0,1774983641000,0.24,4.7,34674623669316,3.0,0,,,
Fix,GPS,40.8922313014,29.3758077733,165.0,0.9,2.5,161.9,1774983642000,0.18,3.8,34675617874623,2.0,0,,,
Fix,GPS,40.8922212431,29.3758148141,166.0,0.98999995,2.5,153.4,1774983643000,0.21,4.4,34676634149314,2.0,0,,,
Fix,GPS,40.8922083769,29.3758227769,166.0,1.05,2.5,155.2,1774983644000,0.2,3.9,34677625761814,2.0,0,,,
Fix,GPS,40.8921975223,29.3758303206,167.0,1.05,2.5,156.8,1774983645000,0.15,2.5,34678621294467,2.0,0,,,
Fix,GPS,40.8921850333,29.3758315779,167.0,1.04,2.5,158.0,1774983646000,0.17,3.5,34679624104005,2.0,0,,,
Fix,GPS,40.8921720413,29.3758379482,167.0,1.05,2.5,157.3,1774983647000,0.13,2.7,34680616080004,2.0,0,,,
Fix,GPS,40.8921652520,29.3758460786,167.0,0.91999996,2.5,157.2,1774983648000,0.16,3.1,34681656475772,2.0,0,,,
Fix,GPS,40.8921572473,29.3758522812,167.0,1.14,2.5,163.5,1774983649000,0.16,2.7,34682635999926,2.0,0,,,
Fix,GPS,40.8921435010,29.3758571427,167.0,1.1,3.0,155.9,1774983650000,0.21,3.8,34683641835117,3.0,0,,,
Fix,GPS,40.8921350352,29.3758599088,167.0,1.17,3.0,148.9,1774983651000,0.16,2.7,34684628858693,2.0,0,,,
Fix,GPS,40.8921280783,29.3758697994,167.0,1.11,2.5,145.8,1774983652000,0.15,2.6,34685638935270,2.0,0,,,
Fix,GPS,40.8921192354,29.3758780975,167.0,1.1899999,3.0,144.2,1774983653000,0.16,2.8,34686629099038,3.0,0,,,
Fix,GPS,40.8921095543,29.3758896645,167.0,0.84999996,3.0,138.3,1774983654000,0.2,4.3,34687631535499,3.0,0,,,
Fix,GPS,40.8921029745,29.3758931011,167.0,0.93,2.5,123.6,1774983655000,0.2,4.3,34688639130998,2.0,0,,,
Fix,GPS,40.8920958498,29.3759064283,167.0,1.12,3.0,101.2,1774983656000,0.23,4.7,34689624129959,3.0,0,,,
Fix,GPS,40.8920922456,29.3759181630,167.0,0.94,3.0,89.2,1774983657000,0.19,3.9,34690644595881,3.0,0,,,
Fix,GPS,40.8920892281,29.3759303167,167.0,0.96999997,3.0,81.3,1774983658000,0.21,4.0,34691614146688,3.0,0,,,
Fix,GPS,40.8920900244,29.3759386148,167.0,0.94,2.5,84.9,1774983659000,0.38,6.3,34692604133880,2.0,0,,,
Fix,GPS,40.8920877194,29.3759517744,166.0,0.93,3.0,94.2,1774983660000,0.28,6.5,34693615923725,3.0,0,,,
Fix,GPS,40.8920859592,29.3759662751,166.0,0.94,3.0,106.4,1774983661000,0.22,4.9,34694610164340,3.0,0,,,
Fix,GPS,40.8920849115,29.3759749085,165.0,1.1,3.0,114.5,1774983662000,0.31,5.5,34695612812224,3.0,0,,,
Fix,GPS,40.8920814330,29.3759855535,166.0,1.1899999,3.0,121.1,1774983663000,0.3,5.4,34696636869646,3.0,0,,,
Fix,GPS,40.8920783317,29.3759904988,165.0,1.12,3.0,124.7,1774983664000,0.16,3.2,34697629557761,2.0,0,,,
Fix,GPS,40.8920748951,29.3759967852,165.0,1.11,3.0,126.3,1774983665000,0.32,5.2,34698628133914,3.0,0,,,
Fix,GPS,40.8920730092,29.3760091905,166.0,0.96,3.0,121.4,1774983666000,0.25,5.5,34699637173567,3.0,0,,,
Fix,GPS,40.8920675190,29.3760213442,166.0,1.01,3.0,115.2,1774983667000,0.14,3.0,34700616766605,3.0,0,,,
Fix,GPS,40.8920641243,29.3760293908,167.0,1.0,3.0,126.8,1774983668000,0.24,4.7,34701618539874,3.0,0,,,
Fix,GPS,40.8920610230,29.3760429695,167.0,1.2099999,3.0,118.6,1774983669000,0.3,4.9,34702621731719,3.0,0,,,
Fix,GPS,40.8920585923,29.3760579731,166.0,0.96,3.0,114.8,1774983670000,0.22,4.8,34703619090334,3.0,0,,,
Fix,GPS,40.8920551976,29.3760706298,166.0,1.12,3.0,111.1,1774983671000,0.32,5.7,34704615626641,3.0,0,,,
Fix,GPS,40.8920515515,29.3760846276,167.0,1.13,3.5,109.5,1774983672000,0.34,6.2,34705630804486,3.0,0,,,
Fix,GPS,40.8920446364,29.3761018105,166.0,0.98999995,3.5,112.5,1774983673000,0.21,4.7,34706618748870,3.0,0,,,
Fix,GPS,40.8920413256,29.3761117849,167.0,1.01,3.0,104.9,1774983674000,0.23,5.2,34707630101292,3.0,0,,,
Fix,GPS,40.8920376375,29.3761231005,167.0,1.24,3.0,103.3,1774983675000,0.26,5.8,34708636774599,3.0,0,,,
Fix,GPS,40.8920348715,29.3761355057,167.0,0.94,3.5,94.0,1774983676000,0.3,7.1,34709621431983,3.0,0,,,
Fix,GPS,40.8920336142,29.3761447258,167.0,1.14,3.0,100.1,1774983677000,0.24,6.2,34710617333175,3.0,0,,,
Fix,GPS,40.8920298843,29.3761594780,167.0,0.97999996,3.0,108.3,1774983678000,0.25,6.3,34711625237751,3.0,0,,,
Fix,GPS,40.8920263639,29.3761742301,166.0,0.90999997,3.0,105.6,1774983679000,0.25,6.9,34712612194366,3.0,0,,,
Fix,GPS,40.8920239750,29.3761878088,167.0,1.0699999,3.0,96.7,1774983680000,0.22,5.2,34713629726980,3.0,0,,,
Fix,GPS,40.8920240588,29.3762034830,166.0,1.04,3.5,97.3,1774983681000,0.22,5.6,34714621922941,3.0,0,,,
Fix,GPS,40.8920217119,29.3762153853,166.0,1.05,3.0,101.6,1774983682000,0.25,5.7,34715624559787,3.0,0,,,
Fix,GPS,40.8920197003,29.3762273714,166.0,1.01,3.0,99.1,1774983683000,0.22,5.5,34716625306824,3.0,0,,,
Fix,GPS,40.8920186944,29.3762417883,167.0,1.06,3.0,89.7,1774983684000,0.21,5.9,34717645692939,3.0,0,,,
Fix,GPS,40.8920162637,29.3762634974,168.0,1.0799999,3.0,90.3,1774983685000,0.22,5.6,34718631562708,3.0,0,,,
Fix,GPS,40.8920151321,29.3762820214,168.0,1.13,3.0,83.9,1774983686000,0.21,5.4,34719624911668,3.0,0,,,
Fix,GPS,40.8920126176,29.3762941752,167.0,0.83,2.5,78.7,1774983687000,0.26,6.9,34720626333514,2.0,0,,,
Fix,GPS,40.8920119051,29.3763059098,167.0,1.17,2.5,83.4,1774983688000,0.28,6.6,34721626451128,2.0,0,,,
Fix,GPS,40.8920126176,29.3763233442,168.0,1.03,2.5,74.7,1774983689000,0.23,5.4,34722639089128,2.0,0,,,
Fix,GPS,40.8920155931,29.3763362523,168.0,1.01,2.5,71.5,1774983690000,0.17,4.4,34723623978512,2.0,0,,,
Fix,GPS,40.8920176467,29.3763499148,168.0,1.12,2.5,72.4,1774983691000,0.19,4.6,34724616864549,2.0,0,,,
Fix,GPS,40.8920197003,29.3763637450,169.0,0.98999995,2.5,72.2,1774983692000,0.22,5.6,34725627344241,2.0,0,,,
Fix,GPS,40.8920205804,29.3763799220,170.0,1.22,2.5,68.1,1774983693000,0.3,6.2,34726640217856,2.0,0,,,
Fix,GPS,40.8920215024,29.3763944227,169.0,1.05,2.5,66.6,1774983694000,0.21,5.2,34727631038047,2.0,0,,,
Fix,GPS,40.8920237236,29.3764121085,169.0,1.13,2.5,65.2,1774983695000,0.17,4.0,34728636210623,2.0,0,,,
Fix,GPS,40.8920269506,29.3764313869,169.0,1.1,2.5,64.8,1774983696000,0.32,6.2,34729617973315,2.0,0,,,
Fix,GPS,40.8920333209,29.3764473964,169.0,1.03,3.0,59.2,1774983697000,0.28,6.5,34730629439545,3.0,0,,,
Fix,GPS,40.8920392720,29.3764602207,170.0,1.11,3.0,59.8,1774983698000,0.35,8.0,34731610604967,2.0,0,,,
Fix,GPS,40.8920397749,29.3764733803,170.0,0.94,3.0,72.3,1774983699000,0.27,7.9,34732629097621,2.0,0,,,
Fix,GPS,40.8920423314,29.3764848635,170.0,0.74,3.0,80.7,1774983700000,0.3,9.5,34733621876351,2.0,0,,,
Fix,GPS,40.8920447621,29.3764939997,170.0,0.93,3.0,77.3,1774983701000,0.4,10.7,34734632480042,2.0,0,,,
Fix,GPS,40.8920520544,29.3765035551,171.0,1.23,2.5,53.0,1774983702000,0.36,7.8,34735614497118,2.0,0,,,
Fix,GPS,40.8920615260,29.3765106797,171.0,1.04,3.0,51.8,1774983703000,0.28,6.7,34736625834310,2.0,0,,,
Fix,GPS,40.8920667646,29.3765199836,171.0,1.1,3.0,42.9,1774983704000,0.25,5.2,34737629887771,3.0,0,,,
Fix,GPS,40.8920759847,29.3765261862,171.0,0.94,3.0,48.0,1774983705000,0.27,6.5,34738634879116,2.0,0,,,
Fix,GPS,40.8920850372,29.3765371665,171.0,1.0699999,2.5,47.4,1774983706000,0.19,4.9,34739637331500,2.0,0,,,
Fix,GPS,40.8920902759,29.3765480630,171.0,1.1,2.5,39.6,1774983707000,0.26,5.1,34740622351192,2.0,0,,,
Fix,GPS,40.8920932095,29.3765568640,171.0,1.05,2.5,44.3,1774983708000,0.25,5.7,34741613752883,2.0,0,,,
Fix,GPS,40.8921023039,29.3765653297,170.0,1.09,2.5,39.6,1774983709000,0.3,6.0,34742632903767,2.0,0,,,
Fix,GPS,40.8921078360,29.3765727896,170.0,1.25,3.0,30.6,1774983710000,0.31,5.2,34743636485651,2.0,0,,,
Fix,GPS,40.8921189001,29.3765828479,170.0,1.17,3.0,32.3,1774983711000,0.17,3.4,34744626912035,2.0,0,,,
Fix,GPS,40.8921255637,29.3765887991,170.0,1.0699999,3.0,29.5,1774983712000,0.17,3.1,34745627844957,2.0,0,,,
Fix,GPS,40.8921339456,29.3765910622,170.0,1.0699999,3.0,32.0,1774983713000,0.16,3.2,34746620349303,2.0,0,,,
Fix,GPS,40.8921404416,29.3765960913,170.0,0.81,2.5,30.1,1774983714000,0.23,4.7,34747615347187,2.0,0,,,
Fix,GPS,40.8921512542,29.3765986897,170.0,1.16,2.5,30.0,1774983715000,0.25,4.4,34748632027109,2.0,0,,,
Fix,GPS,40.8921600971,29.3766064849,170.0,0.91999996,2.5,23.9,1774983716000,0.19,3.7,34749619691647,2.0,0,,,
Fix,GPS,40.8921683952,29.3766059820,170.0,1.17,2.5,20.9,1774983717000,0.25,3.9,34750630568685,2.0,0,,,
Fix,GPS,40.8921769029,29.3766107596,170.0,1.15,2.5,14.1,1774983718000,0.16,2.7,34751620673645,2.0,0,,,
Fix,GPS,40.8921871288,29.3766110949,170.0,1.24,2.5,12.5,1774983719000,0.17,2.2,34752620699260,2.0,0,,,
Fix,GPS,40.8921998693,29.3766182195,170.0,1.17,2.5,11.5,1774983720000,0.16,2.3,34753628462336,2.0,0,,,
Fix,GPS,40.8922076644,29.3766226619,170.0,1.24,2.5,6.4,1774983721000,0.21,2.6,34754634012874,2.0,0,,,
Fix,GPS,40.8922192734,29.3766311277,171.0,1.38,2.5,6.5,1774983722000,0.25,3.3,34755634533296,2.0,0,,,
Fix,GPS,40.8922290802,29.3766307086,170.0,1.1899999,3.0,9.3,1774983723000,0.17,2.7,34756641404950,2.0,0,,,
Fix,GPS,40.8922397252,29.3766281940,170.0,1.23,2.5,6.2,1774983724000,0.28,3.9,34757627123641,2.0,0,,,
Fix,GPS,40.8922509151,29.3766335584,170.0,1.22,3.0,3.4,1774983725000,0.16,2.4,34758627463371,2.0,0,,,
Fix,GPS,40.8922666730,29.3766396772,170.0,1.13,3.0,4.7,1774983726000,0.18,2.6,34759623362063,2.0,0,,,
Fix,GPS,40.8922797488,29.3766406830,170.0,1.0,2.5,11.2,1774983727000,0.19,3.6,34760633016870,2.0,0,,,
Fix,GPS,40.8922903938,29.3766420241,170.0,0.98999995,2.5,14.2,1774983728000,0.27,4.7,34761628442754,2.0,0,,,
Fix,GPS,40.8923014579,29.3766422756,171.0,1.26,3.0,7.8,1774983729000,0.23,3.3,34762623713791,2.0,0,,,
Fix,GPS,40.8923114743,29.3766471371,169.0,0.87,3.0,16.4,1774983730000,0.27,5.3,34763618679829,2.0,0,,,
Fix,GPS,40.8923235862,29.3766541779,169.0,1.1,3.0,38.9,1774983731000,0.2,4.7,34764635929867,2.0,0,,,
Fix,GPS,40.8923311299,29.3766598776,169.0,1.13,3.5,55.9,1774983732000,0.33,6.6,34765639874405,3.0,0,,,
Fix,GPS,40.8923349017,29.3766711932,169.0,1.17,3.0,75.4,1774983733000,0.32,7.7,34766629871058,3.0,0,,,
Fix,GPS,40.8923372068,29.3766841851,169.0,1.1,3.5,79.0,1774983734000,0.19,5.1,34767615256211,3.0,0,,,
Fix,GPS,40.8923336444,29.3766947463,169.0,1.2099999,3.0,87.0,1774983735000,0.26,4.8,34768611523903,2.0,0,,,
Fix,GPS,40.8923338540,29.3767133541,169.0,1.13,3.0,87.9,1774983736000,0.28,5.3,34769625189286,3.0,0,,,
Fix,GPS,40.8923351113,29.3767301179,169.0,1.16,3.0,88.2,1774983737000,0.21,5.0,34770628502055,3.0,0,,,
Fix,GPS,40.8923323872,29.3767450377,169.0,1.15,3.0,81.7,1774983738000,0.19,4.2,34771629441977,3.0,0,,,
Fix,GPS,40.8923342312,29.3767644837,170.0,1.23,3.0,77.6,1774983739000,0.15,2.8,34772630380169,3.0,0,,,
Fix,GPS,40.8923381707,29.3767796550,170.0,1.3,3.0,76.3,1774983740000,0.18,3.3,34773634546514,3.0,0,,,
Fix,GPS,40.8923450857,29.3767945748,170.0,1.18,3.0,76.4,1774983741000,0.17,3.1,34774655209514,3.0,0,,,
Fix,GPS,40.8923488995,29.3768088240,171.0,1.23,3.0,79.7,1774983742000,0.16,3.3,34775633247051,3.0,0,,,
Fix,GPS,40.8923517074,29.3768236600,171.0,1.0699999,3.0,82.3,1774983743000,0.26,4.7,34776640251781,3.0,0,,,
Fix,GPS,40.8923544316,29.3768374901,171.0,1.3299999,3.0,82.0,1774983744000,0.23,4.8,34777636714973,3.0,0,,,
Fix,GPS,40.8923548926,29.3768465426,172.0,1.27,3.0,75.5,1774983745000,0.25,4.2,34778639346703,3.0,0,,,
Fix,GPS,40.8923556050,29.3768631388,172.0,1.1999999,3.0,81.3,1774983746000,0.25,4.5,34779652425125,3.0,0,,,
Fix,GPS,40.8923580358,29.3768754601,172.0,0.95,3.0,84.6,1774983747000,0.37,7.5,34780625431663,2.0,0,,,
Fix,GPS,40.8923593769,29.3768880330,172.0,1.0,3.0,81.2,1774983748000,0.18,5.3,34781630192470,3.0,0,,,
Fix,GPS,40.8923629392,29.3769051321,171.0,0.65999997,3.0,92.1,1774983749000,0.27,6.8,34782645641931,3.0,0,,,
Fix,GPS,40.8923652442,29.3769197166,171.0,1.17,3.0,81.5,1774983750000,0.19,3.8,34783634666584,3.0,0,,,
Fix,GPS,40.8923703572,29.3769350555,171.0,1.0699999,3.0,75.9,1774983751000,0.19,4.3,34784636395930,3.0,0,,,
Fix,GPS,40.8923747158,29.3769484665,171.0,1.27,3.0,74.0,1774983752000,0.28,5.3,34785650409313,3.0,0,,,
Fix,GPS,40.8923784457,29.3769586924,171.0,1.05,3.0,80.7,1774983753000,0.33,6.7,34786631315928,3.0,0,,,
Fix,GPS,40.8923807507,29.3769731931,171.0,1.3199999,3.0,67.6,1774983754000,0.33,6.4,34787628949120,3.0,0,,,
Fix,GPS,40.8923855703,29.3769886158,171.0,0.93,3.0,72.5,1774983755000,0.26,6.5,34788648992965,3.0,0,,,
Fix,GPS,40.8923877077,29.3770002667,171.0,1.03,3.0,79.6,1774983756000,0.17,3.5,34789645292118,3.0,0,,,
Fix,GPS,40.8923905576,29.3770150188,171.0,1.22,3.0,84.2,1774983757000,0.23,4.2,34790640157194,3.0,0,,,
Fix,GPS,40.8923925273,29.3770285137,172.0,1.16,3.0,77.8,1774983758000,0.2,4.2,34791645602578,3.0,0,,,
Fix,GPS,40.8923951257,29.3770410027,172.0,1.1999999,3.0,82.2,1774983759000,0.19,3.5,34792645352885,3.0,0,,,
Fix,GPS,40.8923954610,29.3770547491,172.0,1.0,3.0,85.0,1774983760000,0.17,3.8,34793655673231,2.0,0,,,
Fix,GPS,40.8923984366,29.3770740274,172.0,1.11,3.0,81.5,1774983761000,0.16,3.4,34794633408807,2.0,0,,,
Fix,GPS,40.8923999453,29.3770828284,172.0,0.98999995,3.0,81.5,1774983762000,0.21,4.5,34795642692652,3.0,0,,,
Fix,GPS,40.8924022503,29.3770936411,172.0,1.1999999,3.0,81.7,1774983763000,0.21,3.9,34796642583190,3.0,0,,,
Fix,GPS,40.8924061060,29.3771072198,172.0,1.0799999,3.0,81.5,1774983764000,0.16,3.8,34797629842343,3.0,0,,,
Fix,GPS,40.8924068185,29.3771230616,172.0,0.78,3.0,88.5,1774983765000,0.21,5.5,34798628390612,3.0,0,,,
Fix,GPS,40.8924057707,29.3771332875,173.0,0.88,3.0,91.8,1774983766000,0.16,3.9,34799612530303,3.0,0,,,
Fix,GPS,40.8924049325,29.3771390710,174.0,0.9,2.5,86.8,1774983767000,0.19,4.6,34800619468380,2.0,0,,,
Fix,GPS,40.8924036752,29.3771497998,173.0,1.02,3.0,89.2,1774983768000,0.18,3.7,34801640758802,3.0,0,,,
Fix,GPS,40.8924032561,29.3771623727,173.0,1.0,3.0,84.8,1774983769000,0.16,3.4,34802632474378,3.0,0,,,
Fix,GPS,40.8924063155,29.3771738559,173.0,1.04,3.0,81.3,1774983770000,0.16,3.0,34803649306493,3.0,0,,,
Fix,GPS,40.8924110932,29.3771886919,173.0,1.03,2.5,73.8,1774983771000,0.28,4.8,34804646820877,2.0,0,,,
Fix,GPS,40.8924126858,29.3772023544,173.0,1.04,3.0,83.6,1774983772000,0.24,4.6,34805622430068,3.0,0,,,
Fix,GPS,40.8924130630,29.3772163521,173.0,1.02,2.5,83.1,1774983773000,0.17,3.5,34806633355952,2.0,0,,,
Fix,GPS,40.8924135240,29.3772315234,173.0,0.84999996,2.5,86.8,1774983774000,0.2,4.3,34807619351644,2.0,0,,,
Fix,GPS,40.8924110932,29.3772419170,173.0,0.62,2.5,89.6,1774983775000,0.23,6.6,34808624807066,2.0,0,,,
Fix,GPS,40.8924105065,29.3772462755,172.0,0.29999998,2.5,90.5,1774983776000,0.41,10.9,34809639522142,2.0,0,,,
Fix,GPS,40.8924147394,29.3772502989,171.0,0.42,2.5,85.7,1774983777000,0.29,15.1,34810622938642,2.0,0,,,
Fix,GPS,40.8924149070,29.3772528134,171.0,0.42,2.5,72.7,1774983778000,0.18,17.0,34811643443064,2.0,0,,,
Fix,GPS,40.8924152004,29.3772658892,171.0,0.95,3.0,78.8,1774983779000,0.3,8.1,34812618062794,2.0,0,,,
Fix,GPS,40.8924166672,29.3772842456,171.0,1.12,2.5,77.6,1774983780000,0.24,5.3,34813630266024,2.0,0,,,
Fix,GPS,40.8924196009,29.3772932980,171.0,0.96999997,3.0,88.0,1774983781000,0.2,4.1,34814632945408,2.0,0,,,
Fix,GPS,40.8924187627,29.3773070443,171.0,1.01,2.5,90.5,1774983782000,0.14,3.2,34815620164869,2.0,0,,,
Fix,GPS,40.8924180083,29.3773165997,171.0,0.94,2.5,84.8,1774983783000,0.16,3.4,34816624206753,2.0,0,,,
Fix,GPS,40.8924183855,29.3773281667,171.0,0.95,2.5,87.0,1774983784000,0.16,3.9,34817621842291,2.0,0,,,
Fix,GPS,40.8924189303,29.3773393147,172.0,0.9,3.0,82.3,1774983785000,0.25,5.2,34818633991482,3.0,0,,,
Fix,GPS,40.8924202295,29.3773520552,172.0,0.97999996,2.5,83.8,1774983786000,0.33,7.0,34819636010712,2.0,0,,,
Fix,GPS,40.8924217382,29.3773689866,172.0,0.90999997,3.0,77.7,1774983787000,0.25,6.9,34820641997481,2.0,0,,,
Fix,GPS,40.8924230374,29.3773819786,172.0,0.94,3.0,82.4,1774983788000,0.19,5.1,34821633469980,3.0,0,,,
Fix,GPS,40.8924193913,29.3773922883,173.0,0.64,3.0,89.7,1774983789000,0.23,6.8,34822622114633,3.0,0,,,
Fix,GPS,40.8924196847,29.3774031848,173.0,1.03,3.0,80.3,1774983790000,0.25,5.9,34823623887132,2.0,0,,,
Fix,GPS,40.8924200200,29.3774155062,173.0,0.90999997,3.0,79.2,1774983791000,0.23,5.5,34824631017055,3.0,0,,,
Fix,GPS,40.8924214030,29.3774310965,173.0,1.01,2.5,84.1,1774983792000,0.3,5.7,34825618545323,2.0,0,,,
Fix,GPS,40.8924245043,29.3774429988,173.0,0.81,3.0,84.4,1774983793000,0.27,6.7,34826632443207,3.0,0,,,
Fix,GPS,40.8924246300,29.3774542306,173.0,0.83,3.0,90.6,1774983794000,0.18,4.7,34827621432437,3.0,0,,,
Fix,GPS,40.8924267255,29.3774699047,172.0,0.89,3.0,94.8,1774983795000,0.18,3.9,34828626350129,3.0,0,,,
Fix,GPS,40.8924268512,29.3774839025,172.0,0.87,3.0,93.2,1774983796000,0.16,4.0,34829617613974,3.0,0,,,
Fix,GPS,40.8924266417,29.3774984870,173.0,0.90999997,3.0,93.6,1774983797000,0.27,5.5,34830627872589,3.0,0,,,
Fix,GPS,40.8924252167,29.3775120657,172.0,0.96,3.0,87.1,1774983798000,0.3,6.2,34831634847204,3.0,0,,,
Fix,GPS,40.8924256777,29.3775276560,172.0,1.01,3.0,90.8,1774983799000,0.19,3.4,34832624931780,3.0,0,,,
Fix,GPS,40.8924238337,29.3775385525,173.0,0.85999995,3.0,90.8,1774983800000,0.23,5.2,34833623804048,3.0,0,,,
Fix,GPS,40.8924249653,29.3775515445,173.0,0.87,3.0,93.5,1774983801000,0.19,4.4,34834653911086,3.0,0,,,
Fix,GPS,40.8924240433,29.3775659613,174.0,0.94,3.0,89.9,1774983802000,0.2,4.5,34835626571470,3.0,0,,,
Fix,GPS,40.8924253844,29.3775798753,174.0,0.97999996,3.0,86.6,1774983803000,0.16,3.7,34836619314969,3.0,0,,,
Fix,GPS,40.8924267255,29.3775948789,175.0,0.96,3.0,81.7,1774983804000,0.18,4.0,34837624811699,3.0,0,,,
Fix,GPS,40.8924229536,29.3776081223,174.0,0.78999996,3.0,90.2,1774983805000,0.33,6.8,34838637269776,2.0,0,,,
Fix,GPS,40.8924203552,29.3776176777,175.0,1.02,3.0,90.0,1774983806000,0.33,6.9,34839621722313,3.0,0,,,
Fix,GPS,40.8924194332,29.3776268139,175.0,1.0699999,3.0,83.5,1774983807000,0.17,3.7,34840636470620,3.0,0,,,
Fix,GPS,40.8924223250,29.3776393030,175.0,0.96999997,3.0,82.4,1774983808000,0.21,4.6,34841619173581,3.0,0,,,
Fix,GPS,40.8924225345,29.3776570726,175.0,1.03,3.0,81.7,1774983809000,0.3,6.2,34842624640888,3.0,0,,,
Fix,GPS,40.8924215287,29.3776693102,175.0,1.0799999,3.5,87.1,1774983810000,0.25,5.8,34843643335349,3.0,0,,,
Fix,GPS,40.8924247138,29.3776811287,175.0,1.17,3.5,86.0,1774983811000,0.2,4.2,34844623671694,3.0,0,,,
Fix,GPS,40.8924281504,29.3776942883,176.0,1.0799999,3.5,77.0,1774983812000,0.21,4.9,34845624531655,3.0,0,,,
Fix,GPS,40.8924299525,29.3777000718,176.0,1.0699999,3.5,66.4,1774983813000,0.28,5.9,34846629029885,3.0,0,,,
Fix,GPS,40.8924379572,29.3777126446,176.0,1.06,3.0,62.3,1774983814000,0.2,3.7,34847630046269,3.0,0,,,
Fix,GPS,40.8924442437,29.3777293246,177.0,1.01,3.0,64.6,1774983815000,0.31,5.5,34848623621922,3.0,0,,,
Fix,GPS,40.8924454171,29.3777462561,177.0,1.17,3.0,70.7,1774983816000,0.3,5.3,34849636118460,3.0,0,,,
Fix,GPS,40.8924479736,29.3777619302,177.0,1.09,3.0,77.8,1774983817000,0.3,5.7,34850617175728,3.0,0,,,
Fix,GPS,40.8924478060,29.3777730782,178.0,1.1,3.0,84.9,1774983818000,0.29,5.8,34851617327305,3.0,0,,,
Fix,GPS,40.8924475545,29.3777830526,179.0,0.94,3.0,99.4,1774983819000,0.24,5.4,34852625933727,3.0,0,,,
Fix,GPS,40.8924470097,29.3777985591,179.0,1.1899999,3.0,101.2,1774983820000,0.29,5.4,34853633837765,2.0,0,,,
Fix,GPS,40.8924405556,29.3778126407,179.0,1.1,3.0,100.3,1774983821000,0.16,3.3,34854633601572,3.0,0,,,
Fix,GPS,40.8924366161,29.3778247945,179.0,1.09,3.0,105.9,1774983822000,0.21,4.1,34855625041879,3.0,0,,,
Fix,GPS,40.8924299106,29.3778365292,179.0,0.93,3.0,113.0,1774983823000,0.25,5.1,34856630904763,3.0,0,,,
Fix,GPS,40.8924282761,29.3778505269,179.0,1.15,3.0,99.5,1774983824000,0.18,3.7,34857618642839,2.0,0,,,
Fix,GPS,40.8924291562,29.3778620940,180.0,1.14,3.0,100.0,1774983825000,0.23,4.3,34858640883338,3.0,0,,,
Fix,GPS,40.8924306231,29.3778775167,180.0,1.13,2.5,91.5,1774983826000,0.32,5.4,34859613671030,2.0,0,,,
Fix,GPS,40.8924293239,29.3778900895,179.0,0.62,2.5,94.1,1774983827000,0.24,7.3,34860618085144,2.0,0,,,
Fix,GPS,40.8924278989,29.3778992258,179.0,1.1,2.5,84.3,1774983828000,0.17,3.8,34861616561913,2.0,0,,,
Fix,GPS,40.8924274798,29.3779091164,180.0,1.3,3.0,90.1,1774983829000,0.31,5.3,34862617654028,3.0,0,,,
Fix,GPS,40.8924289467,29.3779273890,180.0,1.24,2.5,76.5,1774983830000,0.33,5.9,34863617730681,2.0,0,,,
Fix,GPS,40.8924279828,29.3779392075,179.0,0.58,3.0,84.5,1774983831000,0.31,8.5,34864605254334,2.0,0,,,
Fix,GPS,40.8924277732,29.3779484276,180.0,1.13,3.0,75.7,1774983832000,0.27,6.1,34865624901064,2.0,0,,,
Fix,GPS,40.8924317965,29.3779661972,180.0,1.0699999,3.0,95.2,1774983833000,0.23,4.5,34866625796332,2.0,0,,,
Fix,GPS,40.8924307069,29.3779781833,181.0,1.27,3.0,93.6,1774983834000,0.17,2.8,34867622871909,3.0,0,,,
Fix,GPS,40.8924297011,29.3779957853,181.0,1.15,3.0,92.1,1774983835000,0.19,3.8,34868642052254,3.0,0,,,
Fix,GPS,40.8924297430,29.3780112080,181.0,1.22,3.0,89.7,1774983836000,0.25,4.6,34869631166369,3.0,0,,,
Fix,GPS,40.8924305812,29.3780226074,181.0,1.1899999,3.0,90.0,1774983837000,0.26,4.7,34870626339791,2.0,0,,,
Fix,GPS,40.8924303297,29.3780424725,181.0,1.0699999,3.0,84.3,1774983838000,0.22,4.2,34871629407829,2.0,0,,,
Fix,GPS,40.8924313774,29.3780549616,182.0,1.02,3.0,87.4,1774983839000,0.28,5.5,34872649957444,2.0,0,,,
Fix,GPS,40.8924303297,29.3780620024,182.0,1.16,2.5,84.3,1774983840000,0.15,3.3,34873623131058,2.0,0,,,
Fix,GPS,40.8924339339,29.3780723959,182.0,1.12,2.5,81.9,1774983841000,0.26,4.6,34874656901634,2.0,0,,,
Fix,GPS,40.8924340177,29.3780890759,182.0,1.18,2.5,80.8,1774983842000,0.14,2.8,34875631350864,2.0,0,,,
Fix,GPS,40.8924361132,29.3781027384,182.0,1.1,3.0,81.1,1774983843000,0.26,4.5,34876630195787,2.0,0,,,
Fix,GPS,40.8924395079,29.3781251181,181.0,1.35,2.5,78.4,1774983844000,0.21,4.0,34877636866248,2.0,0,,,
Fix,GPS,40.8924393402,29.3781425525,182.0,1.0699999,3.0,78.2,1774983845000,0.18,3.7,34878627351170,2.0,0,,,
Fix,GPS,40.8924374124,29.3781583104,182.0,1.18,2.5,82.7,1774983846000,0.25,4.7,34879643695862,2.0,0,,,
Fix,GPS,40.8924409747,29.3781756610,182.0,1.3,2.5,82.1,1774983847000,0.22,4.5,34880632093284,2.0,0,,,
Fix,GPS,40.8924415614,29.3781909160,182.0,1.26,2.5,85.4,1774983848000,0.15,3.1,34881634038283,2.0,0,,,
Fix,GPS,40.8924418548,29.3782029860,182.0,1.12,2.5,83.2,1774983849000,0.21,3.6,34882628971821,2.0,0,,,
Fix,GPS,40.8924436150,29.3782200851,182.0,1.12,2.5,85.3,1774983850000,0.15,3.1,34883624850589,2.0,0,,,
Fix,GPS,40.8924429445,29.3782322388,182.0,1.11,2.5,90.3,1774983851000,0.22,4.7,34884645801781,2.0,0,,,
Fix,GPS,40.8924424835,29.3782492541,181.0,1.17,2.5,88.9,1774983852000,0.16,3.5,34885642987319,2.0,0,,,
Fix,GPS,40.8924423996,29.3782606535,182.0,1.26,2.5,86.5,1774983853000,0.18,3.8,34886635171433,2.0,0,,,
Fix,GPS,40.8924454590,29.3782782555,182.0,1.18,2.5,76.2,1774983854000,0.26,4.3,34887628432971,2.0,0,,,
Fix,GPS,40.8924481412,29.3782912474,182.0,1.23,3.0,78.2,1774983855000,0.28,5.5,34888630013894,2.0,0,,,
Fix,GPS,40.8924471773,29.3783054128,183.0,1.11,3.0,89.1,1774983856000,0.22,4.5,34889644393816,2.0,0,,,
Fix,GPS,40.8924452076,29.3783233501,183.0,1.1999999,3.0,91.2,1774983857000,0.26,5.2,34890627883546,2.0,0,,,
Fix,GPS,40.8924422320,29.3783347495,184.0,0.85999995,3.0,97.5,1774983858000,0.26,6.4,34891633812815,2.0,0,,,
Fix,GPS,40.8924412262,29.3783459812,184.0,1.13,3.0,96.0,1774983859000,0.23,5.1,34892629248814,2.0,0,,,
Fix,GPS,40.8924418967,29.3783633318,184.0,1.0699999,3.0,97.2,1774983860000,0.2,4.4,34893633753313,2.0,0,,,
Fix,GPS,40.8924387954,29.3783828616,184.0,1.0799999,3.0,96.8,1774983861000,0.26,5.9,34894637799312,2.0,0,,,
Fix,GPS,40.8924389211,29.3783969432,184.0,1.09,3.0,90.1,1774983862000,0.18,4.0,34895641909466,2.0,0,,,
Fix,GPS,40.8924394241,29.3784137908,184.0,1.06,3.0,89.0,1774983863000,0.21,4.9,34896632478234,2.0,0,,,
Fix,GPS,40.8924387954,29.3784237653,184.0,0.71,2.5,103.5,1774983864000,0.33,7.4,34897626374426,2.0,0,,,
Fix,GPS,40.8924387116,29.3784392718,184.0,1.15,2.5,94.7,1774983865000,0.34,7.6,34898624629271,2.0,0,,,
Fix,GPS,40.8924396336,29.3784527667,183.0,0.53999996,2.5,97.3,1774983866000,0.35,9.6,34899640929424,2.0,0,,,
Fix,GPS,40.8924422739,29.3784613162,183.0,0.69,2.5,86.2,1774983867000,0.27,7.5,34900636398616,2.0,0,,,
Fix,GPS,40.8924411424,29.3784746435,183.0,1.2099999,2.5,85.4,1774983868000,0.31,6.5,34901623461346,2.0,0,,,
Fix,GPS,40.8924397174,29.3784897309,183.0,1.15,2.5,91.5,1774983869000,0.17,4.2,34902629476730,2.0,0,,,
Fix,GPS,40.8924402203,29.3785010464,184.0,0.9,3.0,82.8,1774983870000,0.23,5.2,34903625310883,2.0,0,,,
Fix,GPS,40.8924447885,29.3785149604,185.0,0.96,2.5,80.8,1774983871000,0.2,5.8,34904636084074,2.0,0,,,
Fix,GPS,40.8924483927,29.3785317242,185.0,1.0,2.5,80.5,1774983872000,0.21,5.8,34905626147805,2.0,0,,,
Fix,GPS,40.8924506558,29.3785462249,185.0,0.94,2.5,84.2,1774983873000,0.19,5.9,34906632605919,2.0,0,,,
Fix,GPS,40.8924527932,29.3785584625,185.0,1.15,2.5,83.3,1774983874000,0.23,4.8,34907624973765,2.0,0,,,
Fix,GPS,40.8924555173,29.3785725441,184.0,1.16,2.5,86.6,1774983875000,0.22,4.8,34908630552264,2.0,0,,,
Fix,GPS,40.8924552239,29.3785875477,184.0,1.15,2.5,87.0,1774983876000,0.19,4.4,34909635468340,2.0,0,,,
Fix,GPS,40.8924548887,29.3786031380,185.0,1.1,3.0,84.2,1774983877000,0.25,5.7,34910653516609,2.0,0,,,
Fix,GPS,40.8924579481,29.3786200695,185.0,1.13,2.5,80.9,1774983878000,0.25,6.0,34911629253685,2.0,0,,,
Fix,GPS,40.8924569003,29.3786327261,185.0,0.94,3.0,77.0,1774983879000,0.19,4.8,34912640110607,2.0,0,,,
Fix,GPS,40.8924578223,29.3786433712,185.0,0.96999997,2.5,83.2,1774983880000,0.18,5.1,34913615470568,2.0,0,,,
Fix,GPS,40.8924567746,29.3786582071,185.0,1.0799999,2.5,86.2,1774983881000,0.36,6.8,34914634890606,2.0,0,,,
Fix,GPS,40.8924562298,29.3786733784,186.0,1.09,3.0,90.1,1774983882000,0.4,8.1,34915618265951,2.0,0,,,
Fix,GPS,40.8924547210,29.3786925729,186.0,1.24,3.0,94.1,1774983883000,0.32,7.1,34916645229258,2.0,0,,,
Fix,GPS,40.8924468840,29.3787067384,187.0,1.18,3.0,103.8,1774983884000,0.29,6.4,34917626115373,2.0,0,,,
Fix,GPS,40.8924463810,29.3787248433,187.0,1.1999999,3.0,87.8,1774983885000,0.27,6.2,34918623941718,3.0,0,,,
Fix,GPS,40.8924525836,29.3787442055,187.0,1.27,2.5,80.0,1774983886000,0.27,6.1,34919629756718,2.0,0,,,
Fix,GPS,40.8924560202,29.3787607178,187.0,1.06,3.0,75.6,1774983887000,0.26,6.6,34920638524255,2.0,0,,,
Fix,GPS,40.8924567327,29.3787746318,187.0,1.26,2.5,83.3,1774983888000,0.27,6.4,34921630250639,2.0,0,,,
Fix,GPS,40.8924565651,29.3787928205,187.0,1.01,2.5,93.4,1774983889000,0.24,6.1,34922630502946,2.0,0,,,
Fix,GPS,40.8924549306,29.3788040522,187.0,1.05,2.5,100.7,1774983890000,0.2,5.6,34923626750022,2.0,0,,,
Fix,GPS,40.8924573194,29.3788132723,188.0,1.06,2.5,96.0,1774983891000,0.2,5.4,34924644565868,2.0,0,,,
Fix,GPS,40.8924554754,29.3788280245,187.0,1.18,2.5,97.5,1774983892000,0.21,5.3,34925627603675,2.0,0,,,
Fix,GPS,40.8924522903,29.3788424414,186.0,1.11,2.5,92.2,1774983893000,0.28,6.0,34926631874482,2.0,0,,,
Fix,GPS,40.8924512006,29.3788550142,187.0,1.22,2.5,94.8,1774983894000,0.28,6.1,34927632611558,2.0,0,,,
Fix,GPS,40.8924504882,29.3788671680,187.0,0.98999995,3.0,94.2,1774983895000,0.26,7.1,34928625477019,2.0,0,,,
Fix,GPS,40.8924502367,29.3788802437,186.0,1.09,2.5,95.8,1774983896000,0.21,5.4,34929627990634,2.0,0,,,
Fix,GPS,40.8924498595,29.3788948283,185.0,1.01,2.5,96.1,1774983897000,0.23,6.1,34930618925710,2.0,0,,,
Fix,GPS,40.8924458781,29.3789057247,186.0,1.02,2.5,100.1,1774983898000,0.22,6.3,34931637610247,2.0,0,,,
Fix,GPS,40.8924442437,29.3789189681,186.0,1.0799999,3.0,103.2,1774983899000,0.46,9.1,34932637430247,2.0,0,,,
Fix,GPS,40.8924463391,29.3789352290,186.0,1.0799999,3.0,100.6,1774983900000,0.27,8.4,34933639321515,2.0,0,,,
Fix,GPS,40.8924457524,29.3789498974,186.0,1.15,3.0,100.5,1774983901000,0.22,6.6,34934637785745,2.0,0,,,
Fix,GPS,40.8924443694,29.3789634760,185.0,0.96999997,3.0,91.2,1774983902000,0.28,7.7,34935627008360,2.0,0,,,
Fix,GPS,40.8924441598,29.3789821677,185.0,1.16,2.5,85.2,1774983903000,0.32,8.2,34936623146052,2.0,0,,,
Fix,GPS,40.8924459619,29.3789914716,185.0,1.02,3.0,82.0,1774983904000,0.38,9.5,34937640547935,2.0,0,,,
Fix,GPS,40.8924447047,29.3790019490,185.0,1.02,3.0,86.3,1774983905000,0.21,6.3,34938609946550,2.0,0,,,
Fix,GPS,40.8924459200,29.3790096603,185.0,1.03,3.0,91.9,1774983906000,0.29,7.5,34939633838473,2.0,0,,,
Fix,GPS,40.8924469259,29.3790247478,185.0,1.06,3.0,86.0,1774983907000,0.22,6.5,34940621128972,2.0,0,,,
Fix,GPS,40.8924514521,29.3790394999,185.0,0.89,3.0,84.9,1774983908000,0.23,7.2,34941635131510,2.0,0,,,
Fix,GPS,40.8924550144,29.3790532462,185.0,0.93,2.5,82.7,1774983909000,0.15,4.7,34942636833355,2.0,0,,,
Fix,GPS,40.8924529608,29.3790616281,184.0,0.96999997,3.0,87.7,1774983910000,0.17,5.0,34943645417508,2.0,0,,,
Fix,GPS,40.8924531704,29.3790766317,184.0,1.06,2.5,81.8,1774983911000,0.16,3.9,34944636146546,2.0,0,,,
Fix,GPS,40.8924576128,29.3790841755,185.0,0.85999995,2.5,84.2,1774983912000,0.22,5.3,34945656431237,2.0,0,,,
Fix,GPS,40.8924600016,29.3790970836,185.0,1.03,2.5,88.8,1774983913000,0.17,4.3,34946635157968,2.0,0,,,
Fix,GPS,40.8924597921,29.3791073095,185.0,1.15,2.5,96.1,1774983914000,0.18,3.0,34947637184698,2.0,0,,,
Fix,GPS,40.8924612170,29.3791213073,185.0,1.0699999,2.5,103.7,1774983915000,0.24,4.9,34948632716620,2.0,0,,,
Fix,GPS,40.8924580738,29.3791272584,185.0,1.09,3.0,142.1,1774983916000,0.29,5.8,34949633287042,2.0,0,,,
Fix,GPS,40.8924556011,29.3791380711,185.0,1.04,2.5,155.4,1774983917000,0.16,3.2,34950625899888,2.0,0,,,
Fix,GPS,40.8924494404,29.3791381549,186.0,1.12,2.5,155.1,1774983918000,0.14,2.6,34951649729541,2.0,0,,,
Fix,GPS,40.8924411424,29.3791389093,186.0,1.13,2.5,155.4,1774983919000,0.19,3.3,34952629117579,2.0,0,,,
Fix,GPS,40.8924318384,29.3791443575,186.0,1.05,2.5,155.4,1774983920000,0.21,3.5,34953657455847,2.0,0,,,
Fix,GPS,40.8924235404,29.3791460339,187.0,1.03,2.5,154.7,1774983921000,0.19,3.7,34954633744385,2.0,0,,,
Fix,GPS,40.8924187627,29.3791498058,187.0,0.7,2.5,161.6,1774983922000,0.28,6.5,34955627960500,2.0,0,,,
Fix,GPS,40.8924147813,29.3791503087,187.0,0.35,2.0,165.7,1774983923000,0.19,10.5,34956635850768,2.0,0,,,
Fix,GPS,40.8924130630,29.3791499734,187.0,0.24,2.5,168.7,1774983924000,0.26,15.4,34957627309613,2.0,0,,,
Fix,GPS,40.8924130630,29.3791516498,187.0,0.45999998,2.5,172.6,1774983925000,0.3,20.1,34958638847344,2.0,0,,,
Fix,GPS,40.8924113028,29.3791537452,187.0,0.39999998,2.5,176.6,1774983926000,0.22,23.5,34959621646074,2.0,0,,,
Fix,GPS,40.8924050163,29.3791539967,187.0,0.69,2.5,174.1,1774983927000,0.32,11.6,34960622691304,2.0,0,,,
Fix,GPS,40.8923986880,29.3791529909,187.0,0.72999996,2.5,172.0,1774983928000,0.39,11.4,34961630090841,2.0,0,,,
Fix,GPS,40.8923916891,29.3791550864,186.0,0.96999997,2.5,172.0,1774983929000,0.22,5.2,34962628361302,2.0,0,,,
Fix,GPS,40.8923825528,29.3791553378,186.0,0.84,2.5,182.7,1774983930000,0.24,5.1,34963635058378,2.0,0,,,
Fix,GPS,40.8923771884,29.3791495543,187.0,0.76,2.5,185.4,1774983931000,0.21,5.4,34964635072185,2.0,0,,,
Fix,GPS,40.8923719078,29.3791480456,187.0,0.35999998,2.5,189.0,1774983932000,0.27,9.5,34965632341723,2.0,0,,,
Fix,GPS,40.8923662500,29.3791453633,188.0,0.45,2.5,188.8,1774983933000,0.21,13.7,34966634716761,2.0,0,,,
Fix,GPS,40.8923597960,29.3791502248,188.0,0.71,2.5,144.7,1774983934000,0.28,8.6,34967620460991,2.0,0,,,
Fix,GPS,40.8923570719,29.3791548349,189.0,0.94,2.0,138.0,1774983935000,0.35,8.3,34968616834490,2.0,0,,,
Fix,GPS,40.8923453791,29.3791603670,189.0,1.0,2.5,138.2,1774983936000,0.27,6.3,34969633417643,2.0,0,,,
Fix,GPS,40.8923362847,29.3791669887,189.0,1.13,3.0,126.3,1774983937000,0.43,6.8,34970642790027,3.0,0,,,
Fix,GPS,40.8923287410,29.3791752867,190.0,0.94,2.5,141.4,1774983938000,0.25,6.4,34971621241565,2.0,0,,,
Fix,GPS,40.8923214069,29.3791819084,190.0,1.0,2.5,163.9,1774983939000,0.25,4.9,34972631328987,2.0,0,,,
Fix,GPS,40.8923162939,29.3791882787,190.0,1.04,2.5,162.5,1774983940000,0.3,5.6,34973633737333,2.0,0,,,
Fix,GPS,40.8923082892,29.3791897874,190.0,0.94,2.5,162.8,1774983941000,0.18,4.5,34974645100717,3.0,0,,,
Fix,GPS,40.8923001587,29.3791928049,190.0,1.05,2.5,170.1,1774983942000,0.2,4.4,34975620441601,2.0,0,,,
Fix,GPS,40.8922911901,29.3791940622,190.0,0.96999997,2.5,169.7,1774983943000,0.29,5.6,34976613545792,2.0,0,,,
Fix,GPS,40.8922810480,29.3791933078,189.0,0.82,2.5,170.6,1774983944000,0.25,5.9,34977624189291,2.0,0,,,
Fix,GPS,40.8922718279,29.3791940622,189.0,0.63,2.5,169.3,1774983945000,0.24,6.9,34978651553983,2.0,0,,,
Fix,GPS,40.8922628593,29.3791953195,189.0,1.02,2.5,170.5,1774983946000,0.21,4.8,34979639140790,2.0,0,,,
Fix,GPS,40.8922546031,29.3791974150,189.0,0.78999996,2.5,167.3,1774983947000,0.2,4.8,34980623970866,2.0,0,,,
Fix,GPS,40.8922464307,29.3791992590,189.0,0.74,2.5,173.7,1774983948000,0.21,5.6,34981661655212,2.0,0,,,
Fix,GPS,40.8922403539,29.3792022765,190.0,1.25,2.5,158.6,1774983949000,0.22,4.2,34982639043096,2.0,0,,,
Fix,GPS,40.8922328101,29.3792046234,190.0,1.16,2.5,154.1,1774983950000,0.17,3.5,34983644676710,2.0,0,,,
Fix,GPS,40.8922213688,29.3792116642,190.0,1.01,2.5,164.5,1774983951000,0.18,3.8,34984636926248,2.0,0,,,
Fix,GPS,40.8922113106,29.3792163581,190.0,1.14,2.5,169.5,1774983952000,0.15,2.5,34985631324978,2.0,0,,,
Fix,GPS,40.8922005398,29.3792204652,190.0,1.01,2.0,171.4,1774983953000,0.15,3.0,34986625840631,2.0,0,,,
Fix,GPS,40.8921883442,29.3792249076,190.0,1.13,2.5,166.6,1774983954000,0.24,4.3,34987636555323,2.0,0,,,
Fix,GPS,40.8921784954,29.3792285118,190.0,1.13,2.5,156.1,1774983955000,0.26,4.9,34988639387668,2.0,0,,,
Fix,GPS,40.8921691496,29.3792316969,189.0,1.03,2.5,158.0,1774983956000,0.22,4.5,34989617267744,2.0,0,,,
Fix,GPS,40.8921595942,29.3792402465,189.0,1.14,2.5,157.9,1774983957000,0.23,4.3,34990628023282,2.0,0,,,
Fix,GPS,40.8921489073,29.3792503886,190.0,1.0799999,2.0,158.3,1774983958000,0.16,3.1,34991632795089,2.0,0,,,
Fix,GPS,40.8921414055,29.3792574294,189.0,1.04,2.0,160.5,1774983959000,0.21,4.4,34992637895973,2.0,0,,,
Fix,GPS,40.8921300480,29.3792561721,189.0,0.94,2.0,162.0,1774983960000,0.19,4.6,34993638126934,2.0,0,,,
Fix,GPS,40.8921222109,29.3792553339,190.0,0.91999996,2.0,167.6,1774983961000,0.23,5.7,34994639113164,2.0,0,,,
Fix,GPS,40.8921138709,29.3792570103,189.0,1.24,2.0,168.3,1774983962000,0.23,4.6,34995626431894,2.0,0,,,
Fix,GPS,40.8921027230,29.3792583514,189.0,1.03,2.5,171.9,1774983963000,0.17,3.7,34996639644855,2.0,0,,,
Fix,GPS,40.8920906112,29.3792670686,189.0,1.03,2.5,170.1,1774983964000,0.14,2.9,34997637883393,2.0,0,,,
Fix,GPS,40.8920829417,29.3792703375,189.0,1.26,2.5,161.4,1774983965000,0.22,3.7,34998630841200,2.0,0,,,
Fix,GPS,40.8920732187,29.3792743608,189.0,1.09,2.5,161.3,1774983966000,0.18,3.7,34999643236545,2.0,0,,,
Fix,GPS,40.8920638310,29.3792797253,189.0,0.96999997,2.0,159.4,1774983967000,0.2,4.4,35000621461544,2.0,0,,,
Fix,GPS,40.8920544013,29.3792839162,189.0,1.06,2.0,163.7,1774983968000,0.14,2.8,35001643970082,2.0,0,,,
Fix,GPS,40.8920437982,29.3792912085,189.0,1.13,2.0,162.8,1774983969000,0.21,4.0,35002634551312,2.0,0,,,
Fix,GPS,40.8920344105,29.3792972434,189.0,1.11,2.0,163.4,1774983970000,0.16,2.9,35003646388657,2.0,0,,,
Fix,GPS,40.8920261962,29.3793021049,190.0,1.04,2.5,164.0,1774983971000,0.13,2.9,35004633056618,2.0,0,,,
Fix,GPS,40.8920171857,29.3793052062,189.0,1.16,2.5,162.0,1774983972000,0.27,4.6,35005632484425,2.0,0,,,
Fix,GPS,40.8920049900,29.3793112412,189.0,1.1,2.5,163.9,1774983973000,0.24,4.6,35006620853348,2.0,0,,,
Fix,GPS,40.8919949736,29.3793155998,189.0,1.0799999,2.5,166.3,1774983974000,0.34,6.0,35007611464039,2.0,0,,,
Fix,GPS,40.8919866756,29.3793155998,189.0,1.03,2.5,165.0,1774983975000,0.35,7.2,35008624709346,2.0,0,,,
Fix,GPS,40.8919790061,29.3793145102,189.0,0.96,2.5,216.1,1774983976000,0.22,5.3,35009625270422,2.0,0,,,
Fix,GPS,40.8919726778,29.3793113250,188.0,1.01,2.5,199.5,1774983977000,0.3,6.3,35010637155960,2.0,0,,,
Fix,GPS,40.8919634577,29.3793124985,188.0,0.83,2.5,190.1,1774983978000,0.25,5.8,35011628260152,2.0,0,,,
Fix,GPS,40.8919541957,29.3793176115,188.0,1.24,2.5,174.0,1774983979000,0.28,5.9,35012614423651,2.0,0,,,
Fix,GPS,40.8919414552,29.3793214671,188.0,1.09,3.0,166.0,1774983980000,0.29,6.0,35013618865035,2.0,0,,,
Fix,GPS,40.8919323608,29.3793215510,187.0,0.96,3.0,163.7,1774983981000,0.22,4.5,35014624701380,2.0,0,,,
Fix,GPS,40.8919247752,29.3793259095,188.0,0.94,2.5,162.2,1774983982000,0.26,5.6,35015614559303,2.0,0,,,
Fix,GPS,40.8919160999,29.3793320283,188.0,0.91999996,2.5,158.2,1774983983000,0.33,7.4,35016635685494,2.0,0,,,
Fix,GPS,40.8919048263,29.3793404102,189.0,0.97999996,2.5,163.9,1774983984000,0.23,5.5,35017627271032,2.0,0,,,
Fix,GPS,40.8918912895,29.3793434277,189.0,1.0,2.5,165.0,1774983985000,0.27,5.7,35018623831762,2.0,0,,,
Fix,GPS,40.8918807702,29.3793485407,189.0,0.62,3.0,167.7,1774983986000,0.3,7.4,35019634162031,2.0,0,,,
Fix,GPS,40.8918707957,29.3793526478,189.0,0.84,2.5,170.2,1774983987000,0.52,10.7,35020615511299,2.0,0,,,
Fix,GPS,40.8918604022,29.3793594372,189.0,0.78999996,3.0,169.3,1774983988000,0.28,9.3,35021627350260,2.0,0,,,
Fix,GPS,40.8918477036,29.3793624546,190.0,0.93,2.5,179.0,1774983989000,0.4,9.9,35022634385375,2.0,0,,,
Fix,GPS,40.8918357594,29.3793687411,190.0,0.83,3.0,175.5,1774983990000,0.46,11.6,35023633333028,2.0,0,,,
Fix,GPS,40.8918299340,29.3793782964,191.0,1.15,2.5,160.0,1774983991000,0.21,3.9,35024645860912,2.0,0,,,
Fix,GPS,40.8918179059,29.3793868460,191.0,1.06,3.0,160.4,1774983992000,0.32,5.5,35025626247142,3.0,0,,,
Fix,GPS,40.8918054588,29.3793962337,191.0,1.09,3.0,156.7,1774983993000,0.46,8.1,35026632648333,3.0,0,,,
Fix,GPS,40.8917995915,29.3794029392,192.0,0.71,3.0,149.0,1774983994000,0.64,11.8,35027627259140,3.0,0,,,
Fix,GPS,40.8917917125,29.3794115726,192.0,1.0699999,3.0,162.3,1774983995000,0.29,6.3,35028641057217,3.0,0,,,
Fix,GPS,40.8917817799,29.3794178590,192.0,1.06,3.0,163.5,1774983996000,0.19,4.1,35029632704177,3.0,0,,,
Fix,GPS,40.8917744458,29.3794247322,192.0,1.05,3.0,159.7,1774983997000,0.28,5.3,35030632366792,3.0,0,,,
Fix,GPS,40.8917643037,29.3794286717,191.0,0.85999995,2.5,158.0,1774983998000,0.25,6.2,35031619692945,3.0,0,,,
Fix,GPS,40.8917536167,29.3794339523,192.0,1.36,2.5,154.7,1774983999000,0.27,4.7,35032636125714,2.0,0,,,
Fix,GPS,40.8917408762,29.3794411607,192.0,1.14,2.5,168.2,1774984000000,0.37,5.1,35033628380175,3.0,0,,,
Fix,GPS,40.8917287644,29.3794385623,192.0,1.0,2.5,165.8,1774984001000,0.36,6.6,35034629974635,2.0,0,,,
Fix,GPS,40.8917183708,29.3794451840,192.0,1.17,2.5,157.6,1774984002000,0.2,4.6,35035632611404,3.0,0,,,
Fix,GPS,40.8917086897,29.3794497941,191.0,0.93,3.0,163.4,1774984003000,0.25,5.6,35036644427326,3.0,0,,,
Fix,GPS,40.8917000983,29.3794541527,191.0,1.18,2.0,167.4,1774984004000,0.41,7.9,35037627484941,2.0,0,,,
Fix,GPS,40.8916923031,29.3794607744,190.0,0.74,3.0,153.3,1774984005000,0.31,8.1,35038636668325,3.0,0,,,
Fix,GPS,40.8916859329,29.3794689048,190.0,1.3199999,2.5,150.2,1774984006000,0.36,7.8,35039629814786,2.0,0,,,
Fix,GPS,40.8916762518,29.3794757780,190.0,1.17,3.0,158.9,1774984007000,0.33,7.7,35040614839823,3.0,0,,,
Fix,GPS,40.8916684566,29.3794801366,190.0,0.7,3.0,167.9,1774984008000,0.32,8.5,35041628379861,3.0,0,,,
Fix,GPS,40.8916612063,29.3794849981,189.0,1.35,2.5,156.4,1774984009000,0.4,7.9,35042643185130,2.0,0,,,
Fix,GPS,40.8916534111,29.3794933800,189.0,1.03,3.0,160.9,1774984010000,0.35,8.1,35043637960014,3.0,0,,,
Fix,GPS,40.8916451130,29.3794943020,188.0,0.82,2.5,168.7,1774984011000,0.24,6.7,35044634181167,2.0,0,,,
Fix,GPS,40.8916397486,29.3794961460,188.0,1.1999999,2.5,165.0,1774984012000,0.3,5.8,35045634454358,2.0,0,,,
Fix,GPS,40.8916327078,29.3795023486,188.0,1.1899999,2.5,162.8,1774984013000,0.19,3.2,35046625485473,2.0,0,,,
Fix,GPS,40.8916229848,29.3795082998,188.0,1.1899999,2.5,166.0,1774984014000,0.21,3.6,35047628765895,2.0,0,,,
Fix,GPS,40.8916149382,29.3795126583,187.0,1.11,2.5,169.7,1774984015000,0.26,4.6,35048613780510,2.0,0,,,
Fix,GPS,40.8916046703,29.3795165140,187.0,1.1899999,2.5,177.2,1774984016000,0.21,3.6,35049627944086,2.0,0,,,
Fix,GPS,40.8915928518,29.3795213755,187.0,1.1999999,2.0,171.4,1774984017000,0.24,3.9,35050628961778,2.0,0,,,
Fix,GPS,40.8915804466,29.3795243092,187.0,1.15,2.5,181.7,1774984018000,0.21,3.9,35051641375546,2.0,0,,,
Fix,GPS,40.8915688796,29.3795226328,187.0,1.06,2.0,188.8,1774984019000,0.23,4.3,35052622461776,2.0,0,,,
Fix,GPS,40.8915581927,29.3795186933,187.0,1.12,2.5,194.0,1774984020000,0.19,3.6,35053624719506,2.0,0,,,
Fix,GPS,40.8915483858,29.3795164302,187.0,1.16,2.0,194.5,1774984021000,0.28,4.6,35054628793006,2.0,0,,,
Fix,GPS,40.8915408421,29.3795169331,187.0,1.03,2.0,202.4,1774984022000,0.21,3.9,35055642918966,2.0,0,,,
Fix,GPS,40.8915318316,29.3795088027,187.0,1.0,2.5,220.7,1774984023000,0.24,4.7,35056633030081,2.0,0,,,
Fix,GPS,40.8915303228,29.3795010075,187.0,0.85999995,2.0,240.5,1774984024000,0.21,5.1,35057640028927,2.0,0,,,
Fix,GPS,40.8915307838,29.3794994149,186.0,0.29999998,2.0,258.7,1774984025000,0.19,9.0,35058625661926,2.0,0,,,
Fix,GPS,40.8915311191,29.3794992473,186.0,0.0,2.0,,1774984026000,0.05,,35059637265848,2.0,0,,,
Fix,GPS,40.8915311191,29.3794992473,186.0,0.0,2.0,,1774984027000,0.03,,35060645778886,2.0,0,,,
Fix,GPS,40.8915311191,29.3794992473,186.0,0.0,2.5,,1774984028000,0.06,,35061641645039,2.0,0,,,
Fix,GPS,40.8915311191,29.3794992473,186.0,0.0,2.5,,1774984029000,0.02,,35062618883192,2.0,0,,,
Fix,GPS,40.8915311191,29.3794992473,186.0,0.0,2.5,,1774984030000,0.02,,35063616077461,3.0,0,,,
Fix,GPS,40.8915311191,29.3794992473,186.0,0.0,2.5,,1774984031000,0.01,,35064636699306,2.0,0,,,
Fix,GPS,40.8915311191,29.3794992473,186.0,0.0,2.5,,1774984032000,0.01,,35065614447421,2.0,0,,,
Fix,GPS,40.8915311191,29.3794992473,186.0,0.0,2.5,,1774984033000,0.01,,35066614661497,2.0,0,,,
Fix,GPS,40.8915311191,29.3794992473,186.0,0.0,2.5,,1774984034000,0.12,,35067623382650,2.0,0,,,
Fix,GPS,40.8915311191,29.3794992473,186.0,0.0,2.5,,1774984035000,0.02,,35068617631226,2.0,0,,,
Fix,GPS,40.8915311191,29.3794992473,186.0,0.0,2.5,,1774984036000,0.39,,35069631161726,2.0,0,,,
Fix,GPS,40.8915311191,29.3794992473,186.0,0.0,2.5,,1774984037000,0.01,,35070616027033,3.0,0,,,
Fix,GPS,40.8915311191,29.3794992473,186.0,0.0,2.5,,1774984038000,0.01,,35071623230147,2.0,0,,,
Fix,GPS,40.8915311191,29.3794992473,186.0,0.0,2.5,,1774984039000,0.01,,35072614073762,2.0,0,,,
Fix,GPS,40.8915311191,29.3794992473,186.0,0.0,2.5,,1774984040000,0.01,,35073612663761,2.0,0,,,
Fix,GPS,40.8915311191,29.3794992473,186.0,0.0,2.5,,1774984041000,0.02,,35074610146414,3.0,0,,,
Fix,GPS,40.8915311191,29.3794992473,186.0,0.0,2.5,,1774984042000,0.01,,35075624775644,2.0,0,,,
Fix,GPS,40.8915311191,29.3794992473,186.0,0.0,2.5,,1774984043000,0.01,,35076629288221,2.0,0,,,
Fix,GPS,40.8915311191,29.3794992473,186.0,0.0,2.0,,1774984044000,0.12,,35077621709297,2.0,0,,,
Fix,GPS,40.8915311191,29.3794992473,186.0,0.0,2.5,,1774984045000,0.02,,35078625360027,2.0,0,,,
Fix,GPS,40.8915311191,29.3794992473,186.0,0.0,2.5,,1774984046000,0.03,,35079623220295,2.0,0,,,
Fix,GPS,40.8915311191,29.3794992473,186.0,0.0,2.5,,1774984047000,0.01,,35080623671218,2.0,0,,,
Fix,GPS,40.8915311191,29.3794992473,186.0,0.0,2.0,,1774984048000,0.12,,35081621676832,2.0,0,,,
Fix,GPS,40.8915311191,29.3794992473,186.0,0.0,2.5,,1774984049000,0.01,,35082626857524,2.0,0,,,
Fix,GPS,40.8915311191,29.3794992473,186.0,0.0,2.5,,1774984050000,0.12,,35083611307793,2.0,0,,,
Fix,GPS,40.8915311191,29.3794992473,186.0,0.0,2.5,,1774984051000,0.02,,35084622922253,2.0,0,,,
Fix,GPS,40.8915311191,29.3794992473,186.0,0.0,2.5,,1774984052000,0.01,,35085610625522,2.0,0,,,
Fix,GPS,40.8915311191,29.3794992473,186.0,0.0,2.0,,1774984053000,0.02,,35086638276637,2.0,0,,,
Fix,GPS,40.8915311191,29.3794992473,186.0,0.0,2.5,,1774984054000,0.01,,35087614405867,2.0,0,,,
Fix,GPS,40.8915311191,29.3794992473,186.0,0.0,2.5,,1774984055000,0.02,,35088608790789,2.0,0,,,
Fix,GPS,40.8915311191,29.3794992473,186.0,0.0,2.5,,1774984056000,0.03,,35089615466981,2.0,0,,,
Fix,GPS,40.8915311191,29.3794992473,186.0,0.0,2.5,,1774984057000,0.02,,35090621254788,2.0,0,,,
Fix,GPS,40.8915311191,29.3794992473,186.0,0.0,3.0,,1774984058000,0.02,,35091628905248,3.0,0,,,
Fix,GPS,40.8915311191,29.3794992473,186.0,0.0,2.5,,1774984059000,0.01,,35092620841786,2.0,0,,,
Fix,GPS,40.8915311191,29.3794992473,186.0,0.0,2.5,,1774984060000,0.01,,35093621787324,2.0,0,,,
Fix,GPS,40.8915311191,29.3794992473,186.0,0.0,3.0,,1774984061000,0.03,,35094631817092,3.0,0,,,
Fix,GPS,40.8915311191,29.3794992473,186.0,0.0,2.5,,1774984062000,0.04,,35095608697361,2.0,0,,,
Fix,GPS,40.8915311191,29.3794992473,186.0,0.0,3.0,,1774984063000,0.04,,35096611970745,3.0,0,,,
Fix,GPS,40.8915311191,29.3794992473,186.0,0.0,2.5,,1774984064000,0.02,,35097607314975,3.0,0,,,
Fix,GPS,40.8915311191,29.3794992473,186.0,0.0,2.5,,1774984065000,0.03,,35098631400013,2.0,0,,,
Fix,GPS,40.8915311191,29.3794992473,186.0,0.0,2.5,,1774984066000,0.02,,35099632474589,2.0,0,,,
Fix,GPS,40.8915311191,29.3794992473,186.0,0.0,2.5,,1774984067000,0.03,,35100612504780,2.0,0,,,
Fix,GPS,40.8915311191,29.3794992473,186.0,0.0,2.5,,1774984068000,0.04,,35101647463972,2.0,0,,,
Fix,GPS,40.8915311191,29.3794992473,186.0,0.0,2.5,,1774984069000,0.04,,35102607615164,2.0,0,,,
Fix,GPS,40.8915311191,29.3794992473,186.0,0.0,3.0,,1774984070000,0.02,,35103624499048,3.0,0,,,
Fix,GPS,40.8915311191,29.3794992473,186.0,0.0,2.5,,1774984071000,0.01,,35104607773355,2.0,0,,,
Fix,GPS,40.8915311191,29.3794992473,186.0,0.0,2.5,,1774984072000,0.03,,35105611000469,3.0,0,,,
Fix,GPS,40.8915311191,29.3794992473,186.0,0.0,2.5,,1774984073000,0.02,,35106607627315,2.0,0,,,
Fix,GPS,40.8915311191,29.3794992473,186.0,0.0,2.5,,1774984074000,0.03,,35107618001737,2.0,0,,,
