# 
# Header Description:
# 
# Version: v3.1.1.2 Platform: 16 Manufacturer: samsung Model: SM-A176B GNSS Hardware Model Name: S.LSI,K056,SPOTNAV_4.11.1_25_E87
# 
# Raw,utcTimeMillis,TimeNanos,LeapSecond,TimeUncertaintyNanos,FullBiasNanos,BiasNanos,BiasUncertaintyNanos,DriftNanosPerSecond,DriftUncertaintyNanosPerSecond,HardwareClockDiscontinuityCount,Svid,TimeOffsetNanos,State,ReceivedSvTimeNanos,ReceivedSvTimeUncertaintyNanos,Cn0DbHz,PseudorangeRateMetersPerSecond,PseudorangeRateUncertaintyMetersPerSecond,AccumulatedDeltaRangeState,AccumulatedDeltaRangeMeters,AccumulatedDeltaRangeUncertaintyMeters,CarrierFrequencyHz,CarrierCycles,CarrierPhase,CarrierPhaseUncertainty,MultipathIndicator,SnrInDb,ConstellationType,AgcDb,BasebandCn0DbHz,FullInterSignalBiasNanos,FullInterSignalBiasUncertaintyNanos,SatelliteInterSignalBiasNanos,SatelliteInterSignalBiasUncertaintyNanos,CodeType,ChipsetElapsedRealtimeNanos,IsFullTracking,SvPositionEcefXMeters,SvPositionEcefYMeters,SvPositionEcefZMeters,SvVelocityEcefXMetersPerSecond,SvVelocityEcefYMetersPerSecond,SvVelocityEcefZMetersPerSecond,SvClockBiasMeters,SvClockDriftMetersPerSecond,KlobucharAlpha0,KlobucharAlpha1,KlobucharAlpha2,KlobucharAlpha3,KlobucharBeta0,KlobucharBeta1,KlobucharBeta2,KlobucharBeta3
# 
# UncalAccel,utcTimeMillis,elapsedRealtimeNanos,UncalAccelXMps2,UncalAccelYMps2,UncalAccelZMps2,BiasXMps2,BiasYMps2,BiasZMps2,CalibrationAccuracy
# 
# Accel,utcTimeMillis,elapsedRealtimeNanos,AccelXMps2,AccelYMps2,AccelZMps2,CalibrationAccuracy
# 
# UncalGyro,utcTimeMillis,elapsedRealtimeNanos,UncalGyroXRadPerSec,UncalGyroYRadPerSec,UncalGyroZRadPerSec,DriftXRadPerSec,DriftYRadPerSec,DriftZRadPerSec,CalibrationAccuracy
# 
# Gyro,utcTimeMillis,elapsedRealtimeNanos,GyroXRadPerSec,GyroYRadPerSec,GyroZRadPerSec,CalibrationAccuracy
# 
# UncalMag,utcTimeMillis,elapsedRealtimeNanos,UncalMagXMicroT,UncalMagYMicroT,UncalMagZMicroT,BiasXMicroT,BiasYMicroT,BiasZMicroT,CalibrationAccuracy
# 
# Mag,utcTimeMillis,elapsedRealtimeNanos,MagXMicroT,MagYMicroT,MagZMicroT,CalibrationAccuracy
# 
# Pressure,utcTimeMillis,elapsedRealtimeNanos,PressureHpa,CalibrationAccuracy
# 
# OrientationDeg,utcTimeMillis,elapsedRealtimeNanos,yawDeg,rollDeg,pitchDeg,CalibrationAccuracy
# 
# Fix,Provider,LatitudeDegrees,LongitudeDegrees,AltitudeMeters,SpeedMps,AccuracyMeters,BearingDegrees,UnixTimeMillis,SpeedAccuracyMps,BearingAccuracyDegrees,elapsedRealtimeNanos,VerticalAccuracyMeters,MockLocation,NumberOfUsedSignals,VerticalSpeedAccuracyMps,SolutionType
# 
# Nav,Svid,Type,Status,MessageId,Sub-messageId,Data(Bytes)
# 
# Status,UnixTimeMillis,SignalCount,SignalIndex,ConstellationType,Svid,CarrierFrequencyHz,Cn0DbHz,AzimuthDegrees,ElevationDegrees,UsedInFix,HasAlmanacData,HasEphemerisData,BasebandCn0DbHz
# 
# Agc,utcTimeMillis,TimeNanos,LeapSecond,TimeUncertaintyNanos,FullBiasNanos,BiasNanos,BiasUncertaintyNanos,DriftNanosPerSecond,DriftUncertaintyNanosPerSecond,HardwareClockDiscontinuityCount,AgcDb,CarrierFrequencyHz,ConstellationType
# 
# GameRotationVector,utcTimeMillis,elapsedRealtimeNanos,x,y,z,w
# 
Status,,37,0,1,3,1575420000,43.60,17.0,71.6,1,0,1,38.6
Status,,37,1,1,4,1575420000,36.70,251.3,64.2,1,0,1,31.7
Status,,37,2,1,1,1575420000,38.90,171.1,55.0,1,0,1,33.9
Status,,37,3,1,31,1575420000,41.80,73.6,43.3,1,0,1,36.8
Status,,37,4,1,9,1575420000,24.40,245.0,30.1,0,0,1,19.4
Status,,37,5,1,28,1575420000,38.60,47.0,24.5,1,0,1,33.6
Status,,37,6,1,2,1575420000,40.30,164.1,23.8,1,0,1,35.3
Status,,37,7,1,17,1575420000,27.40,268.1,21.3,1,0,1,22.4
Status,,37,8,1,19,1575420000,40.90,296.2,18.3,1,0,1,35.9
Status,,37,9,1,6,1575420000,35.90,319.7,14.9,1,0,1,30.9
Status,,37,10,1,26,1575420000,44.00,98.8,6.0,1,0,1,39.0
Status,,37,11,3,21,1604250000,37.70,272.5,61.4,1,0,1,32.7
Status,,37,12,3,6,1599750000,42.20,306.4,58.1,1,0,1,37.2
Status,,37,13,3,5,1602562600,37.90,36.6,42.0,1,0,1,32.9
Status,,37,14,3,20,1603125000,35.10,191.0,40.7,1,0,1,30.1
Status,,37,15,3,15,1602000000,38.50,84.5,21.0,1,0,1,33.5
Status,,37,16,3,22,1600312400,39.60,331.7,14.2,1,0,1,34.6
Status,,37,17,3,14,1598062500,28.70,33.2,12.9,1,0,1,23.7
Status,,37,18,3,7,1604812500,34.10,258.6,10.8,1,0,1,29.1
Status,,37,19,3,16,1601437400,34.20,134.0,5.5,1,0,1,29.2
Status,,37,20,6,34,1575420000,36.70,202.8,79.0,1,0,1,31.7
Status,,37,21,6,5,1575420000,31.80,42.7,75.5,0,0,1,26.8
Status,,37,22,6,3,1575420000,26.80,233.2,48.1,1,0,1,21.8
Status,,37,23,6,15,1575420000,39.40,313.8,39.3,1,0,1,34.4
Status,,37,24,6,36,1575420000,41.70,148.8,29.7,1,0,1,36.7
Status,,37,25,5,32,1575420000,45.70,332.0,69.9,1,0,1,40.7
Status,,37,26,5,6,1561098000,17.00,68.3,39.0,0,0,1,12.0
Status,,37,27,5,16,1561098000,38.00,58.5,34.7,1,0,1,33.0
Status,,37,28,5,41,1575420000,45.40,64.1,34.2,1,0,1,40.4
Status,,37,29,5,29,1575420000,41.50,307.9,24.5,1,0,1,36.5
Status,,37,30,5,23,1575420000,44.80,122.2,23.0,1,0,1,39.8
Status,,37,31,5,25,1575420000,41.10,70.2,22.8,1,0,1,36.1
Status,,37,32,5,2,1561098000,41.90,112.0,20.2,1,0,1,36.9
Status,,37,33,5,13,1561098000,42.90,96.1,11.6,1,0,1,37.9
Status,,37,34,5,9,1561098000,35.70,85.5,43.3,0,1,0,30.7
Status,,37,35,5,30,1561098000,14.20,248.4,43.8,0,0,1,9.2
Status,,37,36,5,39,1561098000,33.00,50.5,30.7,0,1,1,28.0
Fix,GPS,40.8931373851,29.3752898555,171.0,0.0,4.0,,1774983517000,0.01,,34550621319020,4.0,0,,,
Status,1774983517000,37,0,1,3,1575420000,43.50,17.0,71.6,1,0,1,38.5
Status,1774983517000,37,1,1,4,1575420000,36.50,251.3,64.2,1,0,1,31.5
Status,1774983517000,37,2,1,1,1575420000,38.90,171.1,55.0,1,0,1,33.9
Status,1774983517000,37,3,1,31,1575420000,41.60,73.6,43.3,1,0,1,36.6
Status,1774983517000,37,4,1,9,1575420000,24.40,245.0,30.1,0,0,1,19.4
Status,1774983517000,37,5,1,28,1575420000,38.00,47.0,24.5,1,0,1,33.0
Status,1774983517000,37,6,1,2,1575420000,40.20,164.1,23.8,1,0,1,35.2
Status,1774983517000,37,7,1,17,1575420000,27.30,268.1,21.3,1,0,1,22.3
Status,1774983517000,37,8,1,19,1575420000,41.20,296.2,18.3,1,0,1,36.2
Status,1774983517000,37,9,1,6,1575420000,36.00,319.7,14.9,1,0,1,31.0
Status,1774983517000,37,10,1,26,1575420000,43.90,98.8,6.0,1,0,1,38.9
Status,1774983517000,37,11,3,21,1604250000,37.60,272.5,61.4,1,0,1,32.6
Status,1774983517000,37,12,3,6,1599750000,42.00,306.4,58.1,1,0,1,37.0
Status,1774983517000,37,13,3,5,1602562600,37.70,36.6,42.0,1,0,1,32.7
Status,1774983517000,37,14,3,20,1603125000,35.00,191.0,40.7,1,0,1,30.0
Status,1774983517000,37,15,3,15,1602000000,38.40,84.5,21.0,1,0,1,33.4
Status,1774983517000,37,16,3,22,1600312400,39.50,331.7,14.2,1,0,1,34.5
Status,1774983517000,37,17,3,14,1598062500,28.60,33.2,12.9,1,0,1,23.6
Status,1774983517000,37,18,3,7,1604812500,34.30,258.6,10.8,1,0,1,29.3
Status,1774983517000,37,19,3,16,1601437400,34.20,134.0,5.5,1,0,1,29.2
Status,1774983517000,37,20,6,34,1575420000,36.60,202.8,79.0,1,0,1,31.6
Status,1774983517000,37,21,6,5,1575420000,31.30,42.7,75.5,0,0,1,26.3
Status,1774983517000,37,22,6,3,1575420000,26.80,233.2,48.1,1,0,1,21.8
Status,1774983517000,37,23,6,15,1575420000,39.40,313.8,39.3,1,0,1,34.4
Status,1774983517000,37,24,6,36,1575420000,41.60,148.8,29.7,1,0,1,36.6
Status,1774983517000,37,25,5,32,1575420000,45.70,332.0,69.9,1,0,1,40.7
Status,1774983517000,37,26,5,6,1561098000,15.50,68.3,39.0,0,0,1,10.5
Status,1774983517000,37,27,5,16,1561098000,37.70,58.5,34.7,1,0,1,32.7
Status,1774983517000,37,28,5,41,1575420000,45.10,64.1,34.2,1,0,1,40.1
Status,1774983517000,37,29,5,29,1575420000,41.50,307.9,24.5,1,0,1,36.5
Status,1774983517000,37,30,5,23,1575420000,44.90,122.2,23.0,1,0,1,39.9
Status,1774983517000,37,31,5,25,1575420000,40.90,70.2,22.8,1,0,1,35.9
Status,1774983517000,37,32,5,2,1561098000,41.90,112.0,20.2,1,0,1,36.9
Status,1774983517000,37,33,5,13,1561098000,42.80,96.1,11.6,1,0,1,37.8
Status,1774983517000,37,34,5,9,1561098000,35.40,85.5,43.3,0,1,0,30.4
Status,1774983517000,37,35,5,30,1561098000,13.40,248.4,43.8,0,0,1,8.4
Status,1774983517000,37,36,5,39,1561098000,31.50,50.5,30.7,0,1,1,26.5
Fix,GPS,40.8931373851,29.3752898555,171.0,0.0,4.0,,1774983518000,0.02,,34551627861673,4.0,0,,,
Status,1774983518000,37,0,1,3,1575420000,43.40,17.0,71.6,1,0,1,38.4
Status,1774983518000,37,1,1,4,1575420000,36.30,251.3,64.2,1,0,1,31.3
Status,1774983518000,37,2,1,1,1575420000,38.80,171.1,55.0,1,0,1,33.8
Status,1774983518000,37,3,1,31,1575420000,41.60,73.6,43.3,1,0,1,36.6
Status,1774983518000,37,4,1,9,1575420000,24.50,245.0,30.1,0,0,1,19.5
Status,1774983518000,37,5,1,28,1575420000,37.40,47.0,24.5,1,0,1,32.4
Status,1774983518000,37,6,1,2,1575420000,40.10,164.1,23.8,1,0,1,35.1
Status,1774983518000,37,7,1,17,1575420000,27.30,268.1,21.3,1,0,1,22.3
Status,1774983518000,37,8,1,19,1575420000,41.40,296.2,18.3,1,0,1,36.4
Status,1774983518000,37,9,1,6,1575420000,36.10,319.7,14.9,0,0,1,31.1
Status,1774983518000,37,10,1,26,1575420000,43.80,98.8,6.0,1,0,1,38.8
Status,1774983518000,37,11,3,21,1604250000,37.50,272.5,61.4,1,0,1,32.5
Status,1774983518000,37,12,3,6,1599750000,41.80,306.4,58.1,1,0,1,36.8
Status,1774983518000,37,13,3,5,1602562600,37.50,36.6,42.0,1,0,1,32.5
Status,1774983518000,37,14,3,20,1603125000,34.90,191.0,40.7,1,0,1,29.9
Status,1774983518000,37,15,3,15,1602000000,38.30,84.5,21.0,1,0,1,33.3
Status,1774983518000,37,16,3,22,1600312400,39.40,331.7,14.2,1,0,1,34.4
Status,1774983518000,37,17,3,14,1598062500,28.40,33.2,12.9,1,0,1,23.4
Status,1774983518000,37,18,3,7,1604812500,34.50,258.6,10.8,1,0,1,29.5
Status,1774983518000,37,19,3,16,1601437400,34.10,134.0,5.5,1,0,1,29.1
Status,1774983518000,37,20,6,34,1575420000,36.40,202.8,79.0,1,0,1,31.4
Status,1774983518000,37,21,6,5,1575420000,30.80,42.7,75.5,1,0,1,25.8
Status,1774983518000,37,22,6,3,1575420000,26.90,233.2,48.1,1,0,1,21.9
Status,1774983518000,37,23,6,15,1575420000,39.40,313.8,39.3,1,0,1,34.4
Status,1774983518000,37,24,6,36,1575420000,41.60,148.8,29.7,1,0,1,36.6
Status,1774983518000,37,25,5,32,1575420000,45.60,332.0,69.9,1,0,1,40.6
Status,1774983518000,37,26,5,6,1561098000,14.00,68.3,39.0,0,0,1,9.0
Status,1774983518000,37,27,5,16,1561098000,37.40,58.5,34.7,1,0,1,32.4
Status,1774983518000,37,28,5,41,1575420000,45.00,64.1,34.2,1,0,1,40.0
Status,1774983518000,37,29,5,29,1575420000,41.50,307.9,24.5,1,0,1,36.5
Status,1774983518000,37,30,5,23,1575420000,45.00,122.2,23.0,1,0,1,40.0
Status,1774983518000,37,31,5,25,1575420000,40.70,70.2,22.8,1,0,1,35.7
Status,1774983518000,37,32,5,2,1561098000,41.80,112.0,20.2,1,0,1,36.8
Status,1774983518000,37,33,5,13,1561098000,42.70,96.1,11.6,1,0,1,37.7
Status,1774983518000,37,34,5,9,1561098000,35.20,85.5,43.3,0,1,0,30.2
Status,1774983518000,37,35,5,30,1561098000,12.80,248.4,43.8,0,0,1,7.8
Status,1774983518000,37,36,5,39,1561098000,30.00,50.5,30.7,0,1,1,25.0
Fix,GPS,40.8931373851,29.3752898555,171.0,0.0,4.0,,1774983519000,0.03,,34552620633557,4.0,0,,,
Status,1774983519000,37,0,1,3,1575420000,43.30,17.0,71.6,1,0,1,38.3
Status,1774983519000,37,1,1,4,1575420000,36.10,251.3,64.2,1,0,1,31.1
Status,1774983519000,37,2,1,1,1575420000,38.80,171.1,55.0,1,0,1,33.8
Status,1774983519000,37,3,1,31,1575420000,41.50,73.6,43.3,1,0,1,36.5
Status,1774983519000,37,4,1,9,1575420000,24.50,245.0,30.1,0,0,1,19.5
Status,1774983519000,37,5,1,28,1575420000,36.90,47.0,24.5,1,0,1,31.9
Status,1774983519000,37,6,1,2,1575420000,40.00,164.1,23.8,1,0,1,35.0
Status,1774983519000,37,7,1,17,1575420000,27.30,268.1,21.3,1,0,1,22.3
Status,1774983519000,37,8,1,19,1575420000,41.50,296.2,18.3,1,0,1,36.5
Status,1774983519000,37,9,1,6,1575420000,36.10,319.7,14.9,0,0,1,31.1
Status,1774983519000,37,10,1,26,1575420000,43.80,98.8,6.0,1,0,1,38.8
Status,1774983519000,37,11,3,21,1604250000,37.50,272.5,61.4,1,0,1,32.5
Status,1774983519000,37,12,3,6,1599750000,41.60,306.4,58.1,1,0,1,36.6
Status,1774983519000,37,13,3,5,1602562600,37.20,36.6,42.0,1,0,1,32.2
Status,1774983519000,37,14,3,20,1603125000,34.80,191.0,40.7,1,0,1,29.8
Status,1774983519000,37,15,3,15,1602000000,38.30,84.5,21.0,1,0,1,33.3
Status,1774983519000,37,16,3,22,1600312400,39.30,331.7,14.2,1,0,1,34.3
Status,1774983519000,37,17,3,14,1598062500,28.30,33.2,12.9,1,0,1,23.3
Status,1774983519000,37,18,3,7,1604812500,34.50,258.6,10.8,1,0,1,29.5
Status,1774983519000,37,19,3,16,1601437400,34.10,134.0,5.5,1,0,1,29.1
Status,1774983519000,37,20,6,34,1575420000,36.30,202.8,79.0,1,0,1,31.3
Status,1774983519000,37,21,6,5,1575420000,30.30,42.7,75.5,1,0,1,25.3
Status,1774983519000,37,22,6,3,1575420000,27.00,233.2,48.1,1,0,1,22.0
Status,1774983519000,37,23,6,15,1575420000,39.30,313.8,39.3,1,0,1,34.3
Status,1774983519000,37,24,6,36,1575420000,41.50,148.8,29.7,1,0,1,36.5
Status,1774983519000,37,25,5,32,1575420000,45.60,332.0,69.9,1,0,1,40.6
Status,1774983519000,37,26,5,6,1561098000,13.30,68.3,39.0,0,0,1,8.3
Status,1774983519000,37,27,5,16,1561098000,37.20,58.5,34.7,1,0,1,32.2
Status,1774983519000,37,28,5,41,1575420000,44.80,64.1,34.2,1,0,1,39.8
Status,1774983519000,37,29,5,29,1575420000,41.50,307.9,24.5,1,0,1,36.5
Status,1774983519000,37,30,5,23,1575420000,45.00,122.2,23.0,1,0,1,40.0
Status,1774983519000,37,31,5,25,1575420000,40.60,70.2,22.8,1,0,1,35.6
Status,1774983519000,37,32,5,2,1561098000,41.80,112.0,20.2,1,0,1,36.8
Status,1774983519000,37,33,5,13,1561098000,42.70,96.1,11.6,1,0,1,37.7
Status,1774983519000,37,34,5,9,1561098000,34.90,85.5,43.3,0,1,0,29.9
Status,1774983519000,37,35,5,30,1561098000,12.20,248.4,43.8,0,0,1,7.2
Status,1774983519000,37,36,5,39,1561098000,28.50,50.5,30.7,0,1,1,23.5
Fix,GPS,40.8931373851,29.3752898555,171.0,0.0,4.0,,1774983520000,0.02,,34553619432364,4.0,0,,,
Status,1774983520000,36,0,1,3,1575420000,43.20,17.0,71.6,1,0,1,38.2
Status,1774983520000,36,1,1,4,1575420000,35.70,251.3,64.2,1,0,1,30.7
Status,1774983520000,36,2,1,1,1575420000,38.70,171.1,55.0,1,0,1,33.7
Status,1774983520000,36,3,1,31,1575420000,41.40,73.6,43.3,1,0,1,36.4
Status,1774983520000,36,4,1,9,1575420000,24.50,245.0,30.1,1,0,1,19.5
Status,1774983520000,36,5,1,28,1575420000,36.50,47.0,24.5,1,0,1,31.5
Status,1774983520000,36,6,1,2,1575420000,40.00,164.1,23.8,1,0,1,35.0
Status,1774983520000,36,7,1,17,1575420000,27.30,268.1,21.3,1,0,1,22.3
Status,1774983520000,36,8,1,19,1575420000,41.70,296.2,18.3,1,0,1,36.7
Status,1774983520000,36,9,1,6,1575420000,36.10,319.7,14.9,1,0,1,31.1
Status,1774983520000,36,10,1,26,1575420000,43.70,98.8,6.0,1,0,1,38.7
Status,1774983520000,36,11,3,21,1604250000,37.40,272.0,61.3,1,0,1,32.4
Status,1774983520000,36,12,3,6,1599750000,41.40,306.8,58.1,1,0,1,36.4
Status,1774983520000,36,13,3,5,1602562600,37.00,36.8,41.9,1,0,1,32.0
Status,1774983520000,36,14,3,20,1603125000,34.70,191.0,40.5,1,0,1,29.7
Status,1774983520000,36,15,3,15,1602000000,38.30,84.3,21.1,1,0,1,33.3
Status,1774983520000,36,16,3,22,1600312400,39.20,331.6,14.3,1,0,1,34.2
Status,1774983520000,36,17,3,14,1598062500,28.10,33.0,12.8,1,0,1,23.1
Status,1774983520000,36,18,3,7,1604812500,34.60,258.8,11.0,1,0,1,29.6
Status,1774983520000,36,19,3,16,1601437400,34.00,133.9,5.7,1,0,1,29.0
Status,1774983520000,36,20,6,34,1575420000,36.20,202.8,79.0,1,0,1,31.2
Status,1774983520000,36,21,6,5,1575420000,29.90,42.7,75.5,1,0,1,24.9
Status,1774983520000,36,22,6,3,1575420000,27.00,233.2,48.1,1,0,1,22.0
Status,1774983520000,36,23,6,15,1575420000,39.30,313.8,39.3,1,0,1,34.3
Status,1774983520000,36,24,6,36,1575420000,41.40,148.8,29.7,1,0,1,36.4
Status,1774983520000,36,25,5,32,1575420000,45.50,332.0,69.9,1,0,1,40.5
Status,1774983520000,36,26,5,6,1561098000,12.60,68.3,39.0,0,0,1,7.6
Status,1774983520000,36,27,5,16,1561098000,36.90,58.5,34.7,1,0,1,31.9
Status,1774983520000,36,28,5,41,1575420000,44.60,64.1,34.2,1,0,1,39.6
Status,1774983520000,36,29,5,29,1575420000,41.50,307.9,24.5,1,0,1,36.5
Status,1774983520000,36,30,5,23,1575420000,45.00,122.2,23.0,1,0,1,40.0
Status,1774983520000,36,31,5,25,1575420000,40.40,70.2,22.8,1,0,1,35.4
Status,1774983520000,36,32,5,2,1561098000,41.80,112.0,20.2,1,0,1,36.8
Status,1774983520000,36,33,5,13,1561098000,42.60,96.1,11.6,1,0,1,37.6
Status,1774983520000,36,34,5,9,1561098000,34.70,85.5,43.3,0,1,0,29.7
Status,1774983520000,36,35,5,39,1561098000,27.00,50.5,30.7,0,1,1,22.0
Fix,GPS,40.8931373851,29.3752898555,171.0,0.0,4.0,,1774983521000,0.03,,34554634645479,4.0,0,,,
Status,1774983521000,36,0,1,3,1575420000,43.10,17.0,71.6,1,0,1,38.1
Status,1774983521000,36,1,1,4,1575420000,35.10,251.3,64.2,1,0,1,30.1
Status,1774983521000,36,2,1,1,1575420000,38.60,171.1,55.0,1,0,1,33.6
Status,1774983521000,36,3,1,31,1575420000,41.30,73.6,43.3,1,0,1,36.3
Status,1774983521000,36,4,1,9,1575420000,24.40,245.0,30.1,0,0,1,19.4
Status,1774983521000,36,5,1,28,1575420000,36.10,47.0,24.5,1,0,1,31.1
Status,1774983521000,36,6,1,2,1575420000,39.90,164.1,23.8,1,0,1,34.9
Status,1774983521000,36,7,1,17,1575420000,27.30,268.1,21.3,0,0,1,22.3
Status,1774983521000,36,8,1,19,1575420000,41.70,296.2,18.3,1,0,1,36.7
Status,1774983521000,36,9,1,6,1575420000,36.10,319.7,14.9,1,0,1,31.1
Status,1774983521000,36,10,1,26,1575420000,43.60,98.8,6.0,1,0,1,38.6
Status,1774983521000,36,11,3,21,1604250000,37.30,272.0,61.3,1,0,1,32.3
Status,1774983521000,36,12,3,6,1599750000,41.20,306.8,58.1,1,0,1,36.2
Status,1774983521000,36,13,3,5,1602562600,36.60,36.8,41.9,1,0,1,31.6
Status,1774983521000,36,14,3,20,1603125000,34.60,191.0,40.5,1,0,1,29.6
Status,1774983521000,36,15,3,15,1602000000,38.30,84.3,21.1,1,0,1,33.3
Status,1774983521000,36,16,3,22,1600312400,39.10,331.6,14.3,1,0,1,34.1
Status,1774983521000,36,17,3,14,1598062500,27.90,33.0,12.8,1,0,1,22.9
Status,1774983521000,36,18,3,7,1604812500,34.60,258.8,11.0,1,0,1,29.6
Status,1774983521000,36,19,3,16,1601437400,33.90,133.9,5.7,1,0,1,28.9
Status,1774983521000,36,20,6,34,1575420000,36.00,202.8,79.0,1,0,1,31.0
Status,1774983521000,36,21,6,5,1575420000,29.50,42.7,75.5,1,0,1,24.5
Status,1774983521000,36,22,6,3,1575420000,27.00,233.2,48.1,1,0,1,22.0
Status,1774983521000,36,23,6,15,1575420000,39.30,313.8,39.3,1,0,1,34.3
Status,1774983521000,36,24,6,36,1575420000,41.30,148.8,29.7,1,0,1,36.3
Status,1774983521000,36,25,5,32,1575420000,45.50,332.0,69.9,1,0,1,40.5
Status,1774983521000,36,26,5,6,1561098000,12.00,68.3,39.0,0,0,1,7.0
Status,1774983521000,36,27,5,16,1561098000,36.70,58.5,34.7,1,0,1,31.7
Status,1774983521000,36,28,5,41,1575420000,44.50,64.1,34.2,1,0,1,39.5
Status,1774983521000,36,29,5,29,1575420000,41.50,307.9,24.5,1,0,1,36.5
Status,1774983521000,36,30,5,23,1575420000,45.00,122.2,23.0,1,0,1,40.0
Status,1774983521000,36,31,5,25,1575420000,40.30,70.2,22.8,1,0,1,35.3
Status,1774983521000,36,32,5,2,1561098000,41.80,112.0,20.2,1,0,1,36.8
Status,1774983521000,36,33,5,13,1561098000,42.60,96.1,11.6,1,0,1,37.6
Status,1774983521000,36,34,5,9,1561098000,34.40,85.5,43.3,0,1,0,29.4
Status,1774983521000,36,35,5,39,1561098000,25.50,50.5,30.7,0,1,1,20.5
Fix,GPS,40.8931373851,29.3752898555,171.0,0.0,4.0,,1774983522000,0.02,,34555621693170,4.0,0,,,
Status,1774983522000,35,0,1,3,1575420000,43.00,17.0,71.6,1,0,1,38.0
Status,1774983522000,35,1,1,4,1575420000,34.70,251.3,64.2,1,0,1,29.7
Status,1774983522000,35,2,1,1,1575420000,38.50,171.1,55.0,1,0,1,33.5
Status,1774983522000,35,3,1,31,1575420000,41.20,73.6,43.3,1,0,1,36.2
Status,1774983522000,35,4,1,9,1575420000,24.40,245.0,30.1,1,0,1,19.4
Status,1774983522000,35,5,1,28,1575420000,35.90,47.0,24.5,1,0,1,30.9
Status,1774983522000,35,6,1,2,1575420000,39.80,164.1,23.8,1,0,1,34.8
Status,1774983522000,35,7,1,17,1575420000,27.20,268.1,21.3,1,0,1,22.2
Status,1774983522000,35,8,1,19,1575420000,41.70,296.2,18.3,1,0,1,36.7
Status,1774983522000,35,9,1,6,1575420000,36.10,319.7,14.9,1,0,1,31.1
Status,1774983522000,35,10,1,26,1575420000,43.10,98.8,6.0,1,0,1,38.1
Status,1774983522000,35,11,3,21,1604250000,37.30,272.0,61.3,1,0,1,32.3
Status,1774983522000,35,12,3,6,1599750000,41.00,306.8,58.1,1,0,1,36.0
Status,1774983522000,35,13,3,5,1602562600,36.20,36.8,41.9,1,0,1,31.2
Status,1774983522000,35,14,3,20,1603125000,34.50,191.0,40.5,1,0,1,29.5
Status,1774983522000,35,15,3,15,1602000000,38.20,84.3,21.1,1,0,1,33.2
Status,1774983522000,35,16,3,22,1600312400,39.00,331.6,14.3,1,0,1,34.0
Status,1774983522000,35,17,3,14,1598062500,27.80,33.0,12.8,1,0,1,22.8
Status,1774983522000,35,18,3,7,1604812500,34.60,258.8,11.0,1,0,1,29.6
Status,1774983522000,35,19,3,16,1601437400,33.80,133.9,5.7,1,0,1,28.8
Status,1774983522000,35,20,6,34,1575420000,35.90,202.8,79.0,1,0,1,30.9
Status,1774983522000,35,21,6,5,1575420000,29.20,42.7,75.5,1,0,1,24.2
Status,1774983522000,35,22,6,3,1575420000,27.00,233.2,48.1,1,0,1,22.0
Status,1774983522000,35,23,6,15,1575420000,39.30,313.8,39.3,1,0,1,34.3
Status,1774983522000,35,24,6,36,1575420000,41.20,148.8,29.7,1,0,1,36.2
Status,1774983522000,35,25,5,32,1575420000,45.40,332.0,69.9,1,0,1,40.4
Status,1774983522000,35,26,5,16,1561098000,36.50,58.5,34.7,1,0,1,31.5
Status,1774983522000,35,27,5,41,1575420000,44.30,64.1,34.2,1,0,1,39.3
Status,1774983522000,35,28,5,39,1575420000,29.30,50.5,30.7,1,0,1,24.3
Status,1774983522000,35,29,5,29,1575420000,41.50,307.9,24.5,1,0,1,36.5
Status,1774983522000,35,30,5,23,1575420000,45.00,122.2,23.0,1,0,1,40.0
Status,1774983522000,35,31,5,25,1575420000,39.80,70.2,22.8,1,0,1,34.8
Status,1774983522000,35,32,5,2,1561098000,41.70,112.0,20.2,1,0,1,36.7
Status,1774983522000,35,33,5,13,1561098000,42.50,96.1,11.6,1,0,1,37.5
Status,1774983522000,35,34,5,9,1561098000,33.70,85.5,43.3,0,1,0,28.7
Fix,GPS,40.8931373851,29.3752898555,171.0,0.0,4.0,,1774983523000,0.03,,34556631083746,4.0,0,,,
Status,1774983523000,35,0,1,3,1575420000,42.90,17.0,71.6,1,0,1,37.9
Status,1774983523000,35,1,1,4,1575420000,34.50,251.3,64.2,1,0,1,29.5
Status,1774983523000,35,2,1,1,1575420000,38.50,171.1,55.0,1,0,1,33.5
Status,1774983523000,35,3,1,31,1575420000,41.10,73.6,43.3,1,0,1,36.1
Status,1774983523000,35,4,1,9,1575420000,24.30,245.0,30.1,0,0,1,19.3
Status,1774983523000,35,5,1,28,1575420000,39.20,47.0,24.5,1,0,1,34.2
Status,1774983523000,35,6,1,2,1575420000,39.80,164.1,23.8,1,0,1,34.8
Status,1774983523000,35,7,1,17,1575420000,27.20,268.1,21.3,1,0,1,22.2
Status,1774983523000,35,8,1,19,1575420000,41.70,296.2,18.3,1,0,1,36.7
Status,1774983523000,35,9,1,6,1575420000,36.10,319.7,14.9,1,0,1,31.1
Status,1774983523000,35,10,1,26,1575420000,42.50,98.8,6.0,1,0,1,37.5
Status,1774983523000,35,11,3,21,1604250000,37.20,272.0,61.3,1,0,1,32.2
Status,1774983523000,35,12,3,6,1599750000,40.90,306.8,58.1,1,0,1,35.9
Status,1774983523000,35,13,3,5,1602562600,36.80,36.8,41.9,1,0,1,31.8
Status,1774983523000,35,14,3,20,1603125000,34.50,191.0,40.5,1,0,1,29.5
Status,1774983523000,35,15,3,15,1602000000,38.20,84.3,21.1,1,0,1,33.2
Status,1774983523000,35,16,3,22,1600312400,38.90,331.6,14.3,1,0,1,33.9
Status,1774983523000,35,17,3,14,1598062500,27.70,33.0,12.8,1,0,1,22.7
Status,1774983523000,35,18,3,7,1604812500,34.50,258.8,11.0,1,0,1,29.5
Status,1774983523000,35,19,3,16,1601437400,33.70,133.9,5.7,1,0,1,28.7
Status,1774983523000,35,20,6,34,1575420000,35.80,202.8,79.0,1,0,1,30.8
Status,1774983523000,35,21,6,5,1575420000,32.80,42.7,75.5,1,0,1,27.8
Status,1774983523000,35,22,6,3,1575420000,27.10,233.2,48.1,1,0,1,22.1
Status,1774983523000,35,23,6,15,1575420000,39.20,313.8,39.3,1,0,1,34.2
Status,1774983523000,35,24,6,36,1575420000,41.10,148.8,29.7,1,0,1,36.1
Status,1774983523000,35,25,5,32,1575420000,45.40,332.0,69.9,1,0,1,40.4
Status,1774983523000,35,26,5,16,1561098000,36.30,58.5,34.7,1,0,1,31.3
Status,1774983523000,35,27,5,41,1575420000,44.20,64.1,34.2,1,0,1,39.2
Status,1774983523000,35,28,5,39,1575420000,31.60,50.5,30.7,1,0,1,26.6
Status,1774983523000,35,29,5,29,1575420000,41.50,307.9,24.5,1,0,1,36.5
Status,1774983523000,35,30,5,23,1575420000,45.00,122.2,23.0,1,0,1,40.0
Status,1774983523000,35,31,5,25,1575420000,39.50,70.2,22.8,1,0,1,34.5
Status,1774983523000,35,32,5,2,1561098000,41.70,112.0,20.2,1,0,1,36.7
Status,1774983523000,35,33,5,13,1561098000,42.30,96.1,11.6,1,0,1,37.3
Status,1774983523000,35,34,5,9,1561098000,33.40,85.5,43.3,0,1,0,28.4
Fix,GPS,40.8931373851,29.3752898555,171.0,0.0,4.0,,1774983524000,0.04,,34557633847169,4.0,0,,,
Status,1774983524000,35,0,1,3,1575420000,42.50,17.0,71.6,1,0,1,37.5
Status,1774983524000,35,1,1,4,1575420000,34.40,251.3,64.2,1,0,1,29.4
Status,1774983524000,35,2,1,1,1575420000,38.50,171.1,55.0,1,0,1,33.5
Status,1774983524000,35,3,1,31,1575420000,41.10,73.6,43.3,1,0,1,36.1
Status,1774983524000,35,4,1,9,1575420000,24.20,245.0,30.1,1,0,1,19.2
Status,1774983524000,35,5,1,28,1575420000,39.20,47.0,24.5,1,0,1,34.2
Status,1774983524000,35,6,1,2,1575420000,39.70,164.1,23.8,1,0,1,34.7
Status,1774983524000,35,7,1,17,1575420000,27.10,268.1,21.3,1,0,1,22.1
Status,1774983524000,35,8,1,19,1575420000,41.60,296.2,18.3,1,0,1,36.6
Status,1774983524000,35,9,1,6,1575420000,36.30,319.7,14.9,1,0,1,31.3
Status,1774983524000,35,10,1,26,1575420000,41.90,98.8,6.0,1,0,1,36.9
Status,1774983524000,35,11,3,21,1604250000,37.20,272.0,61.3,1,0,1,32.2
Status,1774983524000,35,12,3,6,1599750000,40.70,306.8,58.1,1,0,1,35.7
Status,1774983524000,35,13,3,5,1602562600,38.10,36.8,41.9,1,0,1,33.1
Status,1774983524000,35,14,3,20,1603125000,38.70,191.0,40.5,1,0,1,33.7
Status,1774983524000,35,15,3,15,1602000000,38.20,84.3,21.1,1,0,1,33.2
Status,1774983524000,35,16,3,22,1600312400,38.70,331.6,14.3,1,0,1,33.7
Status,1774983524000,35,17,3,14,1598062500,27.60,33.0,12.8,1,0,1,22.6
Status,1774983524000,35,18,3,7,1604812500,34.50,258.8,11.0,1,0,1,29.5
Status,1774983524000,35,19,3,16,1601437400,33.60,133.9,5.7,1,0,1,28.6
Status,1774983524000,35,20,6,34,1575420000,35.70,202.8,79.0,1,0,1,30.7
Status,1774983524000,35,21,6,5,1575420000,34.20,42.7,75.5,1,0,1,29.2
Status,1774983524000,35,22,6,3,1575420000,27.30,233.2,48.1,1,0,1,22.3
Status,1774983524000,35,23,6,15,1575420000,39.20,313.8,39.3,1,0,1,34.2
Status,1774983524000,35,24,6,36,1575420000,41.00,148.8,29.7,1,0,1,36.0
Status,1774983524000,35,25,5,32,1575420000,45.30,332.0,69.9,1,0,1,40.3
Status,1774983524000,35,26,5,16,1561098000,36.20,58.5,34.7,1,0,1,31.2
Status,1774983524000,35,27,5,41,1575420000,44.10,64.1,34.2,1,0,1,39.1
Status,1774983524000,35,28,5,39,1575420000,31.60,50.5,30.7,1,0,1,26.6
Status,1774983524000,35,29,5,29,1575420000,41.50,307.9,24.5,1,0,1,36.5
Status,1774983524000,35,30,5,23,1575420000,44.90,122.2,23.0,1,0,1,39.9
Status,1774983524000,35,31,5,25,1575420000,39.30,70.2,22.8,1,0,1,34.3
Status,1774983524000,35,32,5,2,1561098000,41.60,112.0,20.2,1,0,1,36.6
Status,1774983524000,35,33,5,13,1561098000,42.10,96.1,11.6,1,0,1,37.1
Status,1774983524000,35,34,5,9,1561098000,33.20,85.5,43.3,0,1,0,28.2
Fix,GPS,40.8931373851,29.3752898555,171.0,0.0,4.0,,1774983525000,0.05,,34558630283591,4.0,0,,,
Status,1774983525000,35,0,1,3,1575420000,42.10,17.0,71.6,1,0,1,37.1
Status,1774983525000,35,1,1,4,1575420000,34.30,251.3,64.2,1,0,1,29.3
Status,1774983525000,35,2,1,1,1575420000,38.50,171.1,55.0,1,0,1,33.5
Status,1774983525000,35,3,1,31,1575420000,41.00,73.6,43.3,1,0,1,36.0
Status,1774983525000,35,4,1,9,1575420000,24.20,245.0,30.1,1,0,1,19.2
Status,1774983525000,35,5,1,28,1575420000,39.60,47.0,24.5,1,0,1,34.6
Status,1774983525000,35,6,1,2,1575420000,39.70,164.1,23.8,1,0,1,34.7
Status,1774983525000,35,7,1,17,1575420000,27.10,268.1,21.3,1,0,1,22.1
Status,1774983525000,35,8,1,19,1575420000,41.90,296.2,18.3,1,0,1,36.9
Status,1774983525000,35,9,1,6,1575420000,36.70,319.7,14.9,1,0,1,31.7
Status,1774983525000,35,10,1,26,1575420000,41.30,98.8,6.0,1,0,1,36.3
Status,1774983525000,35,11,3,21,1604250000,37.20,272.0,61.3,1,0,1,32.2
Status,1774983525000,35,12,3,6,1599750000,40.50,306.8,58.1,1,0,1,35.5
Status,1774983525000,35,13,3,5,1602562600,38.90,36.8,41.9,1,0,1,33.9
Status,1774983525000,35,14,3,20,1603125000,40.00,191.0,40.5,1,0,1,35.0
Status,1774983525000,35,15,3,15,1602000000,38.10,84.3,21.1,1,0,1,33.1
Status,1774983525000,35,16,3,22,1600312400,38.60,331.6,14.3,1,0,1,33.6
Status,1774983525000,35,17,3,14,1598062500,30.80,33.0,12.8,1,0,1,25.8
Status,1774983525000,35,18,3,7,1604812500,34.40,258.8,11.0,1,0,1,29.4
Status,1774983525000,35,19,3,16,1601437400,33.60,133.9,5.7,1,0,1,28.6
Status,1774983525000,35,20,6,34,1575420000,35.70,202.8,79.0,1,0,1,30.7
Status,1774983525000,35,21,6,5,1575420000,34.20,42.7,75.5,1,0,1,29.2
Status,1774983525000,35,22,6,3,1575420000,27.50,233.2,48.1,1,0,1,22.5
Status,1774983525000,35,23,6,15,1575420000,39.10,313.8,39.3,1,0,1,34.1
Status,1774983525000,35,24,6,36,1575420000,40.90,148.8,29.7,1,0,1,35.9
Status,1774983525000,35,25,5,32,1575420000,45.20,332.0,69.9,1,0,1,40.2
Status,1774983525000,35,26,5,16,1561098000,36.10,58.5,34.7,1,0,1,31.1
Status,1774983525000,35,27,5,41,1575420000,44.00,64.1,34.2,1,0,1,39.0
Status,1774983525000,35,28,5,39,1575420000,31.50,50.5,30.7,1,0,1,26.5
Status,1774983525000,35,29,5,29,1575420000,41.40,307.9,24.5,1,0,1,36.4
Status,1774983525000,35,30,5,23,1575420000,44.90,122.2,23.0,1,0,1,39.9
Status,1774983525000,35,31,5,25,1575420000,39.30,70.2,22.8,1,0,1,34.3
Status,1774983525000,35,32,5,2,1561098000,41.50,112.0,20.2,1,0,1,36.5
Status,1774983525000,35,33,5,13,1561098000,42.00,96.1,11.6,1,0,1,37.0
Status,1774983525000,35,34,5,9,1561098000,33.10,85.5,43.3,0,1,0,28.1
Fix,GPS,40.8931373851,29.3752898555,171.0,0.0,4.0,,1774983526000,0.02,,34559637978552,4.0,0,,,
Status,1774983526000,36,0,1,3,1575420000,41.80,17.0,71.6,1,0,1,36.8
Status,1774983526000,36,1,1,4,1575420000,34.30,251.3,64.2,1,0,1,29.3
Status,1774983526000,36,2,1,1,1575420000,38.50,171.1,55.0,1,0,1,33.5
Status,1774983526000,36,3,1,31,1575420000,41.00,73.6,43.3,1,0,1,36.0
Status,1774983526000,36,4,1,9,1575420000,24.10,245.0,30.1,1,0,1,19.1
Status,1774983526000,36,5,1,28,1575420000,39.60,47.0,24.5,1,0,1,34.6
Status,1774983526000,36,6,1,2,1575420000,39.90,164.1,23.8,1,0,1,34.9
Status,1774983526000,36,7,1,17,1575420000,27.10,268.1,21.3,1,0,1,22.1
Status,1774983526000,36,8,1,19,1575420000,42.10,296.2,18.3,1,0,1,37.1
Status,1774983526000,36,9,1,6,1575420000,37.10,319.7,14.9,1,0,1,32.1
Status,1774983526000,36,10,1,26,1575420000,40.80,98.8,6.0,1,0,1,35.8
Status,1774983526000,36,11,3,21,1604250000,37.30,272.0,61.3,1,0,1,32.3
Status,1774983526000,36,12,3,6,1599750000,40.30,306.8,58.1,1,0,1,35.3
Status,1774983526000,36,13,3,5,1602562600,39.40,36.8,41.9,1,0,1,34.4
Status,1774983526000,36,14,3,20,1603125000,40.10,191.0,40.5,1,0,1,35.1
Status,1774983526000,36,15,3,15,1602000000,38.00,84.3,21.1,1,0,1,33.0
Status,1774983526000,36,16,3,22,1600312400,37.90,331.6,14.3,1,0,1,32.9
Status,1774983526000,36,17,3,14,1598062500,35.00,33.0,12.8,0,0,1,30.0
Status,1774983526000,36,18,3,7,1604812500,34.40,258.8,11.0,1,0,1,29.4
Status,1774983526000,36,19,3,16,1601437400,33.50,133.9,5.7,1,0,1,28.5
Status,1774983526000,36,20,6,34,1575420000,35.60,202.8,79.0,1,0,1,30.6
Status,1774983526000,36,21,6,5,1575420000,34.10,42.7,75.5,1,0,1,29.1
Status,1774983526000,36,22,6,3,1575420000,27.50,233.2,48.1,1,0,1,22.5
Status,1774983526000,36,23,6,15,1575420000,39.10,313.8,39.3,1,0,1,34.1
Status,1774983526000,36,24,6,36,1575420000,40.80,148.8,29.7,1,0,1,35.8
Status,1774983526000,36,25,5,32,1575420000,45.10,332.0,69.9,1,0,1,40.1
Status,1774983526000,36,26,5,30,1575420000,29.40,248.4,43.8,1,0,1,24.4
Status,1774983526000,36,27,5,16,1561098000,36.10,58.5,34.7,1,0,1,31.1
Status,1774983526000,36,28,5,41,1575420000,44.00,64.1,34.2,1,0,1,39.0
Status,1774983526000,36,29,5,39,1575420000,31.80,50.5,30.7,1,0,1,26.8
Status,1774983526000,36,30,5,29,1575420000,41.30,307.9,24.5,1,0,1,36.3
Status,1774983526000,36,31,5,23,1575420000,44.90,122.2,23.0,1,0,1,39.9
Status,1774983526000,36,32,5,25,1575420000,39.20,70.2,22.8,1,0,1,34.2
Status,1774983526000,36,33,5,2,1561098000,41.40,112.0,20.2,1,0,1,36.4
Status,1774983526000,36,34,5,13,1561098000,41.80,96.1,11.6,1,0,1,36.8
Status,1774983526000,36,35,5,9,1561098000,33.00,85.5,43.3,0,1,0,28.0
Fix,GPS,40.8931373851,29.3752898555,171.0,0.0,4.0,,1774983527000,0.01,,34560631706551,4.0,0,,,
Status,1774983527000,36,0,1,3,1575420000,41.50,17.0,71.6,1,0,1,36.5
Status,1774983527000,36,1,1,4,1575420000,34.30,251.3,64.2,1,0,1,29.3
Status,1774983527000,36,2,1,1,1575420000,38.60,171.1,54.7,1,0,1,33.6
Status,1774983527000,36,3,1,31,1575420000,41.00,73.6,43.3,1,0,1,36.0
Status,1774983527000,36,4,1,9,1575420000,24.10,245.0,30.1,1,0,1,19.1
Status,1774983527000,36,5,1,28,1575420000,39.70,47.0,24.5,1,0,1,34.7
Status,1774983527000,36,6,1,2,1575420000,40.00,164.1,23.6,1,0,1,35.0
Status,1774983527000,36,7,1,17,1575420000,27.00,268.1,21.3,0,0,1,22.0
Status,1774983527000,36,8,1,19,1575420000,42.10,296.2,18.3,1,0,1,37.1
Status,1774983527000,36,9,1,6,1575420000,37.20,319.7,14.9,1,0,1,32.2
Status,1774983527000,36,10,1,26,1575420000,40.40,98.8,6.0,1,0,1,35.4
Status,1774983527000,36,11,3,21,1604250000,37.40,272.0,61.3,1,0,1,32.4
Status,1774983527000,36,12,3,6,1599750000,40.20,306.8,58.1,1,0,1,35.2
Status,1774983527000,36,13,3,5,1602562600,39.60,36.8,41.9,1,0,1,34.6
Status,1774983527000,36,14,3,20,1603125000,40.10,191.0,40.5,1,0,1,35.1
Status,1774983527000,36,15,3,15,1602000000,38.00,84.3,21.1,1,0,1,33.0
Status,1774983527000,36,16,3,22,1600312400,37.40,331.6,14.3,1,0,1,32.4
Status,1774983527000,36,17,3,14,1598062500,34.90,33.0,12.8,1,0,1,29.9
Status,1774983527000,36,18,3,7,1604812500,34.40,258.8,11.0,1,0,1,29.4
Status,1774983527000,36,19,3,16,1601437400,33.40,133.9,5.7,1,0,1,28.4
Status,1774983527000,36,20,6,34,1575420000,35.80,202.8,79.0,1,0,1,30.8
Status,1774983527000,36,21,6,5,1575420000,34.00,42.7,75.5,1,0,1,29.0
Status,1774983527000,36,22,6,3,1575420000,27.60,233.2,48.1,1,0,1,22.6
Status,1774983527000,36,23,6,15,1575420000,39.00,313.8,39.3,1,0,1,34.0
Status,1774983527000,36,24,6,36,1575420000,40.70,148.8,29.5,1,0,1,35.7
Status,1774983527000,36,25,5,32,1575420000,45.00,332.0,69.9,1,0,1,40.0
Status,1774983527000,36,26,5,30,1575420000,29.60,248.4,43.8,1,0,1,24.6
Status,1774983527000,36,27,5,16,1561098000,36.10,58.5,34.7,1,0,1,31.1
Status,1774983527000,36,28,5,41,1575420000,44.00,64.1,34.2,1,0,1,39.0
Status,1774983527000,36,29,5,39,1575420000,31.80,50.5,30.7,1,0,1,26.8
Status,1774983527000,36,30,5,29,1575420000,41.20,307.9,24.5,1,0,1,36.2
Status,1774983527000,36,31,5,23,1575420000,44.90,122.2,23.0,1,0,1,39.9
Status,1774983527000,36,32,5,25,1575420000,39.20,70.2,22.8,1,0,1,34.2
Status,1774983527000,36,33,5,2,1561098000,41.20,112.0,20.2,1,0,1,36.2
Status,1774983527000,36,34,5,13,1561098000,41.60,96.1,11.6,1,0,1,36.6
Status,1774983527000,36,35,5,9,1561098000,32.90,85.5,43.3,0,1,0,27.9
Fix,GPS,40.8931373851,29.3752898555,171.0,0.0,4.0,,1774983528000,0.02,,34561632510589,4.0,0,,,
Status,1774983528000,36,0,1,3,1575420000,41.20,17.8,71.6,1,0,1,36.2
Status,1774983528000,36,1,1,4,1575420000,34.30,251.7,64.4,1,0,1,29.3
Status,1774983528000,36,2,1,1,1575420000,38.60,171.1,54.7,1,0,1,33.6
Status,1774983528000,36,3,1,31,1575420000,41.10,73.2,43.2,1,0,1,36.1
Status,1774983528000,36,4,1,9,1575420000,24.00,245.0,30.1,1,0,1,19.0
Status,1774983528000,36,5,1,28,1575420000,39.70,47.0,24.5,1,0,1,34.7
Status,1774983528000,36,6,1,2,1575420000,40.20,164.1,23.6,1,0,1,35.2
Status,1774983528000,36,7,1,17,1575420000,26.90,268.1,21.3,1,0,1,21.9
Status,1774983528000,36,8,1,19,1575420000,42.20,296.2,18.3,1,0,1,37.2
Status,1774983528000,36,9,1,6,1575420000,37.40,319.7,14.9,1,0,1,32.4
Status,1774983528000,36,10,1,26,1575420000,39.90,98.6,6.1,1,0,1,34.9
Status,1774983528000,36,11,3,21,1604250000,37.60,272.0,61.3,1,0,1,32.6
Status,1774983528000,36,12,3,6,1599750000,40.00,306.8,58.1,1,0,1,35.0
Status,1774983528000,36,13,3,5,1602562600,39.70,36.8,41.9,1,0,1,34.7
Status,1774983528000,36,14,3,20,1603125000,40.00,191.0,40.5,1,0,1,35.0
Status,1774983528000,36,15,3,15,1602000000,37.90,84.3,21.1,1,0,1,32.9
Status,1774983528000,36,16,3,22,1600312400,37.00,331.6,14.3,1,0,1,32.0
Status,1774983528000,36,17,3,14,1598062500,34.70,33.0,12.8,1,0,1,29.7
Status,1774983528000,36,18,3,7,1604812500,34.40,258.8,11.0,1,0,1,29.4
Status,1774983528000,36,19,3,16,1601437400,33.30,133.9,5.7,1,0,1,28.3
Status,1774983528000,36,20,6,34,1575420000,36.00,202.8,79.0,1,0,1,31.0
Status,1774983528000,36,21,6,5,1575420000,33.80,42.7,75.5,1,0,1,28.8
Status,1774983528000,36,22,6,3,1575420000,27.60,233.2,48.1,1,0,1,22.6
Status,1774983528000,36,23,6,15,1575420000,38.90,313.8,39.3,1,0,1,33.9
Status,1774983528000,36,24,6,36,1575420000,40.60,148.8,29.5,1,0,1,35.6
Status,1774983528000,36,25,5,32,1575420000,44.90,332.0,69.9,1,0,1,39.9
Status,1774983528000,36,26,5,30,1575420000,29.80,248.4,43.8,1,0,1,24.8
Status,1774983528000,36,27,5,16,1561098000,36.10,58.5,34.7,1,0,1,31.1
Status,1774983528000,36,28,5,41,1575420000,44.00,64.1,34.2,1,0,1,39.0
Status,1774983528000,36,29,5,39,1575420000,31.80,50.5,30.7,1,0,1,26.8
Status,1774983528000,36,30,5,29,1575420000,41.20,307.9,24.5,1,0,1,36.2
Status,1774983528000,36,31,5,23,1575420000,44.90,122.2,23.0,1,0,1,39.9
Status,1774983528000,36,32,5,25,1575420000,39.20,70.2,22.8,1,0,1,34.2
Status,1774983528000,36,33,5,2,1561098000,41.10,112.0,20.2,1,0,1,36.1
Status,1774983528000,36,34,5,13,1561098000,41.30,96.1,11.6,1,0,1,36.3
Status,1774983528000,36,35,5,9,1561098000,32.80,85.5,43.3,0,1,0,27.8
Fix,GPS,40.8931373851,29.3752898555,171.0,0.0,4.0,,1774983529000,0.01,,34562625395358,4.0,0,,,
Status,1774983529000,36,0,1,3,1575420000,41.00,17.8,71.6,1,0,1,36.0
Status,1774983529000,36,1,1,4,1575420000,34.60,251.7,64.4,1,0,1,29.6
Status,1774983529000,36,2,1,1,1575420000,38.60,171.1,54.7,1,0,1,33.6
Status,1774983529000,36,3,1,31,1575420000,41.10,73.2,43.2,1,0,1,36.1
Status,1774983529000,36,4,1,9,1575420000,24.00,245.2,30.3,1,0,1,19.0
Status,1774983529000,36,5,1,28,1575420000,39.70,47.0,24.5,1,0,1,34.7
Status,1774983529000,36,6,1,2,1575420000,40.40,164.1,23.6,1,0,1,35.4
Status,1774983529000,36,7,1,17,1575420000,26.80,267.9,21.2,1,0,1,21.8
Status,1774983529000,36,8,1,19,1575420000,42.30,296.0,18.3,1,0,1,37.3
Status,1774983529000,36,9,1,6,1575420000,37.60,319.7,15.1,1,0,1,32.6
Status,1774983529000,36,10,1,26,1575420000,39.50,98.6,6.1,1,0,1,34.5
Status,1774983529000,36,11,3,21,1604250000,37.70,271.8,61.3,1,0,1,32.7
Status,1774983529000,36,12,3,6,1599750000,39.80,307.0,58.1,1,0,1,34.8
Status,1774983529000,36,13,3,5,1602562600,39.90,36.9,41.8,1,0,1,34.9
Status,1774983529000,36,14,3,20,1603125000,39.90,191.0,40.4,1,0,1,34.9
Status,1774983529000,36,15,3,15,1602000000,37.80,84.3,21.1,1,0,1,32.8
Status,1774983529000,36,16,3,22,1600312400,36.60,331.6,14.4,1,0,1,31.6
Status,1774983529000,36,17,3,14,1598062500,34.50,33.0,12.8,1,0,1,29.5
Status,1774983529000,36,18,3,7,1604812500,34.50,258.8,11.0,1,0,1,29.5
Status,1774983529000,36,19,3,16,1601437400,33.20,133.8,5.8,1,0,1,28.2
Status,1774983529000,36,20,6,34,1575420000,36.20,202.8,79.0,1,0,1,31.2
Status,1774983529000,36,21,6,5,1575420000,33.60,42.7,75.5,1,0,1,28.6
Status,1774983529000,36,22,6,3,1575420000,27.70,233.2,48.1,1,0,1,22.7
Status,1774983529000,36,23,6,15,1575420000,38.80,313.8,39.3,1,0,1,33.8
Status,1774983529000,36,24,6,36,1575420000,40.50,148.8,29.5,1,0,1,35.5
Status,1774983529000,36,25,5,32,1575420000,44.80,332.6,69.9,1,0,1,39.8
Status,1774983529000,36,26,5,30,1575420000,30.00,248.1,43.7,1,0,1,25.0
Status,1774983529000,36,27,5,16,1561098000,36.20,58.4,34.7,1,0,1,31.2
Status,1774983529000,36,28,5,41,1575420000,44.20,64.3,34.0,1,0,1,39.2
Status,1774983529000,36,29,5,39,1575420000,31.80,50.4,30.7,1,0,1,26.8
Status,1774983529000,36,30,5,29,1575420000,41.10,307.7,24.6,1,0,1,36.1
Status,1774983529000,36,31,5,23,1575420000,44.90,122.0,23.2,1,0,1,39.9
Status,1774983529000,36,32,5,25,1575420000,39.30,70.0,22.9,1,0,1,34.3
Status,1774983529000,36,33,5,2,1561098000,41.00,112.0,20.2,1,0,1,36.0
Status,1774983529000,36,34,5,13,1561098000,41.10,96.3,11.6,1,0,1,36.1
Status,1774983529000,36,35,5,9,1561098000,32.70,85.4,43.3,0,1,0,27.7
Fix,GPS,40.8931373851,29.3752898555,171.0,0.0,4.0,,1774983530000,0.06,,34563633577088,4.0,0,,,
Status,1774983530000,37,0,1,3,1575420000,40.80,17.8,71.6,1,0,1,35.8
Status,1774983530000,37,1,1,4,1575420000,34.80,251.7,64.4,1,0,1,29.8
Status,1774983530000,37,2,1,1,1575420000,38.70,171.1,54.7,1,0,1,33.7
Status,1774983530000,37,3,1,31,1575420000,41.10,73.2,43.2,1,0,1,36.1
Status,1774983530000,37,4,1,9,1575420000,24.00,245.2,30.3,1,0,1,19.0
Status,1774983530000,37,5,1,28,1575420000,39.70,47.0,24.5,1,0,1,34.7
Status,1774983530000,37,6,1,2,1575420000,40.60,164.1,23.6,1,0,1,35.6
Status,1774983530000,37,7,1,17,1575420000,26.80,267.9,21.2,1,0,1,21.8
Status,1774983530000,37,8,1,19,1575420000,42.50,296.0,18.3,1,0,1,37.5
Status,1774983530000,37,9,1,6,1575420000,37.80,319.7,15.1,1,0,1,32.8
Status,1774983530000,37,10,1,26,1575420000,39.10,98.6,6.1,1,0,1,34.1
Status,1774983530000,37,11,3,21,1604250000,37.80,271.8,61.3,1,0,1,32.8
Status,1774983530000,37,12,3,6,1599750000,39.70,307.0,58.1,1,0,1,34.7
Status,1774983530000,37,13,3,5,1602562600,39.90,36.9,41.8,1,0,1,34.9
Status,1774983530000,37,14,3,20,1603125000,39.90,191.0,40.4,1,0,1,34.9
Status,1774983530000,37,15,3,15,1602000000,37.70,84.3,21.1,1,0,1,32.7
Status,1774983530000,37,16,3,22,1600312400,36.30,331.6,14.4,1,0,1,31.3
Status,1774983530000,37,17,3,14,1598062500,34.40,33.0,12.8,1,0,1,29.4
Status,1774983530000,37,18,3,7,1604812500,34.50,258.8,11.0,1,0,1,29.5
Status,1774983530000,37,19,3,16,1601437400,33.20,133.8,5.8,1,0,1,28.2
Status,1774983530000,37,20,6,34,1575420000,36.20,202.8,79.0,1,0,1,31.2
Status,1774983530000,37,21,6,5,1575420000,33.40,42.7,75.5,1,0,1,28.4
Status,1774983530000,37,22,6,3,1575420000,27.70,233.2,48.1,1,0,1,22.7
Status,1774983530000,37,23,6,15,1575420000,38.70,313.8,39.3,1,0,1,33.7
Status,1774983530000,37,24,6,36,1575420000,40.40,148.8,29.5,1,0,1,35.4
Status,1774983530000,37,25,5,32,1575420000,44.70,332.6,69.9,1,0,1,39.7
Status,1774983530000,37,26,5,30,1575420000,30.00,248.1,43.7,1,0,1,25.0
Status,1774983530000,37,27,5,16,1561098000,36.30,58.4,34.7,1,0,1,31.3
Status,1774983530000,37,28,5,41,1575420000,44.30,64.3,34.0,1,0,1,39.3
Status,1774983530000,37,29,5,39,1575420000,31.80,50.4,30.7,1,0,1,26.8
Status,1774983530000,37,30,5,29,1575420000,41.00,307.7,24.6,1,0,1,36.0
Status,1774983530000,37,31,5,20,1575420000,25.30,270.3,23.6,1,0,1,20.3
Status,1774983530000,37,32,5,23,1575420000,44.90,122.0,23.2,1,0,1,39.9
Status,1774983530000,37,33,5,25,1575420000,39.30,70.0,22.9,1,0,1,34.3
Status,1774983530000,37,34,5,2,1561098000,40.90,112.0,20.2,1,0,1,35.9
Status,1774983530000,37,35,5,13,1561098000,40.90,96.3,11.6,1,0,1,35.9
Status,1774983530000,37,36,5,9,1561098000,32.60,85.4,43.3,0,1,0,27.6
Fix,GPS,40.8931555320,29.3753050268,171.0,0.17999999,3.5,109.0,1774983531000,0.18,30.5,34564627111664,4.0,0,,,
Status,1774983531000,37,0,1,3,1575420000,43.00,17.8,71.6,1,0,1,38.0
Status,1774983531000,37,1,1,4,1575420000,34.90,251.7,64.4,1,0,1,29.9
Status,1774983531000,37,2,1,1,1575420000,38.70,171.1,54.7,1,0,1,33.7
Status,1774983531000,37,3,1,31,1575420000,41.10,73.2,43.2,1,0,1,36.1
Status,1774983531000,37,4,1,9,1575420000,24.60,245.2,30.3,1,0,1,19.6
Status,1774983531000,37,5,1,28,1575420000,39.60,47.0,24.5,1,0,1,34.6
Status,1774983531000,37,6,1,2,1575420000,40.60,164.1,23.6,1,0,1,35.6
Status,1774983531000,37,7,1,17,1575420000,26.80,267.9,21.2,1,0,1,21.8
Status,1774983531000,37,8,1,19,1575420000,42.50,296.0,18.3,1,0,1,37.5
Status,1774983531000,37,9,1,6,1575420000,37.80,319.7,15.1,1,0,1,32.8
Status,1774983531000,37,10,1,26,1575420000,38.80,98.6,6.1,1,0,1,33.8
Status,1774983531000,37,11,3,21,1604250000,37.80,271.8,61.3,1,0,1,32.8
Status,1774983531000,37,12,3,6,1599750000,39.60,307.0,58.1,1,0,1,34.6
Status,1774983531000,37,13,3,5,1602562600,39.80,36.9,41.8,1,0,1,34.8
Status,1774983531000,37,14,3,20,1603125000,39.80,191.0,40.4,1,0,1,34.8
Status,1774983531000,37,15,3,15,1602000000,37.60,84.3,21.1,1,0,1,32.6
Status,1774983531000,37,16,3,22,1600312400,36.20,331.6,14.4,1,0,1,31.2
Status,1774983531000,37,17,3,14,1598062500,34.20,33.0,12.8,1,0,1,29.2
Status,1774983531000,37,18,3,16,1601437400,33.10,133.8,5.8,1,0,1,28.1
Status,1774983531000,37,19,6,34,1575420000,36.20,202.8,79.0,1,0,1,31.2
Status,1774983531000,37,20,3,7,1602000000,33.00,258.8,11.0,0,0,1,28.0
Status,1774983531000,37,21,6,5,1575420000,35.60,42.7,75.5,1,0,1,30.6
Status,1774983531000,37,22,6,3,1575420000,27.70,233.2,48.1,1,0,1,22.7
Status,1774983531000,37,23,6,15,1575420000,38.70,313.8,39.3,1,0,1,33.7
Status,1774983531000,37,24,6,36,1575420000,40.30,148.8,29.5,1,0,1,35.3
Status,1774983531000,37,25,5,32,1575420000,44.70,332.6,69.9,1,0,1,39.7
Status,1774983531000,37,26,5,30,1575420000,30.00,248.1,43.7,1,0,1,25.0
Status,1774983531000,37,27,5,16,1561098000,36.40,58.4,34.7,1,0,1,31.4
Status,1774983531000,37,28,5,41,1575420000,44.30,64.3,34.0,1,0,1,39.3
Status,1774983531000,37,29,5,39,1575420000,32.60,50.4,30.7,1,0,1,27.6
Status,1774983531000,37,30,5,29,1575420000,40.90,307.7,24.6,1,0,1,35.9
Status,1774983531000,37,31,5,20,1575420000,25.30,270.3,23.6,1,0,1,20.3
Status,1774983531000,37,32,5,23,1575420000,44.80,122.0,23.2,1,0,1,39.8
Status,1774983531000,37,33,5,25,1575420000,39.30,70.0,22.9,1,0,1,34.3
Status,1774983531000,37,34,5,2,1561098000,40.70,112.0,20.2,1,0,1,35.7
Status,1774983531000,37,35,5,13,1561098000,40.70,96.3,11.6,1,0,1,35.7
Status,1774983531000,37,36,5,9,1561098000,31.10,85.4,43.3,0,1,1,26.1
Fix,GPS,40.8931518020,29.3753196951,172.0,0.65999997,3.5,140.3,1774983532000,0.29,12.4,34565642595240,4.0,0,,,
Status,1774983532000,37,0,1,3,1575420000,43.80,17.8,71.6,1,0,1,38.8
Status,1774983532000,37,1,1,4,1575420000,35.00,251.7,64.4,1,0,1,30.0
Status,1774983532000,37,2,1,1,1575420000,38.70,171.1,54.7,1,0,1,33.7
Status,1774983532000,37,3,1,31,1575420000,40.40,73.2,43.2,1,0,1,35.4
Status,1774983532000,37,4,1,9,1575420000,29.60,245.2,30.3,1,0,1,24.6
Status,1774983532000,37,5,1,28,1575420000,39.60,46.8,24.4,1,0,1,34.6
Status,1774983532000,37,6,1,2,1575420000,40.60,164.1,23.6,1,0,1,35.6
Status,1774983532000,37,7,1,17,1575420000,26.70,267.9,21.2,1,0,1,21.7
Status,1774983532000,37,8,1,19,1575420000,42.10,296.0,18.3,1,0,1,37.1
Status,1774983532000,37,9,1,6,1575420000,37.70,319.7,15.1,1,0,1,32.7
Status,1774983532000,37,10,1,26,1575420000,38.50,98.6,6.1,1,0,1,33.5
Status,1774983532000,37,11,3,21,1604250000,37.90,271.8,61.3,1,0,1,32.9
Status,1774983532000,37,12,3,6,1599750000,39.50,307.0,58.1,1,0,1,34.5
Status,1774983532000,37,13,3,5,1602562600,39.60,36.9,41.8,1,0,1,34.6
Status,1774983532000,37,14,3,20,1603125000,39.70,191.0,40.4,1,0,1,34.7
Status,1774983532000,37,15,3,15,1602000000,37.50,84.3,21.1,1,0,1,32.5
Status,1774983532000,37,16,3,22,1600312400,36.00,331.6,14.4,1,0,1,31.0
Status,1774983532000,37,17,3,14,1598062500,34.10,33.0,12.8,1,0,1,29.1
Status,1774983532000,37,18,3,16,1601437400,33.10,133.8,5.8,1,0,1,28.1
Status,1774983532000,37,19,6,34,1575420000,36.20,202.8,79.0,1,0,1,31.2
Status,1774983532000,37,20,3,7,1602000000,31.50,258.8,11.0,0,0,1,26.5
Status,1774983532000,37,21,6,5,1575420000,35.60,42.7,75.5,1,0,1,30.6
Status,1774983532000,37,22,6,3,1575420000,32.70,233.2,48.1,1,0,1,27.7
Status,1774983532000,37,23,6,15,1575420000,38.60,313.8,39.3,1,0,1,33.6
Status,1774983532000,37,24,6,36,1575420000,40.30,148.8,29.5,1,0,1,35.3
Status,1774983532000,37,25,5,32,1575420000,44.60,332.6,69.9,1,0,1,39.6
Status,1774983532000,37,26,5,30,1575420000,30.00,248.1,43.7,1,0,1,25.0
Status,1774983532000,37,27,5,16,1561098000,36.40,58.4,34.7,1,0,1,31.4
Status,1774983532000,37,28,5,41,1575420000,44.30,64.3,34.0,1,0,1,39.3
Status,1774983532000,37,29,5,39,1575420000,33.10,50.4,30.7,1,0,1,28.1
Status,1774983532000,37,30,5,29,1575420000,40.70,307.7,24.6,1,0,1,35.7
Status,1774983532000,37,31,5,20,1575420000,25.40,270.3,23.6,1,0,1,20.4
Status,1774983532000,37,32,5,23,1575420000,44.80,122.0,23.2,1,0,1,39.8
Status,1774983532000,37,33,5,25,1575420000,38.80,70.0,22.9,1,0,1,33.8
Status,1774983532000,37,34,5,2,1561098000,40.00,112.0,20.2,1,0,1,35.0
Status,1774983532000,37,35,5,13,1561098000,40.20,96.3,11.6,1,0,1,35.2
Status,1774983532000,37,36,5,9,1561098000,30.70,85.4,43.3,0,1,0,25.7
Fix,GPS,40.8931543166,29.3753276579,172.0,0.88,3.5,127.1,1774983533000,0.26,7.3,34566623029932,3.0,0,,,
Status,1774983533000,37,0,1,3,1575420000,43.70,17.8,71.6,1,0,1,38.7
Status,1774983533000,37,1,1,4,1575420000,35.10,251.7,64.4,1,0,1,30.1
Status,1774983533000,37,2,1,1,1575420000,38.70,171.1,54.7,1,0,1,33.7
Status,1774983533000,37,3,1,31,1575420000,40.10,73.2,43.2,1,0,1,35.1
Status,1774983533000,37,4,1,9,1575420000,39.60,245.2,30.3,1,0,1,34.6
Status,1774983533000,37,5,1,28,1575420000,39.60,46.8,24.4,1,0,1,34.6
Status,1774983533000,37,6,1,2,1575420000,40.80,164.1,23.6,1,0,1,35.8
Status,1774983533000,37,7,1,17,1575420000,26.70,267.9,21.2,1,0,1,21.7
Status,1774983533000,37,8,1,19,1575420000,41.70,296.0,18.3,1,0,1,36.7
Status,1774983533000,37,9,1,6,1575420000,37.10,319.7,15.1,1,0,1,32.1
Status,1774983533000,37,10,1,26,1575420000,38.30,98.6,6.1,1,0,1,33.3
Status,1774983533000,37,11,3,21,1604250000,37.90,271.8,61.3,1,0,1,32.9
Status,1774983533000,37,12,3,6,1599750000,39.30,307.0,58.1,1,0,1,34.3
Status,1774983533000,37,13,3,5,1602562600,39.50,36.9,41.8,1,0,1,34.5
Status,1774983533000,37,14,3,20,1603125000,39.70,191.0,40.4,1,0,1,34.7
Status,1774983533000,37,15,3,15,1602000000,37.40,84.3,21.1,1,0,1,32.4
Status,1774983533000,37,16,3,22,1600312400,35.90,331.6,14.4,1,0,1,30.9
Status,1774983533000,37,17,3,14,1598062500,34.00,33.0,12.8,1,0,1,29.0
Status,1774983533000,37,18,3,16,1601437400,33.00,133.8,5.8,1,0,1,28.0
Status,1774983533000,37,19,6,34,1575420000,36.20,202.8,79.0,1,0,1,31.2
Status,1774983533000,37,20,3,7,1602000000,30.00,258.8,11.0,0,0,1,25.0
Status,1774983533000,37,21,6,5,1575420000,35.60,42.7,75.5,1,0,1,30.6
Status,1774983533000,37,22,6,3,1575420000,39.20,233.2,48.1,1,0,1,34.2
Status,1774983533000,37,23,6,15,1575420000,37.70,313.8,39.3,1,0,1,32.7
Status,1774983533000,37,24,6,36,1575420000,40.20,148.8,29.5,1,0,1,35.2
Status,1774983533000,37,25,5,32,1575420000,44.50,332.6,69.9,1,0,1,39.5
Status,1774983533000,37,26,5,30,1575420000,30.40,248.1,43.7,1,0,1,25.4
Status,1774983533000,37,27,5,16,1561098000,36.40,58.4,34.7,1,0,1,31.4
Status,1774983533000,37,28,5,41,1575420000,44.30,64.3,34.0,1,0,1,39.3
Status,1774983533000,37,29,5,39,1575420000,33.10,50.4,30.7,1,0,1,28.1
Status,1774983533000,37,30,5,29,1575420000,40.30,307.7,24.6,1,0,1,35.3
Status,1774983533000,37,31,5,20,1575420000,26.00,270.3,23.6,1,0,1,21.0
Status,1774983533000,37,32,5,23,1575420000,44.70,122.0,23.2,1,0,1,39.7
Status,1774983533000,37,33,5,25,1575420000,38.40,70.0,22.9,1,0,1,33.4
Status,1774983533000,37,34,5,2,1561098000,38.90,112.0,20.2,1,0,1,33.9
Status,1774983533000,37,35,5,13,1561098000,39.00,96.3,11.6,1,0,1,34.0
Status,1774983533000,37,36,5,9,1561098000,30.40,85.4,43.3,0,1,0,25.4
Fix,GPS,40.8931495389,29.3753308430,173.0,0.7,3.0,138.4,1774983534000,0.25,26.3,34567623358392,3.0,0,,,
Status,1774983534000,37,0,1,3,1575420000,43.50,17.8,71.6,1,0,1,38.5
Status,1774983534000,37,1,1,4,1575420000,35.20,251.7,64.4,1,0,1,30.2
Status,1774983534000,37,2,1,1,1575420000,38.70,171.1,54.7,1,0,1,33.7
Status,1774983534000,37,3,1,31,1575420000,39.90,73.2,43.2,1,0,1,34.9
Status,1774983534000,37,4,1,9,1575420000,39.40,245.2,30.3,1,0,1,34.4
Status,1774983534000,37,5,1,28,1575420000,39.50,46.8,24.4,1,0,1,34.5
Status,1774983534000,37,6,1,2,1575420000,41.20,164.1,23.6,1,0,1,36.2
Status,1774983534000,37,7,1,17,1575420000,28.70,267.9,21.2,1,0,1,23.7
Status,1774983534000,37,8,1,19,1575420000,41.30,296.0,18.3,1,0,1,36.3
Status,1774983534000,37,9,1,6,1575420000,36.00,319.7,15.1,1,0,1,31.0
Status,1774983534000,37,10,1,26,1575420000,37.80,98.6,6.1,1,0,1,32.8
Status,1774983534000,37,11,3,21,1604250000,37.90,271.8,61.3,1,0,1,32.9
Status,1774983534000,37,12,3,6,1599750000,39.20,307.0,58.1,1,0,1,34.2
Status,1774983534000,37,13,3,5,1602562600,39.90,36.9,41.8,1,0,1,34.9
Status,1774983534000,37,14,3,20,1603125000,39.60,191.0,40.4,1,0,1,34.6
Status,1774983534000,37,15,3,15,1602000000,36.90,84.3,21.1,1,0,1,31.9
Status,1774983534000,37,16,3,22,1600312400,35.80,331.6,14.4,1,0,1,30.8
Status,1774983534000,37,17,3,14,1598062500,34.00,33.0,12.8,1,0,1,29.0
Status,1774983534000,37,18,3,16,1601437400,32.90,133.8,5.8,1,0,1,27.9
Status,1774983534000,37,19,6,34,1575420000,36.10,202.8,79.0,1,0,1,31.1
Status,1774983534000,37,20,3,7,1602000000,28.50,258.8,11.0,0,0,1,23.5
Status,1774983534000,37,21,6,5,1575420000,35.60,42.7,75.5,1,0,1,30.6
Status,1774983534000,37,22,6,3,1575420000,41.10,233.4,48.2,1,0,1,36.1
Status,1774983534000,37,23,6,15,1575420000,36.80,313.8,39.3,1,0,1,31.8
Status,1774983534000,37,24,6,36,1575420000,40.20,148.8,29.5,1,0,1,35.2
Status,1774983534000,37,25,5,32,1575420000,44.40,332.6,69.9,1,0,1,39.4
Status,1774983534000,37,26,5,30,1575420000,45.10,248.1,43.7,1,0,1,40.1
Status,1774983534000,37,27,5,16,1561098000,36.40,58.4,34.7,1,0,1,31.4
Status,1774983534000,37,28,5,41,1575420000,44.20,64.3,34.0,1,0,1,39.2
Status,1774983534000,37,29,5,39,1575420000,33.10,50.4,30.7,1,0,1,28.1
Status,1774983534000,37,30,5,29,1575420000,39.30,307.7,24.6,1,0,1,34.3
Status,1774983534000,37,31,5,20,1575420000,28.80,270.3,23.6,1,0,1,23.8
Status,1774983534000,37,32,5,23,1575420000,44.60,122.0,23.2,1,0,1,39.6
Status,1774983534000,37,33,5,25,1575420000,38.30,70.0,22.9,1,0,1,33.3
Status,1774983534000,37,34,5,2,1561098000,38.00,112.0,20.2,1,0,1,33.0
Status,1774983534000,37,35,5,13,1561098000,37.90,96.3,11.6,1,0,1,32.9
Status,1774983534000,37,36,5,9,1561098000,30.30,85.4,43.3,0,1,0,25.3
Fix,GPS,40.8931463119,29.3753362913,173.0,0.93,3.0,138.4,1774983535000,0.26,50.8,34568622258469,3.0,0,,,
Status,1774983535000,37,0,1,3,1575420000,43.30,17.8,71.6,1,0,1,38.3
Status,1774983535000,37,1,1,4,1575420000,35.50,251.7,64.4,1,0,1,30.5
Status,1774983535000,37,2,1,1,1575420000,38.60,171.1,54.7,1,0,1,33.6
Status,1774983535000,37,3,1,31,1575420000,39.80,73.2,43.2,1,0,1,34.8
Status,1774983535000,37,4,1,9,1575420000,39.20,245.2,30.3,1,0,1,34.2
Status,1774983535000,37,5,1,28,1575420000,39.50,46.8,24.4,1,0,1,34.5
Status,1774983535000,37,6,1,2,1575420000,41.50,164.1,23.6,1,0,1,36.5
Status,1774983535000,37,7,1,17,1575420000,37.40,267.9,21.2,1,0,1,32.4
Status,1774983535000,37,8,1,19,1575420000,41.00,296.0,18.3,1,0,1,36.0
Status,1774983535000,37,9,1,6,1575420000,35.20,319.7,15.1,1,0,1,30.2
Status,1774983535000,37,10,1,26,1575420000,37.10,98.6,6.1,1,0,1,32.1
Status,1774983535000,37,11,3,21,1604250000,37.90,271.8,61.3,1,0,1,32.9
Status,1774983535000,37,12,3,6,1599750000,39.10,307.0,58.1,1,0,1,34.1
Status,1774983535000,37,13,3,5,1602562600,40.40,36.9,41.8,1,0,1,35.4
Status,1774983535000,37,14,3,20,1603125000,39.50,191.0,40.4,1,0,1,34.5
Status,1774983535000,37,15,3,15,1602000000,36.40,84.3,21.1,1,0,1,31.4
Status,1774983535000,37,16,3,22,1600312400,35.70,331.6,14.4,1,0,1,30.7
Status,1774983535000,37,17,3,14,1598062500,33.90,33.0,12.8,1,0,1,28.9
Status,1774983535000,37,18,3,16,1601437400,32.80,133.8,5.8,1,0,1,27.8
Status,1774983535000,37,19,6,34,1575420000,36.10,202.8,79.0,1,0,1,31.1
Status,1774983535000,37,20,3,7,1602000000,27.00,258.8,11.0,0,0,1,22.0
Status,1774983535000,37,21,6,5,1575420000,35.80,42.6,75.3,1,0,1,30.8
Status,1774983535000,37,22,6,3,1575420000,41.40,233.4,48.2,1,0,1,36.4
Status,1774983535000,37,23,6,15,1575420000,36.10,313.8,39.3,1,0,1,31.1
Status,1774983535000,37,24,6,36,1575420000,40.10,148.8,29.5,1,0,1,35.1
Status,1774983535000,37,25,5,32,1575420000,44.30,332.6,69.9,1,0,1,39.3
Status,1774983535000,37,26,5,30,1575420000,45.00,248.1,43.7,1,0,1,40.0
Status,1774983535000,37,27,5,16,1561098000,36.40,58.4,34.7,1,0,1,31.4
Status,1774983535000,37,28,5,41,1575420000,44.20,64.3,34.0,1,0,1,39.2
Status,1774983535000,37,29,5,39,1575420000,33.00,50.4,30.7,1,0,1,28.0
Status,1774983535000,37,30,5,29,1575420000,38.80,307.7,24.6,1,0,1,33.8
Status,1774983535000,37,31,5,20,1575420000,39.80,270.3,23.6,1,0,1,34.8
Status,1774983535000,37,32,5,23,1575420000,44.50,122.0,23.2,1,0,1,39.5
Status,1774983535000,37,33,5,25,1575420000,39.30,70.0,22.9,1,0,1,34.3
Status,1774983535000,37,34,5,2,1561098000,37.40,112.0,20.2,1,0,1,32.4
Status,1774983535000,37,35,5,13,1561098000,36.90,96.3,11.6,0,0,1,31.9
Status,1774983535000,37,36,5,9,1561098000,30.20,85.4,43.3,0,1,0,25.2
Fix,GPS,40.8931411989,29.3753408175,173.0,0.76,3.0,133.0,1774983536000,0.48,21.2,34569641919006,3.0,0,,,
Status,1774983536000,37,0,1,3,1575420000,43.00,17.8,71.6,1,0,1,38.0
Status,1774983536000,37,1,1,4,1575420000,35.70,251.7,64.4,1,0,1,30.7
Status,1774983536000,37,2,1,1,1575420000,38.60,171.1,54.7,1,0,1,33.6
Status,1774983536000,37,3,1,31,1575420000,39.80,73.2,43.2,1,0,1,34.8
Status,1774983536000,37,4,1,9,1575420000,39.00,245.2,30.3,1,0,1,34.0
Status,1774983536000,37,5,1,28,1575420000,39.50,46.8,24.4,1,0,1,34.5
Status,1774983536000,37,6,1,2,1575420000,41.60,164.1,23.6,1,0,1,36.6
Status,1774983536000,37,7,1,17,1575420000,37.30,267.9,21.2,1,0,1,32.3
Status,1774983536000,37,8,1,19,1575420000,40.60,296.0,18.3,1,0,1,35.6
Status,1774983536000,37,9,1,6,1575420000,34.60,319.7,15.1,1,0,1,29.6
Status,1774983536000,37,10,1,26,1575420000,36.60,98.6,6.1,1,0,1,31.6
Status,1774983536000,37,11,3,21,1604250000,37.80,271.8,61.3,1,0,1,32.8
Status,1774983536000,37,12,3,6,1599750000,39.00,307.0,58.1,1,0,1,34.0
Status,1774983536000,37,13,3,5,1602562600,40.80,36.9,41.8,1,0,1,35.8
Status,1774983536000,37,14,3,20,1603125000,39.50,191.0,40.4,1,0,1,34.5
Status,1774983536000,37,15,3,15,1602000000,35.80,84.3,21.1,1,0,1,30.8
Status,1774983536000,37,16,3,22,1600312400,35.60,331.6,14.4,1,0,1,30.6
Status,1774983536000,37,17,3,14,1598062500,34.00,33.0,12.8,1,0,1,29.0
Status,1774983536000,37,18,3,16,1601437400,32.70,133.8,5.8,1,0,1,27.7
Status,1774983536000,37,19,6,34,1575420000,36.10,202.8,79.0,1,0,1,31.1
Status,1774983536000,37,20,3,7,1602000000,25.50,258.8,11.0,0,0,1,20.5
Status,1774983536000,37,21,6,5,1575420000,35.90,42.6,75.3,1,0,1,30.9
Status,1774983536000,37,22,6,3,1575420000,41.50,233.4,48.2,1,0,1,36.5
Status,1774983536000,37,23,6,15,1575420000,35.30,313.8,39.3,1,0,1,30.3
Status,1774983536000,37,24,6,36,1575420000,40.00,148.8,29.5,1,0,1,35.0
Status,1774983536000,37,25,5,32,1575420000,44.20,332.6,69.9,1,0,1,39.2
Status,1774983536000,37,26,5,30,1575420000,45.00,248.1,43.7,1,0,1,40.0
Status,1774983536000,37,27,5,16,1561098000,36.30,58.4,34.7,1,0,1,31.3
Status,1774983536000,37,28,5,41,1575420000,44.20,64.3,34.0,1,0,1,39.2
Status,1774983536000,37,29,5,39,1575420000,33.00,50.4,30.7,1,0,1,28.0
Status,1774983536000,37,30,5,29,1575420000,38.30,307.7,24.6,1,0,1,33.3
Status,1774983536000,37,31,5,20,1575420000,39.80,270.3,23.6,1,0,1,34.8
Status,1774983536000,37,32,5,23,1575420000,44.40,122.0,23.2,1,0,1,39.4
Status,1774983536000,37,33,5,25,1575420000,39.70,70.0,22.9,1,0,1,34.7
Status,1774983536000,37,34,5,2,1561098000,36.80,112.0,20.2,1,0,1,31.8
Status,1774983536000,37,35,5,13,1561098000,36.00,96.3,11.6,1,0,1,31.0
Status,1774983536000,37,36,5,9,1561098000,30.10,85.4,43.3,0,1,0,25.1
Fix,GPS,40.8931403188,29.3753417395,172.0,0.68,3.0,131.2,1774983537000,0.22,28.9,34570635645660,3.0,0,,,
Status,1774983537000,37,0,1,3,1575420000,42.80,17.8,71.6,1,0,1,37.8
Status,1774983537000,37,1,1,4,1575420000,35.90,251.7,64.4,1,0,1,30.9
Status,1774983537000,37,2,1,1,1575420000,38.60,171.1,54.7,1,0,1,33.6
Status,1774983537000,37,3,1,31,1575420000,39.80,73.2,43.2,1,0,1,34.8
Status,1774983537000,37,4,1,9,1575420000,38.80,245.2,30.3,1,0,1,33.8
Status,1774983537000,37,5,1,28,1575420000,39.40,46.8,24.4,1,0,1,34.4
Status,1774983537000,37,6,1,2,1575420000,42.00,164.1,23.6,1,0,1,37.0
Status,1774983537000,37,7,1,17,1575420000,37.20,267.9,21.2,1,0,1,32.2
Status,1774983537000,37,8,1,19,1575420000,40.30,296.0,18.3,1,0,1,35.3
Status,1774983537000,37,9,1,6,1575420000,34.10,319.7,15.1,1,0,1,29.1
Status,1774983537000,37,10,1,26,1575420000,36.00,98.6,6.1,1,0,1,31.0
Status,1774983537000,37,11,3,21,1604250000,37.80,271.8,61.3,1,0,1,32.8
Status,1774983537000,37,12,3,6,1599750000,38.90,307.0,58.1,1,0,1,33.9
Status,1774983537000,37,13,3,5,1602562600,41.20,36.9,41.8,1,0,1,36.2
Status,1774983537000,37,14,3,20,1603125000,39.40,191.0,40.4,1,0,1,34.4
Status,1774983537000,37,15,3,15,1602000000,35.40,84.3,21.1,1,0,1,30.4
Status,1774983537000,37,16,3,22,1600312400,35.50,331.6,14.4,1,0,1,30.5
Status,1774983537000,37,17,3,14,1598062500,34.50,33.0,12.8,1,0,1,29.5
Status,1774983537000,37,18,3,16,1601437400,32.60,133.8,5.8,1,0,1,27.6
Status,1774983537000,37,19,6,34,1575420000,36.10,202.8,79.0,1,0,1,31.1
Status,1774983537000,37,20,3,7,1602000000,24.00,258.8,11.0,0,0,1,19.0
Status,1774983537000,37,21,6,5,1575420000,36.10,42.6,75.3,1,0,1,31.1
Status,1774983537000,37,22,6,3,1575420000,41.90,233.4,48.2,1,0,1,36.9
Status,1774983537000,37,23,6,15,1575420000,34.60,313.8,39.3,1,0,1,29.6
Status,1774983537000,37,24,6,36,1575420000,40.00,148.8,29.5,1,0,1,35.0
Status,1774983537000,37,25,5,32,1575420000,44.10,332.6,69.9,1,0,1,39.1
Status,1774983537000,37,26,5,30,1575420000,44.90,248.1,43.7,1,0,1,39.9
Status,1774983537000,37,27,5,16,1561098000,36.20,58.4,34.7,1,0,1,31.2
